Reporting ID,Data Year,MapLot,Compliance Status,BEUDO Category,BEUDO Property Type,PD Parcel Living Area,PD Parcel Units,Address,Year Built,Buildings Included,Buildings Included Count,Primary Property Type - Self Selected,All Property Uses,Property GFA - Self Reported (ft2),Reported Residential Units,Owner,Owner Line 2,ENERGY STAR Score,Electricity Use - Grid Purchase (kWh),Electricity Use - Grid Purchase (kBtu),Natural Gas Use (therms),Natural Gas Use (kBtu),Fuel Oil #1 Use (kBtu),Fuel Oil #2 Use (kBtu),Fuel Oil #4 Use (kBtu),Fuel Oil #5 & 6 Use (kBtu),Diesel #2 Use (kBtu),Kerosene Use (kBtu),District Chilled Water Use (kBtu),District Steam Use (kBtu),Electricity Use - Generated From Onsite Renewable Systems (kWh),Site Energy Use (kBtu),Weather Normalized Site Energy Use (kBtu),Site EUI (kBtu/ft2),Weather Normalized Site EUI (kBtu/ft2),Source Energy Use (kBtu),Weather Normalized Source Energy Use (kBtu),Source EUI (kBtu/ft2),Weather Normalized Source EUI (kBtu/ft2),Total GHG Emissions (Metric Tons CO2e),Water Use (All Water Sources) (kgal),Water Intensity (All Water Sources) (gal/ft2),Grid Electricity Emissions Factor (Metric Tons CO2e per Million Btus),Grid Electricity Emissions (Metric Tons CO2e),Natural Gas Emissions Factor (Metric Tons CO2e per Million Btus),Natural Gas Emissions (Metric Tons CO2e),Fuel Oil #1 Emissions Factor (Metric Tons CO2e per Million Btus),Fuel Oil #1 Emissions (Metric Tons CO2e),Fuel Oil #2 Emissions Factor (Metric Tons CO2e per Million Btus),Fuel Oil #2 Emissions (Metric Tons CO2e),Fuel Oil #4 Emissions Factor (Metric Tons CO2e per Million Btus),Fuel Oil #4 Emissions (Metric Tons CO2e),Fuel Oil #5 or #6 Emissions Factor (Metric Tons CO2e per Million Btus),Fuel Oil #5 or #6 Emissions (Metric Tons CO2e),Diesel Emissions Factor (Metric Tons CO2e per Million Btus),Diesel Emissions (Metric Tons CO2e),Kerosene Emissions Factor (Metric Tons CO2e per Million Btus),Kerosene Emissions (Metric Tons CO2e),District Steam Emissions Factor (Metric Tons CO2e per Million Btus),District Steam Emissions (Metric Tons CO2e),District Chilled Water Emissions Factor (Metric Tons CO2e per Million Btus),District Chilled Water Emissions (Metric Tons CO2e),Latitude,Longitude,Coordinates
B1017,2015,71-56,Compliant,Non-Residential,Technology/Science,978455,0,610 Main Street,2016,658-3,1,Laboratory,"Restaurant (N/A),Laboratory (278970.0)",278738,,"MIT 650 MAIN STREET, LLC",,,,,,,,,,,,,,,,,,,,,,,,0,2202.4,,0.0767,0,0.0531,0,0.0735,0,0.0742,0,0.0753,0,0.0753,0,0.0742,0,0.0777,0,0.0664,0,0.0575,0,42.3626,-71.0941,POINT (-71.0941417949938 42.3625856183887)
B1173,2015,157-69,Compliant,Non-Residential,Technology/Science,1462119,18,11 Oxford St,1931,266-9,1,Laboratory,Laboratory (47424.0),51360,,PRESIDENT & FELLOWS OF HARVARD COLLEGE,,,556386.2,1898389.9,,,,,,,,,,1663777.2,,3562167.1,3534273.7,75.1,74.5,7317084,7283527.2,154.3,153.6,256.0247,437.3,9.22,0.0767,145.5524,0.0531,0,0.0735,0,0.0742,0,0.0753,0,0.0753,0,0.0742,0,0.0777,0,0.0664,110.4723,0.0575,0,42.3775,-71.1171,POINT (-71.1171467528995 42.3775288216797)
B1385,2015,185-58,Compliant,Non-Residential,Education,90180,,1 Matignon Rd.,1949,"2-10, 2-11, 2-9",3,K-12 School,K-12 School (96508.0),96508,,ARCHDIOCESE CENTRAL HIGH SCHOOL INC.,,,,,,,,,,,,,,,,,,,,,,,,0,,,0.0767,0,0.0531,0,0.0735,0,0.0742,0,0.0753,0,0.0753,0,0.0742,0,0.0777,0,0.0664,0,0.0575,0,42.4015,-71.1317,POINT (-71.1317433603848 42.4015177701713)
B1414,2015,63-134,Compliant,Non-Residential,Other,368003,201,575 Memorial Drive,1976,"750-2, 750-5",2,Hotel,Hotel (347000.0),347000,,HRB MA HOLDINGS LLC,,,,,,,,,,,,,,,,,,,,,,,,0,,,0.0767,0,0.0531,0,0.0735,0,0.0742,0,0.0753,0,0.0753,0,0.0742,0,0.0777,0,0.0664,0,0.0575,0,42.3541,-71.1055,POINT (-71.1055467679064 42.3541342705191)
B1665,2015,267F-283,Compliant,Non-Residential,Office,34482,1,77 Fawcett Street,1973,78-4,1,Office,Office (34842.0),34842,,"CV PORTFOLIO WEST CAMBRIDGE, LLC,",C/O RAYTHEON BBN TECHNOLOGIES,,,,,,,,,,,,,,,,,,,,,,,0,,,0.0767,0,0.0531,0,0.0735,0,0.0742,0,0.0753,0,0.0753,0,0.0742,0,0.0777,0,0.0664,0,0.0575,0,42.3917,-71.1466,POINT (-71.1466182699249 42.3916548808831)
B1406,2016,242B-56,Non-Compliant,Non-Residential,Education,109553,,178 Coolidge Hill,1930,387-22,1,K-12 School,K-12 School (1766.0),1766,,SHADY HILL SCHOOL,,,,,,,,,,,,,,,,,,,,,,,,0,,,0.0749,0,0.0531,0,0.0735,0,0.0742,0,0.0753,0,0.0753,0,0.0742,0,0.0777,0,0.0664,0,0.0575,0,42.3719,-71.1378,POINT (-71.1377545950617 42.37194154156)
B1519,2016,121-114,Non-Compliant,Residential,Other,87557,72,613-619 Green Street,,489-19,1,,,,,MASSACHUSETTS INSTITUTE OF TECHNOLOGY,,,,,,,,,,,,,,,,,,,,,,,,0,,,0.0749,0,0.0531,0,0.0735,0,0.0742,0,0.0753,0,0.0753,0,0.0742,0,0.0777,0,0.0664,0,0.0575,0,42.3689,-71.1117,POINT (-71.1116891018412 42.3688629714814)
B1552,2016,170-4,Non-Compliant,Non-Residential,House of Worship,40360,,11 Garden Street,1872,290-8,1,Worship Facility,Worship Facility (5000.0),5000,,FIRST CHURCH IN CAMBRIDGE CONGREGATIONAL,,,128291.6,437730.9,,,,,,,,,,,,,,,,,,,,32.8025,,,0.0749,32.8025,0.0531,0,0.0735,0,0.0742,0,0.0753,0,0.0753,0,0.0742,0,0.0777,0,0.0664,0,0.0575,0,42.3766,-71.123,POINT (-71.123018585677 42.3766250647634)
B1577,2016,85-76,Non-Compliant,Non-Residential,Office,34806,,141 + 143 Hampshire st,1950,385-50,1,Office,Office,2616,,"NORSHIRE LLC,",,,,,,,,,,,,,,,,,,,,,,,,0,,,0.0749,0,0.0531,0,0.0735,0,0.0742,0,0.0753,0,0.0753,0,0.0742,0,0.0777,0,0.0664,0,0.0575,0,42.3711,-71.0971,POINT (-71.0970792716148 42.3711125719179)
B1593,2016,135-23,Compliant,Residential,Residential,38994,65,383 Harvard Street,1893,"366-1, 366-3",2,Multifamily Housing,Multifamily Housing (N/A),38994,,"MOSKOW, ABRAHAM &",MICHAEL B MOSKOW TRUSTEES OF,,,,,,,,,,,,,,,,,,,,,,,0,,,0.0749,0,0.0531,0,0.0735,0,0.0742,0,0.0753,0,0.0753,0,0.0742,0,0.0777,0,0.0664,0,0.0575,0,42.372,-71.1131,POINT (-71.1130665100088 42.3720164916793)
B1622,2016,195-143,Compliant,Non-Residential,House of Worship,87228,0,15 Notre Dame Ave,1925,"67-3, 67-9, 67-13, 67-14",4,Worship Facility,Worship Facility (24135.0),24135,,VINEYARD CHRISTIAN FELLOWSHIP OF,,,,,,,,,,,,,,,,,,,,,,,,0,,,0.0749,0,0.0531,0,0.0735,0,0.0742,0,0.0753,0,0.0753,0,0.0742,0,0.0777,0,0.0664,0,0.0575,0,42.3925,-71.1314,POINT (-71.1313513194866 42.3924977035378)
B1663,2016,44-106,Non-Compliant,Non-Residential,Other,333774,1,50 Broadway,1986,643-8,1,Hotel,Hotel (334260.0),334260,,"ZUCKERMAN, MORTIMER B.,","EDWARD H. LINDE & DAVID BARRETT, TRS.",24,5983200,20414678.5,191296,19129601.2,,,,,,,,,,39544279.7,,118.3,,77247181,,231.1,,2545.8921,15023.1,44.94,0.0749,1529.8272,0.0531,1016.0649,0.0735,0,0.0742,0,0.0753,0,0.0753,0,0.0742,0,0.0777,0,0.0664,0,0.0575,0,42.363,-71.0859,POINT (-71.0859382504638 42.3630074920382)
B1672,2016,84-101,Compliant,Non-Residential,Office,26830,,1280 Cambridge St.,1914,370-5,1,Office,Office (N/A),17300,,"KO, NAI NAN & JULIA KOANG SHIH KO,",,,,,,,,,,,,,,,,,,,,,,,,0,,,0.0749,0,0.0531,0,0.0735,0,0.0742,0,0.0753,0,0.0753,0,0.0742,0,0.0777,0,0.0664,0,0.0575,0,42.3732,-71.0989,POINT (-71.0988705552198 42.3732364825443)
B1846,2016,74-25,Non-Compliant,Municipal,Municipal,13104,0,105 Windsor Street,,622-2,1,,,,,CAMBRIDGE CITY OF,RECREATION DEPT,,,,,,,,,,,,,,,,,,,,,,,0,,,0.0749,0,0.0531,0,0.0735,0,0.0742,0,0.0753,0,0.0753,0,0.0742,0,0.0777,0,0.0664,0,0.0575,0,42.3641,-71.0968,POINT (-71.0968044087014 42.3640742165848)
B1128,2017,35-95,Non-Compliant,Non-Residential,Other,32775,0,155 Gore St,,369-2,1,,,,,MASSACHUSETTS COMMONWEALTH OF,MDC SKATING RINK,,,,,,,,,,,,,,,,,,,,,,,0,,,0.0749,0,0.0531,0,0.0735,0,0.0742,0,0.0753,0,0.0753,0,0.0742,0,0.0777,0,0.0664,0,0.0575,0,42.373,-71.0846,POINT (-71.0845664369688 42.3730005968916)
B1593,2017,135-23,Non-Compliant,Residential,Residential,38994,65,383 Harvard Street,1893,"366-1, 366-3",2,Multifamily Housing,Multifamily Housing (N/A),38994,,"MOSKOW, ABRAHAM &",MICHAEL B MOSKOW TRUSTEES OF,,,,,,,,,,,,,,,,,,,,,,,0,,,0.0749,0,0.0531,0,0.0735,0,0.0742,0,0.0753,0,0.0753,0,0.0742,0,0.0777,0,0.0664,0,0.0575,0,42.372,-71.1131,POINT (-71.1130665100088 42.3720164916793)
B1604,2017,267.4-254,Non-Compliant,Non-Residential,Municipal,46666,2,100 smith place,1960,69-2,1,Other - Services,"Parking (N/A),Other - Services (N/A)",46666,,"JOLLY GREEN GIANT, LLC.",,,,,,,,,,,,,,,,,,,,,,,,0,,,0.0749,0,0.0531,0,0.0735,0,0.0742,0,0.0753,0,0.0753,0,0.0742,0,0.0777,0,0.0664,0,0.0575,0,42.3931,-71.1499,POINT (-71.149941345546 42.3930800620073)
B1759,2017,189-104,Non-Compliant,Residential,Residential,100581,76,1 Whittemore Ave,2016,"17-4, 17-6, 17-8, 17-15, 17-18, 17-21",6,Multifamily Housing,Multifamily Housing (200000.0),200000,68,TYLER COURT LIMITED PARTNERSHIP,,,,,,,,,,,,,,,,,,,,,,,,0,,,0.0749,0,0.0531,0,0.0735,0,0.0742,0,0.0753,0,0.0753,0,0.0742,0,0.0777,0,0.0664,0,0.0575,0,42.3983,-71.1341,POINT (-71.1340596776216 42.3983439202205)
B1809,2017,90-14,Non-Compliant,Non-Residential,Office,26070,0,84 Prospect St,1980,542-17,1,Office,"Office (26070.0),Parking (150.0)",26070,,"BURCOMBE, LLC",,,,,,,,,,,,,,,,,,,,,,,,0,,,0.0749,0,0.0531,0,0.0735,0,0.0742,0,0.0753,0,0.0753,0,0.0742,0,0.0777,0,0.0664,0,0.0575,0,42.3671,-71.1023,POINT (-71.1022806346766 42.3670585639913)
B1884,2017,267.1-274,Non-Compliant,Residential,Residential,46380,320,195 Concord Turnpike,,9-3,1,,,,,"MARTIGNETTI, CARMINE A., ET AL TRS",,,,,,,,,,,,,,,,,,,,,,,,0,,,0.0749,0,0.0531,0,0.0735,0,0.0742,0,0.0753,0,0.0753,0,0.0742,0,0.0777,0,0.0664,0,0.0575,0,42.3992,-71.1485,POINT (-71.1485287411344 42.3991675418716)
B1125,2018,39-173,Non-Compliant,Non-Residential,Technology/Science,173838,1,399 Binney Street,2018,417-30,1,Laboratory,Laboratory (165194.0),165194,,"ARE-MA REGION NO. 58, LLC",,,,,,,,,,,,,,,,,,,,,,,,0,,,0.0701,0,0.0531,0,0.0735,0,0.0742,0,0.0753,0,0.0753,0,0.0742,0,0.0777,0,0.0664,0,0.0575,0,42.3679,-71.0904,POINT (-71.0903822183998 42.3679107703477)
B1188,2018,130-168,Compliant,Non-Residential,Residential,176218,170,28 Hingham St,2008,619-27,1,Multifamily Housing,Multifamily Housing (9195.0),9195,6,PRESIDENT & FELLOWS OF HARVARD COLLEGE,,,54818.8,187041.8,3303,330300,,,,,,,,,,517341.8,514974.3,56.3,56,870532.1,862679.4,94.7,93.8,30.6614,501.2,54.51,0.0701,13.1175,0.0531,17.5438,0.0735,0,0.0742,0,0.0753,0,0.0753,0,0.0742,0,0.0777,0,0.0664,0,0.0575,0,42.365,-71.1151,POINT (-71.1151227065186 42.3650314945669)
B1552,2018,170-4,Non-Compliant,Non-Residential,House of Worship,40360,,11 Garden Street,1872,290-8,1,Worship Facility,Worship Facility (5000.0),5000,,FIRST CHURCH IN CAMBRIDGE CONGREGATIONAL,,,,,,,,,,,,,,,,,,,,,,,,0,,,0.0701,0,0.0531,0,0.0735,0,0.0742,0,0.0753,0,0.0753,0,0.0742,0,0.0777,0,0.0664,0,0.0575,0,42.3766,-71.123,POINT (-71.123018585677 42.3766250647634)
B1576,2018,85-76,Non-Compliant,Non-Residential,Office,34806,,139 Hampshire st,1982,385-61,1,Office,Office,1260,,"NORSHIRE LLC,",,,,,,,,,,,,,,,,,,,,,,,,0,,,0.0701,0,0.0531,0,0.0735,0,0.0742,0,0.0753,0,0.0753,0,0.0742,0,0.0777,0,0.0664,0,0.0575,0,42.3709,-71.0971,POINT (-71.0970732319374 42.3708960696101)
B1661,2018,1A-70,Compliant,Non-Residential,College/University,26034,1,17 Monsignor O'Brien,1988,460-3,1,College/University,College/University (55000.0),55000,,"EFEKTA  ENTRANCE, INC",,,197943.3,675382.5,,,,,,,,,,,,2071423.7,,37.7,,3356914.3,,61,,47.3657,,,0.0701,47.3657,0.0531,0,0.0735,0,0.0742,0,0.0753,0,0.0753,0,0.0742,0,0.0777,0,0.0664,0,0.0575,0,42.3692,-71.0722,POINT (-71.07218847187 42.3692353500088)
B1676,2018,269-132,Compliant,Non-Residential,Office,92672,1,1 Alewife Center,1988,24-3,1,Office,Office (89875.0),89875,,"IQHQ ALEWIFE, LLC",,,,,,,,,,,,,,,,,,,,,,,,0,,,0.0701,0,0.0531,0,0.0735,0,0.0742,0,0.0753,0,0.0753,0,0.0742,0,0.0777,0,0.0664,0,0.0575,0,42.3985,-71.1399,POINT (-71.1398876059305 42.3985140650977)
B1706,2018,92-130,Compliant,Residential,Residential,103484,83,115 Pacific St,1990,665-16,1,Multifamily Housing,Multifamily Housing (6505.0),6505,6,MASSACHUSETTS INSTITUTE OF TECHNOLOGY,,,29650,101165.8,4061.5313,406153.1,,,,,,,,,,101165.8,101165.8,15.6,15.6,283264.3,283264.3,43.5,43.5,28.6677,314,48.27,0.0701,7.0949,0.0531,21.5727,0.0735,0,0.0742,0,0.0753,0,0.0753,0,0.0742,0,0.0777,0,0.0664,0,0.0575,0,42.3611,-71.1034,POINT (-71.1034198821725 42.361115472629)
B1756,2018,31-15,Compliant,Non-Residential,Technology/Science,195966,1,320 Bent Street,2002,554-1,1,Laboratory,Laboratory (195198.0),195198,,"MBA-ROGERS STREET, LLC",C/O RYAN LLC,,10592160.5,36140451.6,422099,42209900.4,,,,,,,,,,78350352.1,78439212.9,401.4,401.8,145513660,145628982.9,745.5,746.1,4776.5587,10058.7,51.53,0.0701,2534.5883,0.0531,2241.9704,0.0735,0,0.0742,0,0.0753,0,0.0753,0,0.0742,0,0.0777,0,0.0664,0,0.0575,0,42.3674,-71.0875,POINT (-71.0874920769636 42.3674396139441)
B1834,2018,107-138,Compliant,Non-Residential,Other,48532,103,7 Temple Street,1911,570-4,1,Multifamily Housing,"Office (33891.0),Multifamily Housing (50849.0)",50849,103,CAMBRIDGE YOUNG WOMENS,CHRISTIAN ASSOCIATION,,,,,,,,,,,,,,,,,,,,,,,0,1996.1,23.56,0.0701,0,0.0531,0,0.0735,0,0.0742,0,0.0753,0,0.0753,0,0.0742,0,0.0777,0,0.0664,0,0.0575,0,42.3668,-71.1043,POINT (-71.1043302221195 42.3667972109572)
B1314,2019,100-68,Non-Compliant,Non-Residential,Other,129942,2,777 Memorial Drive,2000,"718-3, 718-4",2,Hotel,Hotel (105000.0),105000,,777 MEMORIAL OWNER LP,C/O MARVIN F. POER & CO,,,,,,,,,,,,,,,,,,,,,,,0,,,0.0656,0,0.0531,0,0.0735,0,0.0742,0,0.0753,0,0.0753,0,0.0742,0,0.0777,0,0.0664,0,0.0575,0,42.3587,-71.1147,POINT (-71.1147104199688 42.3586717134715)
B1360,2019,157-69,Compliant,Non-Residential,Other,1462119,18,10 Everett Street,2010,253-6,1,Parking,Parking (223000.0),223000,,PRESIDENT & FELLOWS OF HARVARD COLLEGE,,,498819.5,1701972.1,,,,,,,,,,,,1701972.1,1701972.1,7.6,7.6,4765521.8,4765521.8,21.4,21.4,111.7295,,,0.0656,111.7295,0.0531,0,0.0735,0,0.0742,0,0.0753,0,0.0753,0,0.0742,0,0.0777,0,0.0664,0,0.0575,0,42.3793,-71.1193,POINT (-71.1192692512736 42.3793118769113)
B1377,2019,43A-21,Compliant,Non-Residential,Office,348983,,600 Technology Square,2001,610-6,1,Office,"Office (106224.0),Retail Store (21000.0)",127224,,"MIT REAL ESTATE, LLC,",,6,4462723.6,15226813,39.75,3975,,,,,,,,,,15226813,15226813,119.7,119.7,42635076.5,42635076.5,335.1,335.1,999.8066,2085.1,16.39,0.0656,999.5955,0.0531,0.2111,0.0735,0,0.0742,0,0.0753,0,0.0753,0,0.0742,0,0.0777,0,0.0664,0,0.0575,0,42.3634,-71.0931,POINT (-71.093116761742 42.3633891110157)
B1416,2019,66-152,Compliant,Residential,Residential,89120,96,240 Sidney St,2015,734-1,1,Multifamily Housing,Multifamily Housing (96431.0),96431,89.71,"SIDNEY GROVE LLC,",C/O NATIONAL DEVELOPMENT,,,,,,,,,,,,,,,,,,,,,,,0,2592.3,26.88,0.0656,0,0.0531,0,0.0735,0,0.0742,0,0.0753,0,0.0753,0,0.0742,0,0.0777,0,0.0664,0,0.0575,0,42.3568,-71.106,POINT (-71.1059981590737 42.3567957135827)
B1564,2019,27-93,Non-Compliant,Non-Residential,Manufacturing/Industrial,156564,1,250 Bent St,1970,564-1,1,Data Center,"Data Center (138000.0),Parking (8000.0)",138000,,AT&T CORP.,,,,,,,,,,,,,,,,,,,,,,,,0,,,0.0656,0,0.0531,0,0.0735,0,0.0742,0,0.0753,0,0.0753,0,0.0742,0,0.0777,0,0.0664,0,0.0575,0,42.3671,-71.0847,POINT (-71.0846679188015 42.3670634315501)
B1671,2019,7-29,Non-Compliant,Non-Residential,Manufacturing/Industrial,65704,1,225 Monsignor O'Brien Highway,1920,358-7,1,Manufacturing/Industrial Plant,Manufacturing/Industrial Plant,65704,,"EASTMAN BROOK LLC,",,,,,,,,,,,,,,,,,,,,,,,,0,1240.3,18.88,0.0656,0,0.0531,0,0.0735,0,0.0742,0,0.0753,0,0.0753,0,0.0742,0,0.0777,0,0.0664,0,0.0575,0,42.3732,-71.0803,POINT (-71.0802508890137 42.3732049896893)
B1864,2019,10-37,Compliant,Non-Residential,Office,26600,,107 First St,1905,547-3,1,,,,,Multiple Owners,,,,,,,,,,,,,,,,,,,,,,,,0,,,0.0656,0,0.0531,0,0.0735,0,0.0742,0,0.0753,0,0.0753,0,0.0742,0,0.0777,0,0.0664,0,0.0575,0,42.3677,-71.0779,POINT (-71.0779203613919 42.3676614315055)
B1156,2020,133-36,Compliant,Non-Residential,College/University,40876,0,2 Arrow Street,2004,"439-16, 439-11",2,College/University,College/University (50347.0),50347,,PRESIDENT AND FELLOWS OF HARVARD COLLEGE,,,174617.2,595793.8,,,,,,,,,,,,595793.8,595793.8,11.8,11.8,1668222.7,1668222.7,33.1,33.1,42.2129,,,0.0709,42.2129,0.0531,0,0.0735,0,0.0742,0,0.0753,0,0.0753,0,0.0742,0,0.0777,0,0.0664,0,0.0575,0,42.3708,-71.1145,POINT (-71.1144916061288 42.3707700500492)
B1262,2020,136-2,Compliant,Non-Residential,College/University,386737,1,16 Quincy St,1822,333-5,1,College/University,College/University (5964.0),5964,,PRESIDENT & FELLOWS OF HARVARD COLLEGE,,,15156.6,51714.3,1441,144101,,,,,,,13351.7,,,209167,223196.7,35.1,37.4,308256.1,323084.8,51.7,54.2,12.0851,5.4,0.91,0.0709,3.664,0.0531,7.6539,0.0735,0,0.0742,0,0.0753,0,0.0753,0,0.0742,0,0.0777,0,0.0664,0,0.0575,0.7671,42.373,-71.1147,POINT (-71.1146829095289 42.3729995583677)
B1523,2020,52A-21,Non-Compliant,Non-Residential,College/University,3691096,0,3 AMES ST (REAR),1931,668-62,1,College/University,College/University,77154,,MASSACHUSETTS INSTITUTE OF TECHNOLOGY,,,,,,,,,,,,,,,,,,,,,,,,0,0,0,0.0709,0,0.0531,0,0.0735,0,0.0742,0,0.0753,0,0.0753,0,0.0742,0,0.0777,0,0.0664,0,0.0575,0,42.3602,-71.0887,POINT (-71.0886825439834 42.3602240988198)
B1576,2020,85-76,Non-Compliant,Non-Residential,Office,34806,,139 Hampshire st,1982,385-61,1,Office,Office,1260,,"NORSHIRE LLC,",,,,,,,,,,,,,,,,,,,,,,,,0,,,0.0709,0,0.0531,0,0.0735,0,0.0742,0,0.0753,0,0.0753,0,0.0742,0,0.0777,0,0.0664,0,0.0575,0,42.3709,-71.0971,POINT (-71.0970723186132 42.3708967884125)
B1628,2020,173-48,Compliant,Residential,Residential,56614,122,1648 - 1654 Mass Ave,1900,"220-1, 220-3",2,Multifamily Housing,Multifamily Housing (63287.0),63287,83,"MILLER, TUCKER REED",,98,333598,1138236.4,44875,4487499.3,,,,,,,,,,4487499.3,4876390.7,70.9,77.1,4711874.3,5120210.2,74.5,80.9,318.9983,2173.1,34.34,0.0709,80.6457,0.0531,238.3526,0.0735,0,0.0742,0,0.0753,0,0.0753,0,0.0742,0,0.0777,0,0.0664,0,0.0575,0,42.3815,-71.1201,POINT (-71.1201423509845 42.3814873078878)
B1676,2020,269-132,Compliant,Non-Residential,Office,92672,1,1 Alewife Center,1988,24-3,1,Office,Office (89875.0),89875,,"IQHQ ALEWIFE, LLC",,,,,,,,,,,,,,,,,,,,,,,,0,,,0.0709,0,0.0531,0,0.0735,0,0.0742,0,0.0753,0,0.0753,0,0.0742,0,0.0777,0,0.0664,0,0.0575,0,42.3985,-71.1399,POINT (-71.1398854495476 42.398514217776)
B1720,2020,90-95,Compliant,Non-Residential,House of Worship,82771,,134 Norfolk St,1902,"551-1, 551-2, 551-3",3,Worship Facility,Worship Facility (35000.0),35000,,ROMAN CATHOLIC ARCHBISHOP OF BOSTON,,,,,,,,,,,,,,,,,,,,,,,,0,257.3,7.35,0.0709,0,0.0531,0,0.0735,0,0.0742,0,0.0753,0,0.0753,0,0.0742,0,0.0777,0,0.0664,0,0.0575,0,42.3675,-71.1004,POINT (-71.1004377250688 42.3674720141318)
B1833,2020,135-20,Compliant,Residential,Residential,49080,60,375 Harvard Street,1964,"366-27, 366-14",2,Multifamily Housing,Multifamily Housing (49940.0),49940,60,AUDUBON ROAD ASSOCIATES CCSPE LLC,,,,,,,,,,,,,,,,,,,,,,,,0,,,0.0709,0,0.0531,0,0.0735,0,0.0742,0,0.0753,0,0.0753,0,0.0742,0,0.0777,0,0.0664,0,0.0575,0,42.3721,-71.1121,POINT (-71.1121495881801 42.3720562768026)
B1254,2021,144-1,Compliant,Non-Residential,College/University,2402868,15,6 Divinity Ave,1902,241-43,1,College/University,College/University (30908.0),30908,,PRESIDENT & FELLOWS OF HARVARD COLLEGE,,,80454.8,274511.8,,,,,,,,,,1041000,,1315511.8,1412598.4,42.6,45.7,2020998.8,2137798,65.4,69.2,88.9722,13.9,0.45,0.0723,19.8513,0.0531,0,0.0735,0,0.0742,0,0.0753,0,0.0753,0,0.0742,0,0.0777,0,0.0664,69.1208,0.0575,0,42.3781,-71.1139,POINT (-71.1139368606406 42.3780778919862)
B1362,2021,265D-58,Compliant,Residential,Residential,309512,294,50 CambridgePark Drive,2022,44-14,1,Multifamily Housing,Multifamily Housing (N/A),374238,,50 CP DEVELOPMENT LIMITED PARTNERSHIP,,,,,,,,,,,,,,,,,,,,,,,,0,,,0.0723,0,0.0531,0,0.0735,0,0.0742,0,0.0753,0,0.0753,0,0.0742,0,0.0777,0,0.0664,0,0.0575,0,42.3941,-71.1439,POINT (-71.1438660879215 42.3940892468754)
B1417,2021,172-65,Compliant,Residential,Other,62728,95,50 Follen Street,1925,269-10,1,Other,Other (57738.0),57738,,Condo Building - Multiple Owners,,,,,,,,,,,,,,,,,,,,,,,,0,,,0.0723,0,0.0531,0,0.0735,0,0.0742,0,0.0753,0,0.0753,0,0.0742,0,0.0777,0,0.0664,0,0.0575,0,42.3781,-71.1213,POINT (-71.1212668923569 42.3780875204601)
B1461,2021,269.5-101,Compliant,Non-Residential,Manufacturing/Industrial,83930,,5 CambridgePark Drive,,35-1,1,,,,,MASSACHUSETTS BAY TRANSPORTATION,,,,,,,,,,,,,,,,,,,,,,,,0,,,0.0723,0,0.0531,0,0.0735,0,0.0742,0,0.0753,0,0.0753,0,0.0742,0,0.0777,0,0.0664,0,0.0575,0,42.3957,-71.1419,POINT (-71.1418913326054 42.3957322510887)
B1519,2021,121-114,Compliant,Residential,Other,87557,72,613-619 Green Street,,489-19,1,,,,,MASSACHUSETTS INSTITUTE OF TECHNOLOGY,,,,,,,,,,,,,,,,,,,,,,,,0,,,0.0723,0,0.0531,0,0.0735,0,0.0742,0,0.0753,0,0.0753,0,0.0742,0,0.0777,0,0.0664,0,0.0575,0,42.3689,-71.1117,POINT (-71.1116888352153 42.3688626893106)
B1564,2021,27-93,Non-Compliant,Non-Residential,Manufacturing/Industrial,156564,1,250 Bent St,1970,564-1,1,Data Center,"Data Center (138000.0),Parking (8000.0)",138000,,AT&T CORP.,,,,,,,,,,,,,,,,,,,,,,,,0,,,0.0723,0,0.0531,0,0.0735,0,0.0742,0,0.0753,0,0.0753,0,0.0742,0,0.0777,0,0.0664,0,0.0575,0,42.3671,-71.0847,POINT (-71.084668410531 42.3670631052914)
B1605,2021,70-86,Compliant,Non-Residential,Office,172629,1,750 Main Street,1910,655-1,1,Laboratory,Laboratory (172609.0),172609,,MIT 750 MAIN STREET FEE OWNER LLC,,,,,,,,,,,,,,,,,,,,,,,,0,,,0.0723,0,0.0531,0,0.0735,0,0.0742,0,0.0753,0,0.0753,0,0.0742,0,0.0777,0,0.0664,0,0.0575,0,42.3628,-71.0963,POINT (-71.0962698969438 42.3628246291303)
B1789,2021,90-133,Compliant,Non-Residential,Food Sales & Service,40278,,583 Massachusetts Ave,,605-1,1,,,,,"3MJ ASSOCIATES, LLC",,,,,,,,,,,,,,,,,,,,,,,,0,,,0.0723,0,0.0531,0,0.0735,0,0.0742,0,0.0753,0,0.0753,0,0.0742,0,0.0777,0,0.0664,0,0.0575,0,42.3653,-71.1023,POINT (-71.1023320832941 42.3653006426326)
B1810,2021,52A-31,Compliant,Non-Residential,College/University,98802,,57 Vassar Street,,667-5,1,,,,,MASSACHUSETTS INSTITUTE OF TECHNOLOGY,,,,,,,,,,,,,,,,,,,,,,,,0,,,0.0723,0,0.0531,0,0.0735,0,0.0742,0,0.0753,0,0.0753,0,0.0742,0,0.0777,0,0.0664,0,0.0575,0,42.3611,-71.0932,POINT (-71.0932088801981 42.3611444996726)
B1176,2022,169-94,Compliant,Non-Residential,College/University,112620,3,8 Appian way,1910,319-12,1,College/University,College/University (3816.0),3816,,PRESIDENT & FELLOWS OF HARVARD COLLEGE,,,13539.8,46198,1699.4,169944,,,,,,,,,,216142,228004.8,56.6,59.7,307795.5,320251.4,80.7,83.9,12.3453,17.9,4.7,0.0718,3.3188,0.0531,9.0265,0.0735,0,0.0742,0,0.0753,0,0.0743,0,0.0752,0,0.0754,0,0.0664,0,0.0575,0,42.3751,-71.1212,POINT (-71.121232020633 42.3750615819996)
B1279,2022,227-90,Compliant,Non-Residential,Other,177958,2,5 Bond St,1980,201-16,1,Fitness Center/Health Club/Gym,Fitness Center/Health Club/Gym (59701.0),59701,,PRESIDENT & FELLOWS OF HARVARD COLLEGE,,,367070.5,1252444.7,7533.2,753318,,,,,,,,,,2005762.7,2070400.1,33.6,34.7,4297829,4365698.3,72,73.1,129.9852,284.4,4.76,0.0718,89.9731,0.0531,40.0121,0.0735,0,0.0742,0,0.0753,0,0.0743,0,0.0752,0,0.0754,0,0.0664,0,0.0575,0,42.3815,-71.1269,POINT (-71.1268626038734 42.3815174852747)
B1359,2022,"132-137, 132-157",Compliant,Non-Residential,Other,215876,145,5 Cowperthwaite Street,2007,498-15,1,Parking,Parking (98623.0),98623,,PRESIDENT & FELLOWS OF HARVARD COLLEGE,,,248354.4,847385.2,,,,,,,,,,,,847385.2,858813,8.6,8.7,2372678.5,2404676.5,24.1,24.4,60.8744,,,0.0718,60.8744,0.0531,0,0.0735,0,0.0742,0,0.0753,0,0.0743,0,0.0752,0,0.0754,0,0.0664,0,0.0575,0,42.369,-71.1155,POINT (-71.1154728066417 42.3690361955549)
B1461,2022,269.5-101,Non-Compliant,Non-Residential,Manufacturing/Industrial,83930,,5 CambridgePark Drive,,35-1,1,,,,,MASSACHUSETTS BAY TRANSPORTATION,,,,,,,,,,,,,,,,,,,,,,,,0,,,0.0718,0,0.0531,0,0.0735,0,0.0742,0,0.0753,0,0.0743,0,0.0752,0,0.0754,0,0.0664,0,0.0575,0,42.3957,-71.1419,POINT (-71.1418913326054 42.3957322510887)
B1518,2022,121-114,Non-Compliant,Residential,Other,87557,72,609-611 Green Street,,489-20,1,,,,,MASSACHUSETTS INSTITUTE OF TECHNOLOGY,,,,,,,,,,,,,,,,,,,,,,,,0,,,0.0718,0,0.0531,0,0.0735,0,0.0742,0,0.0753,0,0.0743,0,0.0752,0,0.0754,0,0.0664,0,0.0575,0,42.3687,-71.1115,POINT (-71.1114793758513 42.3687375724375)
B1898,2022,18-75,Compliant,Municipal,Food Sales & Service,12571,0,59 & 69 First Street,1993,505-2,1,Restaurant,"Restaurant (3215.0),Parking (697.0)",3912,,CAMBRIDGE CITY OF,COMM. DEV.,,,,0,0,,,,,,,,,,0,0,0,0,0,0,0,0,0,,,0.0718,0,0.0531,0,0.0735,0,0.0742,0,0.0753,0,0.0743,0,0.0752,0,0.0754,0,0.0664,0,0.0575,0,42.369,-71.0781,POINT (-71.0781014169672 42.3690116721666)
B1356,2023,128-71,Non-Compliant,Non-Residential,Technology/Science,92612,2,780 Memorial Drive,2002,681-15,1,Laboratory,"Office (17000.0),Laboratory (34000.0),Parking (40000.0)",51000,,MIT 770/784/790 MEMORIAL LLC,,,,,,,,,,,,,,,,,,,,,,,,0,,,0.0722,0,0.0531,0,0.0735,0,0.0742,0,0.0753,0,0.0743,0,0.0752,0,0.0754,0,0.0664,0,0.0575,0,42.3594,-71.1147,POINT (-71.1147366504509 42.3593773067891)
B1564,2023,27-93,Compliant,Non-Residential,Manufacturing/Industrial,156564,1,250 Bent St,1970,564-1,1,Data Center,"Data Center (138000.0),Parking (8000.0)",138000,,AT&T CORP.,,,,,,,,,,,,,,,,,,,,,,,,0,,,0.0722,0,0.0531,0,0.0735,0,0.0742,0,0.0753,0,0.0743,0,0.0752,0,0.0754,0,0.0664,0,0.0575,0,42.3671,-71.0847,POINT (-71.0846684106922 42.3670631052263)
B1643,2023,242-38,Compliant,Non-Residential,Education,109553,12,178 Coolidge Hill,1939,387-10,1,K-12 School,K-12 School (2968.0),2968,,SHADY HILL SCHOOL,,,,,,,,,,,,,,,,,,,,,,,,0,,,0.0722,0,0.0531,0,0.0735,0,0.0742,0,0.0753,0,0.0743,0,0.0752,0,0.0754,0,0.0664,0,0.0575,0,42.3713,-71.1366,POINT (-71.1366122314201 42.3713171138871)
B1676,2023,269-132,Compliant,Non-Residential,Office,92672,1,1 Alewife Center,1988,24-3,1,Office,Office (89875.0),89875,,"IQHQ ALEWIFE, LLC",,,,,,,,,,,,,,,,,,,,,,,,0,,,0.0722,0,0.0531,0,0.0735,0,0.0742,0,0.0753,0,0.0743,0,0.0752,0,0.0754,0,0.0664,0,0.0575,0,42.3985,-71.1399,POINT (-71.1398854495589 42.3985142176561)
B1841,2023,183-102,Non-Compliant,Residential,Other,52492,64,2353 Massachusetts Avenue,,25-25,1,,,,,Condo Building - Multiple Owners,,,,,,,,,,,,,,,,,,,,,,,,0,,,0.0722,0,0.0531,0,0.0735,0,0.0742,0,0.0753,0,0.0743,0,0.0752,0,0.0754,0,0.0664,0,0.0575,0,42.3965,-71.1287,POINT (-71.1287261659556 42.3965284312792)
B1128,2024,35-95,Compliant,Non-Residential,Other,32775,0,155 Gore St,,369-2,1,,,,,MASSACHUSETTS COMMONWEALTH OF,MDC SKATING RINK,,,,,,,,,,,,,,,,,,,,,,,0,,,0.0722,0,0.0531,0,0.0735,0,0.0742,0,0.0753,0,0.0743,0,0.0752,0,0.0754,0,0.0664,0,0.0575,0,42.373,-71.0846,POINT (-71.0845662347208 42.3729992848461)
B1147,2024,144-1,Compliant,Non-Residential,Technology/Science,2402868,15,12 Oxford St,1999,241-10,1,Laboratory,Laboratory (56215.0),56215,,PRESIDENT & FELLOWS OF HARVARD COLLEGE,,,2514456.7,8579326.2,,,,,,,,,10055281.6,10636849.9,,29271457.7,29440502.1,520.7,523.7,45968987.2,46313348,817.7,823.9,1903.4968,,,0.0722,619.4896,0.0531,0,0.0735,0,0.0742,0,0.0753,0,0.0743,0,0.0752,0,0.0754,0,0.0664,706.2709,0.0575,577.7363,42.3777,-71.1153,POINT (-71.1152544584105 42.3776568823608)
B1169,2024,159-1,Compliant,Non-Residential,College/University,1223988,1027,19 Quincy St,1906,318-23,1,College/University,College/University (57110.0),57110,,PRESIDENT & FELLOWS OF HARVARD COLLEGE,,,167305.6,570846.7,,,,,,,,,353785,1471500,,2396131.6,2521230,42,44.1,3690589.9,3847275.7,64.6,67.4,159.2517,862.3,15.1,0.0722,41.2193,0.0531,0,0.0735,0,0.0742,0,0.0753,0,0.0743,0,0.0752,0,0.0754,0,0.0664,97.7054,0.0575,20.3271,42.3739,-71.1152,POINT (-71.115203981387 42.3738611032312)
B1215,2024,160-60,Compliant,Non-Residential,College/University,94338,0,8 Linden Street,1908,395-4,1,College/University,College/University (26578.0),26578,,PRESIDENT & FELLOWS OF HARVARD COLLEGE,,,141650.6,483311.9,,,,,,,,,,,,483311.9,477463.3,18.2,18,1353273.2,1336897.2,50.9,50.3,34.8986,,,0.0722,34.8986,0.0531,0,0.0735,0,0.0742,0,0.0753,0,0.0743,0,0.0752,0,0.0754,0,0.0664,0,0.0575,0,42.3723,-71.117,POINT (-71.1170321974112 42.3723063578525)
B1461,2024,269.5-101,Exempt,Non-Residential,Manufacturing/Industrial,83930,,5 CambridgePark Drive,,35-1,1,,,,,MASSACHUSETTS BAY TRANSPORTATION,,,,,,,,,,,,,,,,,,,,,,,,0,,,0.0722,0,0.0531,0,0.0735,0,0.0742,0,0.0753,0,0.0743,0,0.0752,0,0.0754,0,0.0664,0,0.0575,0,42.3957,-71.1419,POINT (-71.1418913325029 42.3957322511348)
B1564,2024,27-93,Non-Compliant,Non-Residential,Manufacturing/Industrial,156564,1,250 Bent St,1970,564-1,1,Data Center,"Data Center (138000.0),Parking (8000.0)",138000,,AT&T CORP.,,,,,,,,,,,,,,,,,,,,,,,,0,,,0.0722,0,0.0531,0,0.0735,0,0.0742,0,0.0753,0,0.0743,0,0.0752,0,0.0754,0,0.0664,0,0.0575,0,42.3671,-71.0847,POINT (-71.0846684106922 42.3670631052263)
B1676,2024,269-138,Exempt,Non-Residential,Office,632693,0,1 Alewife Center,1988,24-3,1,Office,Office (89875.0),89875,,"IQHQ ALEWIFE, LLC",,,,,,,,,,,,,,,,,,,,,,,,0,,,0.0722,0,0.0531,0,0.0735,0,0.0742,0,0.0753,0,0.0743,0,0.0752,0,0.0754,0,0.0664,0,0.0575,0,42.3985,-71.1399,POINT (-71.1398854495589 42.3985142176561)
B1734,2024,105-74,Compliant,Non-Residential,Office,41000,2,678 Massachusetts Avenue,1920,592-8,1,Office,Office (33500.0),33500,,678 MASS AVE. LLC,,58,337495,1151532.9,13287,1328700,,,,,,,,,,2480232.9,2644298.2,74,78.9,4619427.2,4780057.7,137.9,142.7,153.7223,129.5,3.87,0.0722,83.149,0.0531,70.5732,0.0735,0,0.0742,0,0.0753,0,0.0743,0,0.0752,0,0.0754,0,0.0664,0,0.0575,0,42.3655,-71.1045,POINT (-71.1044676762669 42.3655303065189)
B1847,2024,44-99,Compliant,Non-Residential,Office,451653,0,325 Main St,2022,643-5,1,Office,Office (494512.0),494512,,"ZUCKERMAN, MORTIMER B., EDWARD H. LINDE","& DAVID BARRETT, TRS. OF THREE CAMBRIDGE",87,5048484.9,17225430.4,62473,6247300.2,,,,,0,,,,,23472730.6,,47.5,,54790870.4,,110.8,,1575.6233,13338.8,26.97,0.0722,1243.8011,0.0531,331.8222,0.0735,0,0.0742,0,0.0753,0,0.0743,0,0.0752,0,0.0754,0,0.0664,0,0.0575,0,42.3628,-71.0866,POINT (-71.0865670628187 42.3627723624569)
B1920,2024,54-29,Non-Compliant,Non-Residential,College/University,551932,350,229-269 Vassar St,2022,746-6,1,,,,,MASSACHUSETTS INSTITUTE OF TECHNOLOGY,C/O MIT INVESTMENTS MANAGEMENT CO,,,,,,,,,,,,,,,,,,,,,,,0,,,0.0722,0,0.0531,0,0.0735,0,0.0742,0,0.0753,0,0.0743,0,0.0752,0,0.0754,0,0.0664,0,0.0575,0,42.3565,-71.1028,POINT (-71.1028348702364 42.3564621333799)
B1497,2017,52A-21,Compliant,Non-Residential,College/University,3691096,0,25 AMES ST,1976,668-66,1,College/University,College/University (133798.0),133798,,MASSACHUSETTS INSTITUTE OF TECHNOLOGY,,,3504069.5,11955885.2,106,10600,,,,,,,17999015,21840647.4,,51806147.7,,387.2,,76141908.7,,569.1,,3380.8461,1376,10.28,0.0749,895.9454,0.0531,0.563,0.0735,0,0.0742,0,0.0753,0,0.0753,0,0.0742,0,0.0777,0,0.0664,1450.1862,0.0575,1034.1514,42.3609,-71.089,POINT (-71.0890168797832 42.360921160338)
B1681,2015,43-76,Compliant,Non-Residential,Technology/Science,605547,0,75 Ames Street,2014,625-4,1,Laboratory,"Other - Technology/Science (79689.0),Office (81623.0),Laboratory (198303.0),Other (14256.0)",373871,,"THE BROAD INSTITUTE, INC",,,9923000,33857275.9,791527,79152695.5,,,,,,,,,,113009971.4,,302.3,,177910702.8,,475.9,,6800.0669,12319.7,32.95,0.0767,2595.8873,0.0531,4204.1796,0.0735,0,0.0742,0,0.0753,0,0.0753,0,0.0742,0,0.0777,0,0.0664,0,0.0575,0,42.3634,-71.0883,POINT (-71.0882984122505 42.363350053373)
B1051,2016,"138-2, 138-33",Compliant,Non-Residential,Other,155818,1,1640 Cambridge Street,2008,328-2,1,Fitness Center/Health Club/Gym,"Parking (50031.0),Swimming Pool (0.0),Fitness Center/Health Club/Gym (118193.0)",168224,,CAMBRIDGE CITY OF,,,1448844,4943455.8,99611.3,9961125.6,,,,,,,,,,14904581.3,14905795.5,126.1,126.1,24300858,24302578,205.6,205.6,899.5339,2513.6,21.27,0.0749,370.4507,0.0531,529.0832,0.0735,0,0.0742,0,0.0753,0,0.0753,0,0.0742,0,0.0777,0,0.0664,0,0.0575,0,42.3744,-71.1095,POINT (-71.1095387194862 42.3743659205039)
B1073,2015,95-71,Compliant,Non-Residential,Technology/Science,32460,1,12 Emily Street,1928,707-9,1,Laboratory,"Laboratory (19949.0),Manufacturing/Industrial Plant (12000.0)",31949,,MIT 12 EMILY STREET LLC,,,376683.2,1285243.1,4036.5,403654.8,,,,,,,,,,1688898,1682507.2,52.9,52.7,4022518.3,4015808,125.9,125.7,119.9815,142,4.45,0.0767,98.5415,0.0531,21.44,0.0735,0,0.0742,0,0.0753,0,0.0753,0,0.0742,0,0.0777,0,0.0664,0,0.0575,0,42.3596,-71.1048,POINT (-71.1047550119476 42.3595917433017)
B1320,2021,1A-86,Compliant,Residential,Residential,426000,426,One Leighton Street,2008,378-11,1,Multifamily Housing,Multifamily Housing (612952.0),612952,528,NORTH POINT APARTMENTS LIMITED PARTNERSH,"C/O AVALONBAY COMMUNITIES, INC",3,5633809,19222556.5,343658.7,34365867.1,,,,,,,,,,53588423.5,54936559.8,87.4,89.6,89907318.5,91322861.6,146.7,149,3215.4167,3676.5,6,0.0723,1390.0805,0.0531,1825.3362,0.0735,0,0.0742,0,0.0753,0,0.0753,0,0.0742,0,0.0777,0,0.0664,0,0.0575,0,42.37,-71.0731,POINT (-71.0731427397416 42.3699572087782)
B1761,2021,92-130,Compliant,Residential,Residential,103484,83,41 Pilgrim St,1990,665-9,1,Multifamily Housing,Multifamily Housing (6350.0),6350,6,MASSACHUSETTS INSTITUTE OF TECHNOLOGY,,,32196,109852.8,3654.5,365445.9,,,,,,,,,,475298.7,495632.5,74.9,78.1,691305.9,711481.8,108.9,112,27.3546,385.5,60.71,0.0723,7.944,0.0531,19.4106,0.0735,0,0.0742,0,0.0753,0,0.0753,0,0.0742,0,0.0777,0,0.0664,0,0.0575,0,42.3616,-71.1029,POINT (-71.1028678812642 42.3616255918647)
B1633,2023,268B-45,Compliant,Residential,Residential,264000,273,402 Rindge Avenue,1970,59-20,1,Multifamily Housing,Multifamily Housing (264000.0),264000,273,RINDGE TOWERS APARTMENTS LLC,,90,1031915.4,3520895.5,125874.9,12587491.2,,,,,,,,,,16108386.7,16998263.9,61,64.4,23075373.2,23983795.8,87.4,90.8,922.8125,6105179.3,23125.68,0.0722,254.2342,0.0531,668.5783,0.0735,0,0.0742,0,0.0753,0,0.0743,0,0.0752,0,0.0754,0,0.0664,0,0.0575,0,42.3931,-71.1399,POINT (-71.1399184529522 42.3930933796731)
B1610,2021,267.4-221,Compliant,Non-Residential,Food Sales & Service,33426,2,130 Fawcett Street,1955,48-18,1,Food Service,"Food Service (30000.0),Parking (20000.0)",30000,,"IVANOVIC, LUDMILLA R. L., TR. OF",ONE HUNDRED THIRTY FAWCETT STREET,,764640,2608951.8,115611.7,11561172.8,,,,,,,,,59726,14373909.8,14570926.9,479.1,485.7,19648081.7,19855132.5,654.9,661.8,802.7359,1337.5,44.58,0.0723,188.6665,0.0531,614.0694,0.0735,0,0.0742,0,0.0753,0,0.0753,0,0.0742,0,0.0777,0,0.0664,0,0.0575,0,42.3936,-71.1483,POINT (-71.1483394500425 42.393557703989)
B1543,2017,108-22,Non-Compliant,Residential,Residential,93900,111,295 Harvard Street,1960,485-3,1,Multifamily Housing,Multifamily Housing (93900.0),93900,111,HARVARD TOWERS CORPORATION,,,252778,862478.5,1550.8,155080,,,,,,,,,,1017558.5,,10.8,,2577773.8,,27.5,,72.8691,890.2,9.48,0.0749,64.6321,0.0531,8.237,0.0735,0,0.0742,0,0.0753,0,0.0753,0,0.0742,0,0.0777,0,0.0664,0,0.0575,0,42.3698,-71.1052,POINT (-71.1051838079738 42.3698075046457)
B1462,2024,1A-109,Compliant,Residential,Residential,404715,437,8-12 Museum Way,1998,460-1,1,Multifamily Housing,"Multifamily Housing (525000.0),Parking (144500.0),Swimming Pool (0.0)",525000,428,"REGATTA RIVERVIEW, LLC",,88,3619728.9,12350515.1,126493.6,12649358.5,,,,,,,,,,24999873.6,26348238.2,47.6,50.2,47863268.8,49628292.5,91.2,94.5,1563.6612,15301.9,29.15,0.0722,891.7968,0.0531,671.8644,0.0735,0,0.0742,0,0.0753,0,0.0743,0,0.0752,0,0.0754,0,0.0664,0,0.0575,0,42.3702,-71.0717,POINT (-71.0716811630701 42.3701911022073)
B1509,2018,62-34,Non-Compliant,Residential,College/University,150644,210,540 MEMORIAL DR (REAR),1963,"747-2, 747-3, 747-4, 747-5, 747-6",5,College/University,College/University (162225.0),162225,,MASSACHUSETTS INSTITUTE OF TECHNOLOGY,,,1005250,3429913,4328,432799.8,,,,,,,,16461678.8,,20324391.7,,125.3,,29862272.5,,184.1,,1356.5642,4836.9,29.82,0.0701,240.5453,0.0531,22.9881,0.0735,0,0.0742,0,0.0753,0,0.0753,0,0.0742,0,0.0777,0,0.0664,1093.0308,0.0575,0,42.3552,-71.1035,POINT (-71.1035442869943 42.3552486676985)
B1372,2021,43A-16,Compliant,Non-Residential,Technology/Science,214544,1,400 Technology Square,1967,610-5,1,Laboratory,"Office (91212.0),Laboratory (120910.0)",212123,,"MIT REAL ESTATE, LLC,","C/O ARE- TECH SQ, LLC/MIT REAL ESTATE LL",1,10664731.5,36388064,240245,24024504.1,,,,,,,,,,60412568.1,60834433.4,284.8,286.8,127112308.5,126788180.1,599.2,597.7,3907.4621,6226.1,29.35,0.0723,2631.4054,0.0531,1276.0567,0.0735,0,0.0742,0,0.0753,0,0.0753,0,0.0742,0,0.0777,0,0.0664,0,0.0575,0,42.364,-71.0919,POINT (-71.0919261070195 42.3639751343137)
B1502,2016,52A-21,Non-Compliant,Non-Residential,College/University,3691096,0,21 AMES ST,1916,668-8,1,College/University,College/University (65896.0),65896,,MASSACHUSETTS INSTITUTE OF TECHNOLOGY,,,1270628.2,4335383.5,1426,142600,,,,,,,5463805.4,6156262.7,,16098051.6,,244.3,,24667103.7,,374.3,,1055.1524,1122.1,17.03,0.0749,324.8833,0.0531,7.5742,0.0735,0,0.0742,0,0.0753,0,0.0753,0,0.0742,0,0.0777,0,0.0664,408.7666,0.0575,313.9284,42.36,-71.0909,POINT (-71.0908596519798 42.3599993867171)
B1880,2016,"85-1, 85-63",Compliant,Municipal,Municipal,91616,,147 Hampshire Street,1979,"381-10,381-15,381-20,385-1",4,Other - Public Services,,80763,,Cambridge City Of,Public Works Dept,,319550.8,1090307.3,51115.2653,5111526.5,,,,,,,,,2787.6,6211345.2,6564903.3,184.8,195.3,8800179.2,9169682.2,261.8,272.8,353.2027,45170.6,,0.0749,81.705,0.0531,271.4977,0.0735,0,0.0742,0,0.0753,0,0.0753,0,0.0742,0,0.0777,0,0.0664,0,0.0575,0,42.3719,-71.0974,POINT (-71.0974405954733 42.3718571475336)
B1446,2021,"268A-52, 268A-48, 268A-49, 268A-50, 268A-51",Compliant,Residential,Residential,168698,,1 Jackson Place,1952,"59-22, 59-25, 59-31, 59-36, 59-37, 59-38, 59-39, 59-40, 59-42",9,Multifamily Housing,Multifamily Housing (207765.0),207765,175,CAMBRIDGE HOUSING AUTHORITY,,91,595754.9,2032716.1,109541,10954100.4,,,,,,,,,89171,12986816.5,14147584.9,62.5,68.1,17193410.5,18412217.3,82.8,88.6,728.8209,10394.2,50.03,0.0723,146.996,0.0531,581.8249,0.0735,0,0.0742,0,0.0753,0,0.0753,0,0.0742,0,0.0777,0,0.0664,0,0.0575,0,42.3921,-71.1349,POINT (-71.1348568187378 42.3920756066484)
B1637,2021,242-38,Compliant,Non-Residential,Education,109553,12,178 Coolidge Hill,1926,387-21,1,K-12 School,K-12 School (2660.0),2660,,SHADY HILL SCHOOL,,33,,,3148,314800,,,,,,,,,,314800,341713.4,118.3,128.5,330540,358799.1,124.3,134.9,16.7205,,,0.0723,0,0.0531,16.7205,0.0735,0,0.0742,0,0.0753,0,0.0753,0,0.0742,0,0.0777,0,0.0664,0,0.0575,0,42.3717,-71.137,POINT (-71.1370421458251 42.3717406181162)
B1202,2016,156-26,Compliant,Residential,College/University,69317,148,3 Mellen Street,2007,226-39,1,Multifamily Housing,Multifamily Housing (2123.0),2123,2.55,PRESIDENT & FELLOWS OF HARVARD COLLEGE,,,11792.6,40236.3,259.4,25939.4,,,,,,,,,,66175.7,66175.2,31.2,31.2,139898,139897.4,65.9,65.9,4.393,51.2,24.13,0.0749,3.0152,0.0531,1.3778,0.0735,0,0.0742,0,0.0753,0,0.0753,0,0.0742,0,0.0777,0,0.0664,0,0.0575,0,42.3811,-71.1192,POINT (-71.1192251665708 42.381093893401)
B1298,2018,161-85,Compliant,Residential,College/University,193571,0,58 Plympton St,1912,"438-6, 438-8, 438-1",3,Residence Hall/Dormitory,Residence Hall/Dormitory (220806.0),220806,,PRESIDENT & FELLOWS OF HARVARD COLLEGE,,,1459341,4979271.6,5322,532199.9,,,,,,,,15763178.4,,21274649.9,,96.3,,33464521.8,,151.6,,1424.1235,5979.2,27.08,0.0701,349.2044,0.0531,28.2677,0.0735,0,0.0742,0,0.0753,0,0.0753,0,0.0742,0,0.0777,0,0.0664,1046.6514,0.0575,0,42.3707,-71.1169,POINT (-71.1169299313505 42.3706780353822)
B1561,2023,106-105,Compliant,Residential,Other,175641,93,632 Massachusetts Avenue,1950,608-2,1,Mixed Use Property,Other (20974.0),20974,93,"CENTRAL SQUARE LLC,",C/O HUNNEMAN REAL ESTATE CORP.,,751768,2565032.3,54658.7,5465871.3,,,,,,,,,,8030903.6,8519508.2,382.9,406.2,12921255.3,13420095.1,616.1,639.8,475.531,,,0.0722,185.214,0.0531,290.317,0.0735,0,0.0742,0,0.0753,0,0.0743,0,0.0752,0,0.0754,0,0.0664,0,0.0575,0,42.365,-71.104,POINT (-71.1039613914329 42.3650000800286)
B1105,2018,71-56,Compliant,Non-Residential,Technology/Science,978455,,1 Portland Street,2013,658-4,1,Laboratory,"Laboratory (229330.0),Parking (220000.0)",229330,,"MIT 650 MAIN STREET, LLC",,,12096507,41273282,483122.4,48312244.5,,,,,,,,,,89585526.6,89417047.2,390.6,389.9,166293046.5,165197510.3,725.1,720.3,5460.6571,10803.1,47.11,0.0701,2894.5619,0.0531,2566.0952,0.0735,0,0.0742,0,0.0753,0,0.0753,0,0.0742,0,0.0777,0,0.0664,0,0.0575,0,42.3618,-71.0945,POINT (-71.0944600931604 42.3618190881665)
B1165,2022,157-69,Compliant,Non-Residential,College/University,1462119,18,15 Oxford St,2007,266-12,1,College/University,College/University (173885.0),173885,,PRESIDENT & FELLOWS OF HARVARD COLLEGE,,,8027981.1,27391471.5,,,,,,,,,28617342.7,22462439.7,,78471253.8,78333800.5,451.3,450.5,129761139.9,129806082.4,746.2,746.5,5103.458,10150.1,58.37,0.0718,1967.7476,0.0531,0,0.0735,0,0.0742,0,0.0753,0,0.0743,0,0.0752,0,0.0754,0,0.0664,1491.4723,0.0575,1644.238,42.3775,-71.1166,POINT (-71.116638757489 42.377500701554)
B1518,2019,121-114,Compliant,Residential,Other,87557,72,609-611 Green Street,,489-20,1,,,,,MASSACHUSETTS INSTITUTE OF TECHNOLOGY,,,,,,,,,,,,,,,,,,,,,,,,0,,,0.0656,0,0.0531,0,0.0735,0,0.0742,0,0.0753,0,0.0753,0,0.0742,0,0.0777,0,0.0664,0,0.0575,0,42.3687,-71.1115,POINT (-71.1114802538954 42.3687337689237)
B1853,2019,24-123,Compliant,Non-Residential,Other,40648,0,121 Third Street,,497-12,1,,,,,MIDDLESEX COUNTY OF,,,,,,,,,,,,,,,,,,,,,,,,0,,,0.0656,0,0.0531,0,0.0735,0,0.0742,0,0.0753,0,0.0753,0,0.0742,0,0.0777,0,0.0664,0,0.0575,0,42.3694,-71.0806,POINT (-71.0806108204875 42.3693523320741)
B1783,2016,269-131,Compliant,Non-Residential,Other,255187,,62 Whittemore Ave,1919,"24-2, 24-8",2,Other,"Other, Parking",290000,,IQHQ-ALEWIFE LLC,,,6100025.2,20813288.6,112751.0019,11275100.2,,,,,,,,,,32088388.8,32553796.3,110.6,112.3,70116063.3,70381170.2,241.8,242.7,2158.5727,3334.8,11.5,0.0749,1559.698,0.0531,598.8747,0.0735,0,0.0742,0,0.0753,0,0.0753,0,0.0742,0,0.0777,0,0.0664,0,0.0575,0,42.398,-71.1377,POINT (-71.1377155637989 42.3979649523362)
B1696,2016,242B-56,Non-Compliant,Non-Residential,Education,187700,,40 Gerry's Landing Rd.,1948,336-28,1,K-12 School,K-12 School (3825.0),3825,,BUCKINGHAM BROWNE AND NICHOLS SCHOOL,,,,,,,,,,,,,,,,,,,,,,,,0,,,0.0749,0,0.0531,0,0.0735,0,0.0742,0,0.0753,0,0.0753,0,0.0742,0,0.0777,0,0.0664,0,0.0575,0,42.3733,-71.1358,POINT (-71.1358324151717 42.3733280284384)
B1875,2019,71-46,Compliant,Non-Residential,Office,42533,,41 Albany St,1950,661-2,1,Office,,54000,,Massachusetts Institute Of Technology,Office Of The Treasurer,,14298.2,48785.4,,,,,,,,,,,,48785.4,48785.4,0.9,0.9034,136599.2,136599.2,2.5296,2.5296,3.2026,,,0.0656,3.2026,0.0531,0,0.0735,0,0.0742,0,0.0753,0,0.0753,0,0.0742,0,0.0777,0,0.0664,0,0.0575,0,42.3626,-71.093,POINT (-71.0930174797221 42.3625825958287)
B1805,2017,267D-294,Compliant,Non-Residential,Other,48996,2,29 - 31 Smith Place,1989,46-31,1,Mixed Use Property,"Office (25823.0),Parking (23691.0),Other (28103.0)",53926,,"CAMBRIDGE HIGHLANDS,LLC",C/O TRINITY PROPERTY MGMT,,406345.8,1386451.9,18400.2,1840022.4,,,,,,,,,,3226474.3,3298743.7,59.8,61.2,5814088.7,5888858.8,107.8,109.2,201.6298,3.2,0.06,0.0749,103.8974,0.0531,97.7324,0.0735,0,0.0742,0,0.0753,0,0.0753,0,0.0742,0,0.0777,0,0.0664,0,0.0575,0,42.3919,-71.1521,POINT (-71.1521305593084 42.3919405835224)
B1860,2015,11-144,Compliant,Non-Residential,Office,238934,3,One Rogers Street,1989,571-1,1,Office,"Data Center, Office, Other, Parking, Pre-school/Daycare, Restaurant",293524,,"CHARLES PARK TWO, LLC,",C/O JONES LANG LASALLE,50,8049001.3,27463195.7,79504.7506,7950475.1,,,,,,,,,,35413670.7,35271144.4,123,122.6,85244946.7,85095294,296.2,295.7,2527.9316,5725.4,19.89,0.0767,2105.6437,0.0531,422.2879,0.0735,0,0.0742,0,0.0753,0,0.0753,0,0.0742,0,0.0777,0,0.0664,0,0.0575,0,42.3665,-71.0772,POINT (-71.0772209220909 42.3665422193787)
B1813,2023,8-76,Compliant,Non-Residential,Office,105560,3,One Canal Park,,468-3,1,,,,,"ONE CANAL PARK MASSACHUSETTS, LLC,",C/O US REALTY ESTATE INVESTMENT,,,,,,,,,,,,,,,,,,,,,,,0,,,0.0722,0,0.0531,0,0.0735,0,0.0742,0,0.0753,0,0.0743,0,0.0752,0,0.0754,0,0.0664,0,0.0575,0,42.3696,-71.0768,POINT (-71.0767740474501 42.3695545999831)
B1631,2023,1A-6,Compliant,Residential,Residential,83581,104,169 Monsignor O'Brien Highway,1930,371-1,1,Multifamily Housing,Multifamily Housing (81440.0),81440,104,"CAMBRIDGE GLASS FACTORY, LLC","C/OLASALLE INVESTMENT MANAGEMENT, INC.,",79,688419,2348885.6,27299.6,2729963.7,,,,,,,,,,5078849.3,5368500.3,62.4,65.9,9443341.5,9747475,116,119.7,314.6072,2662.8,32.7,0.0722,169.6066,0.0531,145.0007,0.0735,0,0.0742,0,0.0753,0,0.0743,0,0.0752,0,0.0754,0,0.0664,0,0.0575,0,42.3719,-71.0777,POINT (-71.0777216801244 42.3718559157793)
B1347,2020,52A-21,Compliant,Non-Residential,College/University,3691096,0,77 MASSACHUSETTS AVE (REAR),1928,668-11,1,College/University,College/University (26705.0),26705,,MASSACHUSETTS INSTITUTE OF TECHNOLOGY,,,326020,1112380.2,,,,,,,,,6119315.8,1295490,,8527186,8350483.4,319.3,312.7,10241769.8,10080970.4,383.5,377.5,516.4238,218.9,8.2,0.0709,78.8138,0.0531,0,0.0735,0,0.0742,0,0.0753,0,0.0753,0,0.0742,0,0.0777,0,0.0664,86.0186,0.0575,351.5914,42.3595,-71.0928,POINT (-71.0927690303778 42.3595209382378)
B1160,2024,157-69,Compliant,Non-Residential,College/University,1462119,18,26 Everett Street,1950,253-13,1,College/University,College/University (26645.0),26645,,PRESIDENT & FELLOWS OF HARVARD COLLEGE,,,107154.2,365610.2,,,,,,,,,,1179450,,1545060.1,1660749.9,58,62.3,2442635.2,2581814.8,91.7,96.9,104.7134,1398.8,52.5,0.0722,26.3997,0.0531,0,0.0735,0,0.0742,0,0.0753,0,0.0743,0,0.0752,0,0.0754,0,0.0664,78.3137,0.0575,0,42.379,-71.1179,POINT (-71.1178979890722 42.3790101430798)
B1233,2020,157-69,Compliant,Non-Residential,College/University,1462119,18,1545 Massachusetts Avenue,1907,266-6,1,College/University,College/University (281097.0),281097,,PRESIDENT & FELLOWS OF HARVARD COLLEGE,,,1066486,3638850.2,70137.7,7013765.1,,,,,,,6225229.3,5092650.4,,21970494.9,22234284.4,78.2,79.1,29344860.2,29720510.5,104.4,105.7,1326.1737,617.7,2.2,0.0709,257.8178,0.0531,372.5347,0.0735,0,0.0742,0,0.0753,0,0.0753,0,0.0742,0,0.0777,0,0.0664,338.1443,0.0575,357.6768,42.3779,-71.1186,POINT (-71.1185766560961 42.3779468902227)
B1616,2019,234-178,Compliant,Non-Residential,Retail,25772,1,275 FRESH POND PARKWAY,1953,168-1,1,Vehicle Dealership,Vehicle Dealership (25772.0),25772,,275 FRSH POND LLC,,41,284800,971737.6,11955,1195500,,,,,,,,,,2167237.6,2147996.2,84.1,83.3,3976140.3,3969912.4,154.3,154,127.2905,206.4,8.01,0.0656,63.7917,0.0531,63.4987,0.0735,0,0.0742,0,0.0753,0,0.0753,0,0.0742,0,0.0777,0,0.0664,0,0.0575,0,42.3836,-71.1416,POINT (-71.141594907908 42.3836291174459)
B1199,2017,159-1,Compliant,Non-Residential,College/University,1223988,1027,7 Harvard Yard,1863,318-26,1,Residence Hall/Dormitory,Residence Hall/Dormitory (32843.0),32843,,PRESIDENT & FELLOWS OF HARVARD COLLEGE,,91,113628,387698.7,2188.7,218871.3,,,,,,,,961341.1,,1567911.1,1613130.4,47.7,49.1,2471904.2,2526100.6,75.3,76.9,104.5101,639.8,19.48,0.0749,29.0532,0.0531,11.6253,0.0735,0,0.0742,0,0.0753,0,0.0753,0,0.0742,0,0.0777,0,0.0664,63.8316,0.0575,0,42.3736,-71.1178,POINT (-71.1178128216628 42.3736491058951)
B1357,2021,64-6,Compliant,Non-Residential,Technology/Science,265495,2,640 Memorial Drive,1916,749-2,1,Laboratory,"Office (56436.0),Laboratory (169309.0)",225745,,MIT 640 MEMORIAL SPE LLC.,C/O MIT INVESTMENT MANAGEMENT COMP.,,4885848.6,16670515.5,310582.8,31058278.8,,,,,,,,,,47728794.3,48418738.1,211.4,214.5,79288636.2,79238643.5,351.2,351,2855.1838,4754.8,21.06,0.0723,1205.5295,0.0531,1649.6543,0.0735,0,0.0742,0,0.0753,0,0.0753,0,0.0742,0,0.0777,0,0.0664,0,0.0575,0,42.3543,-71.1096,POINT (-71.1095888981192 42.3542549538527)
B1523,2016,52A-21,Non-Compliant,Non-Residential,College/University,3691096,0,3 AMES ST (REAR),1931,668-62,1,College/University,College/University (77154.0),77154,,MASSACHUSETTS INSTITUTE OF TECHNOLOGY,,,,,,,,,,,,,,,,,,,,,,,,0,,,0.0749,0,0.0531,0,0.0735,0,0.0742,0,0.0753,0,0.0753,0,0.0742,0,0.0777,0,0.0664,0,0.0575,0,42.3602,-71.0887,POINT (-71.0886799726369 42.360224120914)
B1032,2017,266-34,Compliant,Municipal,Other,124527,0,250R Fresh Pond Parkway,2004,96-1,1,Parking,Parking (8792.0),8792,,CAMBRIDGE CITY OF,,,122420.6,417699.2,9342.9,934294.8,,,,,,,,,,1351994,1399972.2,153.8,159.2,2150567.3,2213061.6,244.6,251.7,80.9263,,,0.0749,31.3014,0.0531,49.6249,0.0735,0,0.0742,0,0.0753,0,0.0753,0,0.0742,0,0.0777,0,0.0664,0,0.0575,0,42.3823,-71.1447,POINT (-71.1446655440756 42.3823260333146)
B1424,2017,31-13,Compliant,Non-Residential,Technology/Science,40746,31,301 Binney Street,2007,573-1,1,Laboratory,"Laboratory (447187.0),Parking (180000.0)",447187,,"Mba-Rogers Street, Llc",C/O Paradigm Tax Group,,13565121.2,46284199.3,538544.9946,53854499.5,,,,,,,,,,100138698.8,101188297.3,223.9,226.2774,201879610.2,202509127.7,451.4,452.8511,6328.8981,12475.4,27.84,0.0749,3468.4272,0.0531,2860.471,0.0735,0,0.0742,0,0.0753,0,0.0753,0,0.0742,0,0.0777,0,0.0664,0,0.0575,0,42.3667,-71.087,POINT (-71.0870417061611 42.3666971246398)
B1071,2023,63-135,Compliant,Non-Residential,Technology/Science,91500,1,620 Memorial Drive,1916,746-8,1,Laboratory,Laboratory (94476.0),94476,,MIT 620 MEMORIAL LLC,C/O MIT INVESTMENT MANAGEMENT CO.,,4069303.7,13884464.2,155089.7,15508966,,,,,,,,,,29393430.2,30613048.3,311.1,324,55160914.1,56357540.5,583.9,596.5,1826.3101,2525.4,26.73,0.0722,1002.5591,0.0531,823.751,0.0735,0,0.0742,0,0.0753,0,0.0743,0,0.0752,0,0.0754,0,0.0664,0,0.0575,0,42.354,-71.1075,POINT (-71.107543744861 42.3540452883289)
B1405,2021,55-18,Compliant,Non-Residential,College/University,27858,2,230 Albany Street,2001,699-19,1,College/University,"Office (0.0),College/University (22780.0)",22780,,MASSACHUSETTS INSTITUTE OF TECHNOLOGY,C/O MIT INVESTMENTS MANAGEMENT CO,,200520,684174.2,,,,,,,,,,,,684174.2,684174.2,30,30,1915687.9,1915687.9,84.1,84.1,49.4761,0,0,0.0723,49.4761,0.0531,0,0.0735,0,0.0742,0,0.0753,0,0.0753,0,0.0742,0,0.0777,0,0.0664,0,0.0575,0,42.3586,-71.1005,POINT (-71.1005139558025 42.3585702751393)
B1597,2019,216-34,Compliant,Residential,Residential,104598,84,24-26 Concord Avenue,1890,261-3,1,Multifamily Housing,"Multifamily Housing (104598.0),Parking (600.0)",104598,84,"LEEDER, EARLE & JUDITH LEEDER, TRS.",C/O LEEDER MGMT CO.,100,51279.7,174966.3,47353.1,4735305.2,,,,,,,,,,4910271.5,,46.9,,5461976.1,,52.2,,263.0008,2422,23.16,0.0656,11.486,0.0531,251.5148,0.0735,0,0.0742,0,0.0753,0,0.0753,0,0.0742,0,0.0777,0,0.0664,0,0.0575,0,42.3791,-71.1257,POINT (-71.1256630296572 42.3791224852869)
B1602,2016,"241-10, 241-14, 241-12",Compliant,Non-Residential,Healthcare,781917,124,330 Mount Auburn St,1950,"330-1, 330-3, 330-4",3,Hospital (General Medical & Surgical),"Data Center (N/A),Hospital (General Medical & Surgical) (N/A),Parking (N/A)",652524,,MT. AUBURN HOSPITAL,,,,,,,,,,,,,,,,,,,,,,,,0,,,0.0749,0,0.0531,0,0.0735,0,0.0742,0,0.0753,0,0.0753,0,0.0742,0,0.0777,0,0.0664,0,0.0575,0,42.3744,-71.1325,POINT (-71.1325152018369 42.3744263406639)
B1685,2023,29-34,Compliant,Non-Residential,Residential,493176,190,303 Third St,2009,614-7,1,Multifamily Housing,"Multifamily Housing (324872.0),Parking (114253.0),Swimming Pool (0.0)",324872,193,303 THIRD SPE LLC,,73,2433308.9,8302450,94509,9450899.9,,,,,,,,,,17753349.9,18430562.6,54.6,56.7,33170304.8,34007335.6,102.1,104.7,1101.477,8609,26.5,0.0722,599.4972,0.0531,501.9798,0.0735,0,0.0742,0,0.0753,0,0.0743,0,0.0752,0,0.0754,0,0.0664,0,0.0575,0,42.3644,-71.0839,POINT (-71.0839364817722 42.3643635096246)
B1299,2021,159-1,Compliant,Non-Residential,College/University,1223988,1027,22 Harvard Yard,1974,"318-10, 318-9, 318-1",3,Residence Hall/Dormitory,Residence Hall/Dormitory (44776.0),44776,,PRESIDENT & FELLOWS OF HARVARD COLLEGE,,,379579.9,1295126.8,4657,465705,,,,,,,,3973100.1,,5733931.9,6085452.6,128.1,135.9,8895147.9,9363419.7,198.7,209.1,382.2009,3695.4,82.53,0.0723,93.6572,0.0531,24.7358,0.0735,0,0.0742,0,0.0753,0,0.0753,0,0.0742,0,0.0777,0,0.0664,263.8079,0.0575,0,42.3742,-71.1167,POINT (-71.1166675094822 42.3742243367264)
B1473,2022,52A-21,Compliant,Non-Residential,College/University,3691096,0,50 VASSAR ST,1973,668-36,1,College/University,College/University (145819.0),145819,,MASSACHUSETTS INSTITUTE OF TECHNOLOGY,,,4780529,16311164.9,4,400,,,,,,,31040665.4,6503718.1,,53855948.4,53159817.1,369.3,364.6,81742927.4,81210750.3,560.6,556.9,3387.0918,1858.2,12.74,0.0718,1171.7609,0.0531,0.0212,0.0735,0,0.0742,0,0.0753,0,0.0743,0,0.0752,0,0.0754,0,0.0664,431.8371,0.0575,1783.4725,42.3614,-71.0917,POINT (-71.091673041289 42.3614316149618)
B1600,2024,70-22,Compliant,Non-Residential,Technology/Science,57000,1,730 Main Street,1910,655-2,1,Laboratory,Laboratory (38000.0),38000,,MIT 730 MAIN ST FEE OWNER LLC,,,1480259.8,5050646.3,1013.9,101387.5,,,,,,,,,,5152033.8,5152033.8,135.6,135.6,14248266.5,14248266.5,375,375,370.0785,857.3,22.56,0.0722,364.6933,0.0531,5.3851,0.0735,0,0.0742,0,0.0753,0,0.0743,0,0.0752,0,0.0754,0,0.0664,0,0.0575,0,42.3629,-71.0956,POINT (-71.0955675368341 42.3628757468362)
B1535,2019,105-81,Compliant,Non-Residential,Office,32761,10,684-686 Massachusetts Ave,1902,592-11,1,Office,Office (N/A),14144,,CENTRAL PROPERTY LIMITED PARTNERSHIP,,,,,,,,,,,,,,,,,,,,,,,,0,,,0.0656,0,0.0531,0,0.0735,0,0.0742,0,0.0753,0,0.0753,0,0.0742,0,0.0777,0,0.0664,0,0.0575,0,42.3656,-71.1046,POINT (-71.1045976103601 42.3656283645198)
B1050,2021,"138-2, 138-33",Compliant,Municipal,Municipal,155818,1,449 Broadway,2009,328-8,1,Library,"Library (102752.0),Parking (17434.0)",120185,,CAMBRIDGE CITY OF,,,1399096.2,4773716.4,80274.7,8027468.4,,,,,,,,,66116.6,13026774.7,13207453.9,126.8,128.5,22020837.6,22045105.8,214.3,214.5,771.589,2707.6,26.35,0.0723,345.2116,0.0531,426.3774,0.0735,0,0.0742,0,0.0753,0,0.0753,0,0.0742,0,0.0777,0,0.0664,0,0.0575,0,42.374,-71.1105,POINT (-71.1104674020996 42.3739779494266)
B1491,2022,52A-21,Compliant,Non-Residential,College/University,3691096,0,70 VASSAR ST (REAR),1928,668-31,1,College/University,College/University (63579.0),63579,,MASSACHUSETTS INSTITUTE OF TECHNOLOGY,,,1704960,5817323.5,287,28700,,,,,,,10723823.8,18416256.3,,34986103.6,34287365.5,550.3,539.3,48232833.7,47568180.7,758.6,748.2,2258.3889,977.6,15.38,0.0718,417.9047,0.0531,1.5244,0.0735,0,0.0742,0,0.0753,0,0.0743,0,0.0752,0,0.0754,0,0.0664,1222.8118,0.0575,616.148,42.3604,-71.0931,POINT (-71.0930597805166 42.360372464162)
B1501,2021,52A-21,Compliant,Non-Residential,College/University,3691096,0,21 AMES ST,1969,668-18,1,College/University,College/University (133552.0),133552,,MASSACHUSETTS INSTITUTE OF TECHNOLOGY,,,6030533.8,20576181.5,57,5700,,,,,,,21578954,34516152.8,,76676988.2,77361566.7,574.1,579.3,118780491.5,119977361.7,889.4,898.4,5019.9319,1058.9,7.93,0.0723,1487.968,0.0531,0.3028,0.0735,0,0.0742,0,0.0753,0,0.0753,0,0.0742,0,0.0777,0,0.0664,2291.8208,0.0575,1239.8404,42.3601,-71.0898,POINT (-71.089812623141 42.360060693548)
B1217,2023,144-1,Compliant,Non-Residential,College/University,2402868,15,25 Francis Ave,1940,241-19,1,College/University,College/University (8056.0),8056,,PRESIDENT & FELLOWS OF HARVARD COLLEGE,,,23358.6,79699.7,,,,,,,,,,270430,,350129.7,368473.4,43.5,45.7,548497.5,570565.7,68.1,70.8,23.711,59.2,7.35,0.0722,5.7549,0.0531,0,0.0735,0,0.0742,0,0.0753,0,0.0743,0,0.0752,0,0.0754,0,0.0664,17.9561,0.0575,0,42.3792,-71.1129,POINT (-71.1128630586043 42.3791626111493)
B1087,2018,"173-71, 173-101",Non-Compliant,Residential,Residential,47492,58,1610 Massachusetts Avenue,1982,244-9,1,Multifamily Housing,Multifamily Housing (15830.0),15830,16,"CAMBRIDGE REALTY LLC,",,,14313.3,48837.1,9023.8,902382.1,,,,,,,,,,951219.2,974355.1,60.1,61.6,1084245.1,1108537.8,68.5,70,51.3549,462.7,29.23,0.0701,3.425,0.0531,47.9298,0.0735,0,0.0742,0,0.0753,0,0.0753,0,0.0742,0,0.0777,0,0.0664,0,0.0575,0,42.3802,-71.1204,POINT (-71.1203610763829 42.3802019763051)
B1750,2019,135-25,Compliant,Residential,Residential,34820,51,"12, 14, 16 Ware Street",1981,366-8,1,Multifamily Housing,Multifamily Housing (37872.0),37872,45.45,Condo building,,89,24537.5,83722.1,26386.5,2638648.4,,,,,,,,,,2722370.5,2661540.3,71.9,70.3,3005002.7,2941131,79.3,77.7,145.6474,16.6,0.44,0.0656,5.4961,0.0531,140.1513,0.0735,0,0.0742,0,0.0753,0,0.0753,0,0.0742,0,0.0777,0,0.0664,0,0.0575,0,42.373,-71.1124,POINT (-71.1123911087201 42.3730231398221)
B1247,2022,144-1,Compliant,Non-Residential,College/University,2402868,15,21 Divinity Ave,1974,241-67,1,College/University,College/University (34800.0),34800,,PRESIDENT & FELLOWS OF HARVARD COLLEGE,,,264681.2,903092.2,,,,,,,,,912424.3,1429230,,3244746.6,3230699.7,93.2,92.8,5078386.7,5055723.7,145.9,145.3,212.1993,389.6,11.19,0.0718,64.8763,0.0531,0,0.0735,0,0.0742,0,0.0753,0,0.0743,0,0.0752,0,0.0754,0,0.0664,94.8987,0.0575,52.4243,42.3786,-71.1148,POINT (-71.1148222743768 42.3785702364401)
B1190,2016,161-76,Non-Compliant,Residential,College/University,213953,,10 Holyoke Pl,1930,"424-3, 424-9",2,Residence Hall/Dormitory,Residence Hall/Dormitory (216722.0),216722,,PRESIDENT & FELLOWS OF HARVARD COLLEGE,"C/O HARVARD REAL ESTATE, INC.",,967802.7,3302142.8,3188.3,318828.9,,,,,,,,11952344.9,,15573316.5,,71.9,,23959932.2,,110.6,,1058.007,6926,31.96,0.0749,247.4547,0.0531,16.9345,0.0735,0,0.0742,0,0.0753,0,0.0753,0,0.0742,0,0.0777,0,0.0664,793.6178,0.0575,0,42.3708,-71.1184,POINT (-71.1184114648063 42.370812010573)
B1899,2021,18-75,Compliant,Municipal,Other,12571,0,51-69 First Street,1987,505-2,1,Parking,"Office (3017.0),Parking (387868.0)",390885,,CAMBRIDGE CITY OF,COMM. DEV.,,294697.2,1005506.7,,,,,,,,,,,,1005506.7,1005506.7,333.3,333.3,2815418.7,2815418.7,933.2,933.2,72.7133,32.9,10.9,0.0723,72.7133,0.0531,0,0.0735,0,0.0742,0,0.0753,0,0.0753,0,0.0742,0,0.0777,0,0.0664,0,0.0575,0,42.369,-71.0781,POINT (-71.0781014169672 42.3690116721666)
B1519,2023,121-114,Compliant,Residential,Other,87557,72,613-619 Green Street,,489-19,1,,,,,MASSACHUSETTS INSTITUTE OF TECHNOLOGY,,,,,,,,,,,,,,,,,,,,,,,,0,,,0.0722,0,0.0531,0,0.0735,0,0.0742,0,0.0753,0,0.0743,0,0.0752,0,0.0754,0,0.0664,0,0.0575,0,42.3689,-71.1117,POINT (-71.111688835301 42.3688626890628)
B1830,2024,197-4,Compliant,Municipal,Education,145715,,70 Rindge Avenue,1999,"73-1, 73-2, 73-3",3,K-12 School,"K-12 School (108989.0),Other - Recreation (14837.0),Library (4566.0)",128392,,CAMBRIDGE CITY OF,SCHOOL DEPT,,,,52811.3,5281128.3,,,,,,,,,,,,,,,,,,280.5045,662.9,5.16,0.0722,0,0.0531,280.5045,0.0735,0,0.0742,0,0.0753,0,0.0743,0,0.0752,0,0.0754,0,0.0664,0,0.0575,0,42.3922,-71.1284,POINT (-71.1283960486602 42.3921805200275)
B1380,2015,43A-21,Compliant,Non-Residential,Office,348983,,700 Technology Square,2001,610-4,1,Office,Office (48930.0),48930,,"MIT REAL ESTATE, LLC,",,96,341536.5,1165322.5,,,,,,,,,,,,1165322.5,1158224.7,23.8,23.7,3262902.9,3243029.2,66.7,66.3,89.347,269.5,5.51,0.0767,89.347,0.0531,0,0.0735,0,0.0742,0,0.0753,0,0.0753,0,0.0742,0,0.0777,0,0.0664,0,0.0575,0,42.364,-71.0927,POINT (-71.0927272373718 42.3640298138663)
B1022,2021,108-18,Compliant,Municipal,Office,28376,1,51 Inman Street,1925,494-1,1,Office,Office (31240.0),31240,,CAMBRIDGE CITY OF,CITY HALL ANNEX #2,73,217956.1,743666.2,12481.9,1248192.4,,,,,,,,,,1991858.7,2087088.2,63.8,66.8,3392867.5,3480052.4,108.6,111.4,120.0758,122.1,3.91,0.0723,53.7783,0.0531,66.2975,0.0735,0,0.0742,0,0.0753,0,0.0753,0,0.0742,0,0.0777,0,0.0664,0,0.0575,0,42.3696,-71.1035,POINT (-71.1035051139201 42.3696232708436)
B1220,2018,157-69,Compliant,Non-Residential,College/University,1462119,18,1805 Cambridge St,1931,266-17,1,College/University,College/University (90341.0),90341,,PRESIDENT & FELLOWS OF HARVARD COLLEGE,,,560844.9,1913602.8,,,,,,,,,248941.2,3392871.9,,5555416,5573687.6,61.5,61.7,9666388.8,9688370.3,107,107.2,373.7888,,,0.0701,134.2041,0.0531,0,0.0735,0,0.0742,0,0.0753,0,0.0753,0,0.0742,0,0.0777,0,0.0664,225.2816,0.0575,14.3032,42.3764,-71.1182,POINT (-71.1182434261328 42.3764162127314)
B1559,2016,27-70,Compliant,Non-Residential,Technology/Science,17592,,190 5th Street,1925,549-1,1,Other - Technology/Science,Other - Technology/Science (28600.0),28600,,Bass Rocks Realty Llc,,,170689.5,582392.6,9589.9,958992.2,,,,,,,,,,1541384.8,1541819.3,53.9,53.9,2637641.1,2638097.3,92.2,92.2,94.5798,45.2,1.58,0.0749,43.6431,0.0531,50.9367,0.0735,0,0.0742,0,0.0753,0,0.0753,0,0.0742,0,0.0777,0,0.0664,0,0.0575,0,42.3675,-71.0838,POINT (-71.0837572150169 42.3674689341124)
B1639,2020,242-38,Compliant,Non-Residential,Education,109553,12,178 Coolidge Hill,1973,387-28,1,K-12 School,K-12 School (14101.0),14101,,SHADY HILL SCHOOL,,100,,,1955.4,195535.4,,,,,,,,,,195535.4,219344.9,13.9,15.6,205312.2,230312.1,14.6,16.3,10.3858,,,0.0709,0,0.0531,10.3858,0.0735,0,0.0742,0,0.0753,0,0.0753,0,0.0742,0,0.0777,0,0.0664,0,0.0575,0,42.3714,-71.1369,POINT (-71.1369042431069 42.3714373151803)
B1146,2015,156-26,Compliant,Residential,College/University,138634,289,1637 Massachusetts Avenue,2007,226-37,1,Multifamily Housing,Multifamily Housing (10761.0),10761,12.91,PRESIDENT & FELLOWS OF HARVARD COLLEGE,,94,71476.1,243876.6,1241.9,124193.3,,,,,,,,,,368069.9,367467.2,34.2,34.1,813257.4,811926.8,75.6,75.5,25.2949,460.3,42.78,0.0767,18.6984,0.0531,6.5965,0.0735,0,0.0742,0,0.0753,0,0.0753,0,0.0742,0,0.0777,0,0.0664,0,0.0575,0,42.381,-71.1194,POINT (-71.1194275557359 42.381022078474)
B1771,2022,69-182,Compliant,Non-Residential,Technology/Science,123298,1,65 Landsdowne Sreet,2001,687-4,1,Laboratory,Laboratory (122410.0),122410,,MASSACHUSETTS INSTITUTE OF TECHNOLOGY,,,6110382,20848623.4,248242,24824200.4,,,,,,,,,,45672823.8,45286526.4,373.1,370,84441555.9,83359923.3,689.8,681,2816.2477,4453.5,36.38,0.0718,1497.7227,0.0531,1318.525,0.0735,0,0.0742,0,0.0753,0,0.0743,0,0.0752,0,0.0754,0,0.0664,0,0.0575,0,42.3606,-71.1008,POINT (-71.1008046769851 42.360614453304)
B1438,2022,242B-56,Compliant,Non-Residential,Education,187700,,80 Gerry's Landing Rd.,1948,387-7,1,K-12 School,K-12 School (106070.0),106070,,BUCKINGHAM BROWNE AND NICHOLS SCHOOL,,23,954559.9,3256958.4,54731,5473099.3,,,,,,,,,,8730057.8,9057870.7,82.3,85.4,14866237.9,15210441.5,140.2,143.4,524.6742,211.3,1.99,0.0718,233.9733,0.0531,290.7009,0.0735,0,0.0742,0,0.0753,0,0.0743,0,0.0752,0,0.0754,0,0.0664,0,0.0575,0,42.3709,-71.1356,POINT (-71.1355908980992 42.3709115473958)
B1369,2018,43A-21,Compliant,Non-Residential,Technology/Science,348983,,500 Technology Square,1965,610-8,1,Laboratory,"Office (106840.0),Laboratory (77367.0)",210000,,"MIT REAL ESTATE, LLC,",,1,13782865,47027135.5,,,,,,,,,,29716347.5,,76797308,,416.9,,167482482.8,,909.2,,5271.2099,9307,44.32,0.0701,3298.089,0.0531,0,0.0735,0,0.0742,0,0.0753,0,0.0753,0,0.0742,0,0.0777,0,0.0664,1973.1209,0.0575,0,42.3634,-71.0926,POINT (-71.0925793066755 42.3633697244876)
B1143,2017,169-94,Non-Compliant,Non-Residential,College/University,112620,3,6 Appian Way,1972,319-13,1,College/University,College/University (95908.0),95908,,PRESIDENT & FELLOWS OF HARVARD COLLEGE,,,1834663.2,6259870.8,47327.3,4732731.2,,,,,,,,,,10992602,11199213.5,123.7,126.1,22497006.1,22661223.6,253.2,255.1,720.4778,1590.6,16.58,0.0749,469.0997,0.0531,251.3781,0.0735,0,0.0742,0,0.0753,0,0.0753,0,0.0742,0,0.0777,0,0.0664,0,0.0575,0,42.3749,-71.1217,POINT (-71.1217481644513 42.374889330014)
B1361,2016,129-47,Non-Compliant,Non-Residential,Office,119109,6,Blackstone Street 46,2002,637-3,1,Office,Office (21767.0),21767,,PRESIDENT & FELLOWS OF HARVARD COLLEGE,,,128219.6,437485.2,,,,,,,,,,,,,,,,,,,,32.7841,167.5,7.69,0.0749,32.7841,0.0531,0,0.0735,0,0.0742,0,0.0753,0,0.0753,0,0.0742,0,0.0777,0,0.0664,0,0.0575,0,42.3642,-71.1151,POINT (-71.1151142864809 42.3642039715092)
B1339,2016,226-30,Compliant,Non-Residential,House of Worship,52556,1,100 Concord Avenue,1900,219-5,1,Worship Facility,Worship Facility (23966.0),23966,,ROMAN CATHOLIC ARCHBISHOP OF BOSTON,,63,82916,282909.4,4831,483100,,,,,,,,,,766009.4,766196,32,32,1299401.3,1299586.8,54.2,54.2,46.8603,220.8,9.22,0.0749,21.2006,0.0531,25.6598,0.0735,0,0.0742,0,0.0753,0,0.0753,0,0.0742,0,0.0777,0,0.0664,0,0.0575,0,42.3815,-71.13,POINT (-71.1300425073256 42.381530631788)
B1641,2017,242-38,Non-Compliant,Non-Residential,Education,109553,12,178 Coolidge Hill,1926,387-12,1,K-12 School,K-12 School (5089.0),5089,,SHADY HILL SCHOOL,,,,,,,,,,,,,,,,,,,,,,,,0,,,0.0749,0,0.0531,0,0.0735,0,0.0742,0,0.0753,0,0.0753,0,0.0742,0,0.0777,0,0.0664,0,0.0575,0,42.3721,-71.1368,POINT (-71.1367986052479 42.3720805170642)
B1652,2017,140-157,Compliant,Non-Residential,Healthcare,36212,,1611 Cambridge Street,1970,302-21,1,Medical Office,"Medical Office (36212.0),Parking (27000.0)",36212,,"ATRIUS HEALTH, INC",,58,657411.4,2243087.5,,,,,,,,,,,,2243087.5,2242023.1,61.9,61.9,6280645.1,6277664.6,173.4,173.4,168.0916,624.3,17.24,0.0749,168.0916,0.0531,0,0.0735,0,0.0742,0,0.0753,0,0.0753,0,0.0742,0,0.0777,0,0.0664,0,0.0575,0,42.3751,-71.1084,POINT (-71.1084372021976 42.3750851428071)
B1284,2024,159-1,Compliant,Non-Residential,College/University,1223988,1027,5 Harvard Yard,1930,318-29,1,College/University,College/University (48543.0),48543,,PRESIDENT & FELLOWS OF HARVARD COLLEGE,,,316993.2,1081580.8,,,,,,,,,757572.5,903370,,2742523.3,2783573.5,56.5,57.3,4804608.3,4866811.3,99,100.3,181.6075,199.8,4.11,0.0722,78.098,0.0531,0,0.0735,0,0.0742,0,0.0753,0,0.0743,0,0.0752,0,0.0754,0,0.0664,59.9824,0.0575,43.5271,42.3733,-71.1173,POINT (-71.1173022529075 42.3733269521818)
B1358,2020,137-2,Compliant,Non-Residential,Other,71940,,485 Broadway,1960,323-1,1,Museum,Museum (69797.0),69797,,PRESIDENT & FELLOWS OF HARVARD COLLEGE,"C/O HARVARD REAL ESTATE, INC.",,243765,831726.3,,,,,,,,,297861.1,1819980,,2949567.4,3379403.3,42.3,48.4,4789397.9,5741674.3,68.6,82.3,196.8869,44.9,0.64,0.0709,58.929,0.0531,0,0.0735,0,0.0742,0,0.0753,0,0.0753,0,0.0742,0,0.0777,0,0.0664,120.8439,0.0575,17.1139,42.3751,-71.1141,POINT (-71.1140860558779 42.3751250400577)
B1550,2018,162-54,Compliant,Non-Residential,Food Sales & Service,36600,7,80-90 Winthrop st,1975,396-10,1,Other - Mall,Other - Mall (14506.0),14506,,CRIMSON GALERIA LIMITED PARTNERSHIP,C/O RAJ DHANDA,,,,,,,,,,,,,,,,,,,,,,,0,,,0.0701,0,0.0531,0,0.0735,0,0.0742,0,0.0753,0,0.0753,0,0.0742,0,0.0777,0,0.0664,0,0.0575,0,42.3721,-71.1209,POINT (-71.1209160114125 42.3721215961289)
B1757,2019,68-76,Compliant,Non-Residential,Technology/Science,214638,1,40 Landsdowne St,2003,695-2,1,Laboratory,Laboratory (214638.0),214638,,MASSACHUSETTS INSTITUTE OF TECHNOLOGY,OFFICE OF THE TREASURER,,9850779.5,33610859.5,529303,52930297.2,,,,,,,,,,86541156.7,86734219.5,403.2,404.1,149687218.7,150227794.5,697.4,699.9,5017.8363,9397,43.78,0.0656,2206.4541,0.0531,2811.3821,0.0735,0,0.0742,0,0.0753,0,0.0753,0,0.0742,0,0.0777,0,0.0664,0,0.0575,0,42.3605,-71.0995,POINT (-71.0995095873615 42.3605009312132)
B1236,2020,157-69,Compliant,Non-Residential,Technology/Science,1462119,18,17 Oxford St,1882,266-21,1,Laboratory,Laboratory (53329.0),53329,,PRESIDENT & FELLOWS OF HARVARD COLLEGE,,,358333.2,1222632.9,3,300,,,,,,,4820113.8,1425900.1,,7468946.9,7522113.7,140.1,141.1,9525407.2,9615000.4,178.6,180.3,458.2633,80.7,1.51,0.0709,86.6253,0.0531,0.0159,0.0735,0,0.0742,0,0.0753,0,0.0753,0,0.0742,0,0.0777,0,0.0664,94.6776,0.0575,276.9445,42.3772,-71.1175,POINT (-71.1175458769582 42.3772461771819)
B1859,2018,128-72,Non-Compliant,Non-Residential,Food Sales & Service,40800,0,339 River Street,,681-5,1,,,,,ACADIA CAMBRIDGE LLC,,,,,,,,,,,,,,,,,,,,,,,,0,,,0.0701,0,0.0531,0,0.0735,0,0.0742,0,0.0753,0,0.0753,0,0.0742,0,0.0777,0,0.0664,0,0.0575,0,42.361,-71.1139,POINT (-71.1139188582476 42.3609885525199)
B1801,2015,92-130,Compliant,Residential,Residential,103484,83,46 Pilgrim St,1990,"665-10, 665-11",2,Multifamily Housing,Multifamily Housing (12240.0),12240,12,MASSACHUSETTS INSTITUTE OF TECHNOLOGY,,,18576,63381.3,7702.5,770248.5,,,,,,,,,,833629.8,826710.5,68.1,67.5,986228.6,978963.3,80.6,80,45.7711,641.4,52.4,0.0767,4.8595,0.0531,40.9116,0.0735,0,0.0742,0,0.0753,0,0.0753,0,0.0742,0,0.0777,0,0.0664,0,0.0575,0,42.3616,-71.1031,POINT (-71.1031274106563 42.3615977664853)
B1660,2019,1A-196,Compliant,Residential,College/University,269994,278,10 Education Circle,2019,409-2,1,Residence Hall/Dormitory,"Parking (48615.0),Residence Hall/Dormitory (306000.0)",306000,,"EFEKTA THREE, INC.",,,1383969.2,4722103,183638,18363800.1,,,,,,,,,,23085903,22855323,75.4,74.7,32503878.4,32261769.3,106.2,105.4,1285.3817,7269.9,23.76,0.0656,309.9922,0.0531,975.3896,0.0735,0,0.0742,0,0.0753,0,0.0753,0,0.0742,0,0.0777,0,0.0664,0,0.0575,0,42.371,-71.0706,POINT (-71.0706205174072 42.3710018035085)
B1250,2020,159-1,Compliant,Non-Residential,College/University,1223988,1027,9 Harvard Yard,1872,318-21,1,Residence Hall/Dormitory,Residence Hall/Dormitory (59075.0),59075,,PRESIDENT & FELLOWS OF HARVARD COLLEGE,,96,181043.3,617719.8,3342,334199.1,,,,,,,,1927099.7,,2367882.8,2536981.8,40.1,42.9,3788408.1,3991841.1,64.1,67.6,189.4738,839.8,14.22,0.0709,43.7663,0.0531,17.7509,0.0735,0,0.0742,0,0.0753,0,0.0753,0,0.0742,0,0.0777,0,0.0664,127.9565,0.0575,0,42.3741,-71.1182,POINT (-71.1181531538626 42.3740653312717)
B1689,2017,170-39,Compliant,Non-Residential,Other,111920,175,16 Garden St.,1927,290-3,1,Hotel,Hotel (134200.0),134200,,"Bergoulian, Mary A.,",Edward N.& Walter A. Guleserian  Trs.,72,1615858,5513307.4,65003.1,6500312.7,,,,,,,,,,12013620.2,12013620.2,89.5,89.5,22262589.1,22262589.1,165.9,165.9,758.4169,5994.8,44.67,0.0749,413.1541,0.0531,345.2628,0.0735,0,0.0742,0,0.0753,0,0.0753,0,0.0742,0,0.0777,0,0.0664,0,0.0575,0,42.3773,-71.1233,POINT (-71.1232969733038 42.3772578399817)
B1106,2015,133-33,Compliant,Non-Residential,Office,60054,3,1100 Massachusetts Avenue,1978,439-14,1,Office,"Office (44663.0),Parking (5499.0),Other (5000.0)",49308,,SUN LIFE ASSURANCE CO OF CANADA,C/O BENTALL KENNEDY (US) LP,72,726426.9,2478568.9,,,,,,,,,,,,2478568.9,2459336.5,50.3,49.9,6939993,6886142.2,140.7,139.7,190.0355,,,0.0767,190.0355,0.0531,0,0.0735,0,0.0742,0,0.0753,0,0.0753,0,0.0742,0,0.0777,0,0.0664,0,0.0575,0,42.3704,-71.1137,POINT (-71.1137085909086 42.3703966336629)
B1684,2017,30-35,Compliant,Non-Residential,Technology/Science,81110,1,250 Binney Street,1983,591-1,1,Laboratory,Laboratory (N/A),67362,,"BARRETT, DAVID, EDWARD L. LINDE,",C/O BOSTON PROPERTIES,,4691496.1,16007384.7,4810,481000,,,,,,,,8765757,,25254141.6,25254141.6,374.9,374.9,55871293,55871293,829.4,829.4,1807.1364,11136,165.32,0.0749,1199.5551,0.0531,25.5482,0.0735,0,0.0742,0,0.0753,0,0.0753,0,0.0742,0,0.0777,0,0.0664,582.0331,0.0575,0,42.3656,-71.0866,POINT (-71.086595620715 42.3656480725782)
B1495,2018,48-129,Non-Compliant,Non-Residential,College/University,903407,,45 CARLETON ST,1982,672-8,1,College/University,College/University (156676.0),156676,,MASSACHUSETTS INSTITUTE OF TECHNOLOGY,,,4156312.3,14181337.7,51,5100,,,,,,,13311444.2,21737965.6,,49235847.4,,314.3,,77978180.6,,497.7,,3203.0217,3166.5,20.21,0.0701,994.5601,0.0531,0.2709,0.0735,0,0.0742,0,0.0753,0,0.0753,0,0.0742,0,0.0777,0,0.0664,1443.3683,0.0575,764.8223,42.3617,-71.0869,POINT (-71.0869357925662 42.3616615377712)
B1441,2017,209-52,Compliant,Residential,Residential,67125,66,41-43 Linnaean Street,1922,175-9,1,Multifamily Housing,Multifamily Housing (94360.0),94360,66,"EPSTEIN, GAIL L.",,58,159272,543436.1,53915,5391500.1,,,,,,,,,,5934936.2,6138665.4,62.9,65.1,7182696.3,7396611.9,76.1,78.4,327.0923,,,0.0749,40.7238,0.0531,286.3684,0.0735,0,0.0742,0,0.0753,0,0.0753,0,0.0742,0,0.0777,0,0.0664,0,0.0575,0,42.3837,-71.1242,POINT (-71.1242091859927 42.3836613041958)
B1541,2021,169-42,Compliant,Non-Residential,Retail,55187,,12-30 Palmer Street,1963,345-3,1,Retail Store,Retail Store (52000.0),52000,,HARVARD COOPERATIVE SOCIETY,,88,458880.6,1565700.5,127.3,12725.7,,841800,,,,,,,,2420226.2,2437252.6,46.5,46.9,5247541.4,5264738,100.9,101.2,176.3688,316.2,6.08,0.0723,113.2237,0.0531,0.6759,0.0735,0,0.0742,62.4691,0.0753,0,0.0753,0,0.0742,0,0.0777,0,0.0664,0,0.0575,0,42.3739,-71.1202,POINT (-71.1202334407125 42.3739283551144)
B1463,2017,156-24,Compliant,Residential,College/University,15920,,1 WENDELL ST,2009,"214-26, 214-37",2,Residence Hall/Dormitory,Residence Hall/Dormitory (29992.0),29992,,Lesley College,,78,257328.7,878005.4,8144.3,814430.3,,,,,,,,,,1692435.7,1719453.2,56.4,57.3,3313566.9,3333263,110.5,111.1,109.0539,1295.6,43.2,0.0749,65.7956,0.0531,43.2583,0.0735,0,0.0742,0,0.0753,0,0.0753,0,0.0742,0,0.0777,0,0.0664,0,0.0575,0,42.3819,-71.1192,POINT (-71.1192258739149 42.3818700196502)
B1646,2016,242-38,Compliant,Non-Residential,Education,109553,12,178 Coolidge Hill,1998,387-6,1,K-12 School,K-12 School (2523.0),2523,,SHADY HILL SCHOOL,,91,,,1336,133603.2,,,,,,,,,,133603.2,133619.8,53,53,140283.4,140300.8,55.6,55.6,7.0963,,,0.0749,0,0.0531,7.0963,0.0735,0,0.0742,0,0.0753,0,0.0753,0,0.0742,0,0.0777,0,0.0664,0,0.0575,0,42.3714,-71.138,POINT (-71.137969077681 42.3713762559757)
B1248,2024,159-1,Compliant,Non-Residential,College/University,1223988,1027,3 Harvard Yard,1871,318-22,1,Residence Hall/Dormitory,Residence Hall/Dormitory (43118.0),43118,,PRESIDENT & FELLOWS OF HARVARD COLLEGE,,75,239310.6,816527.7,2210.7,221075,,,,,,,,1802049.9,,2839652.7,3012338.5,65.9,69.9,4686346.5,4894094.7,108.7,113.5,190.3549,1571.6,36.45,0.0722,58.9592,0.0531,11.7423,0.0735,0,0.0742,0,0.0753,0,0.0743,0,0.0752,0,0.0754,0,0.0664,119.6534,0.0575,0,42.3739,-71.1171,POINT (-71.1171168185716 42.3739173248931)
B1713,2020,220-165,Compliant,Residential,Residential,96971,78,221 Mount Auburn Street,1964,"314-32, 314-23",2,Multifamily Housing,Multifamily Housing (126258.0),126258,94,Condo Building,,82,669729.9,2285118.7,54567.4,5456743.1,,,,,,,,,,7741861.8,8244494.5,61.3,65.3,12127912.7,12799347.7,96.1,101.4,451.7378,3508.6,27.79,0.0709,161.904,0.0531,289.8338,0.0735,0,0.0742,0,0.0753,0,0.0753,0,0.0742,0,0.0777,0,0.0664,0,0.0575,0,42.3751,-71.1297,POINT (-71.1297063516624 42.3751411408969)
B1356,2017,128-71,Compliant,Non-Residential,Technology/Science,92612,2,780 Memorial Drive,2002,681-15,1,Laboratory,"Office (17000.0),Laboratory (34000.0),Parking (40000.0)",51000,,MIT 770/784/790 MEMORIAL LLC,,,80,273,46578,4657799.8,,,,,,,,,,4658072.7,4658072.7,91.3,91.3,4891454,4891454,95.9,95.9,247.4186,659.4,12.93,0.0749,0.0205,0.0531,247.3981,0.0735,0,0.0742,0,0.0753,0,0.0753,0,0.0742,0,0.0777,0,0.0664,0,0.0575,0,42.3594,-71.1147,POINT (-71.1147361451878 42.35937794752)
B1070,2021,48-157,Compliant,Non-Residential,Office,460299,,314 Main St.,2020,674-1,1,Office,"Restaurant (10149.0),Data Center (2370.0),Office (469701.0)",482220,,MASSACHUSETTS INSTITUTE OF TECHNOLOGY,,90,4023190.2,13727125.1,108959.8,10895977.5,,,,,,,,,,24623102.6,25182743.1,51.1,52.2,49876726.6,50464349.2,103.4,104.7,1571.4157,803.7,1.67,0.0723,992.678,0.0531,578.7377,0.0735,0,0.0742,0,0.0753,0,0.0753,0,0.0742,0,0.0777,0,0.0664,0,0.0575,0,42.3621,-71.0867,POINT (-71.0866716676639 42.3621114987502)
B1568,2024,54-29,Compliant,Residential,College/University,551932,350,229 VASSAR ST,2002,703-6,1,College/University,College/University (191190.0),191190,,MASSACHUSETTS INSTITUTE OF TECHNOLOGY,C/O MIT INVESTMENTS MANAGEMENT CO,,1795730.2,6127031.4,,,,,,,,,7682111.9,,,13809143.3,13477189.4,72.2,70.5,24146409.7,23965330,126.3,125.3,883.7996,4432.2,23.18,0.0722,442.4161,0.0531,0,0.0735,0,0.0742,0,0.0753,0,0.0743,0,0.0752,0,0.0754,0,0.0664,0,0.0575,441.3834,42.3571,-71.1015,POINT (-71.1015206371049 42.3571080576345)
B1369,2024,43A-21,Compliant,Non-Residential,Technology/Science,348983,,500 Technology Square,1965,610-8,1,Laboratory,"Office (106840.0),Laboratory (77367.0)",210000,,"MIT REAL ESTATE, LLC,",,,9827580.8,33531705.7,16461.7,1646170.3,,,,,,,,34308549.1,,69486425,72090683.3,377.2,391.4,136891849.1,139676698.7,743.1,758.3,4786.7043,6884.3,37.37,0.0722,2421.2326,0.0531,87.4355,0.0735,0,0.0742,0,0.0753,0,0.0743,0,0.0752,0,0.0754,0,0.0664,2278.0362,0.0575,0,42.3634,-71.0926,POINT (-71.0925795575716 42.3633707121612)
B1629,2022,65-45,Compliant,Residential,Residential,101803,101,"1-33 Henry Street, 2-26 Chestnut Street, 276-294 Sydney Street",1989,"748-1, 748-2, 748-3, 748-5, 748-6",5,Multifamily Housing,Multifamily Housing (60737.0),60737,100,CHA RAD PROPERTIES LLC,,99,261689,892882.8,23599,2359899.9,,,,,,,,,,3252782.8,3402696.8,53.6,56,4977966.9,5160738.6,82,85,189.4878,4061.2,66.87,0.0718,64.1429,0.0531,125.3449,0.0735,0,0.0742,0,0.0753,0,0.0743,0,0.0752,0,0.0754,0,0.0664,0,0.0575,0,42.3554,-71.1073,POINT (-71.1072772612669 42.3553728618724)
B1850,2021,32-52,Compliant,Non-Residential,Manufacturing/Industrial,37324,0,135 Fulkerson Street,,467-8,1,,,,,NSTAR ELECTRIC CO. D/B/A,EVERSOURCE ENERGY,,,,,,,,,,,,,,,,,,,,,,,0,,,0.0723,0,0.0531,0,0.0735,0,0.0742,0,0.0753,0,0.0753,0,0.0742,0,0.0777,0,0.0664,0,0.0575,0,42.3688,-71.088,POINT (-71.0879635293098 42.368849728715)
B1838,2016,"37-127, 37-126",Compliant,Non-Residential,House of Worship,27207,0,400 Cardinal Medeiros Avenue,1985,417-3,1,Worship Facility,"Worship Facility (27655.0),Parking (10000.0)",27655,,ROMAN CATHOLIC ARCHBISHOP OF BOSTON,CORPORATION SOLE,,,,,,,,,,,,,,,,,,,,,,,0,,,0.0749,0,0.0531,0,0.0735,0,0.0742,0,0.0753,0,0.0753,0,0.0742,0,0.0777,0,0.0664,0,0.0575,0,42.3714,-71.0884,POINT (-71.0883918412413 42.3713911838194)
B1312,2022,265A-43,Compliant,Non-Residential,Other,37614,1,220 Alewife Brook Parkway,2010,81-9,1,Hotel,Hotel (62000.0),62000,,220 ALEWIFE BROOK PARKWAY LLC,C/O HERSHA HOSPITALITY MGMT LP,76,692415.8,2362522.7,19753.3,1975327.2,,,,,,,,,,4337849.8,4417142.1,70,71.2,8689157,8803761.4,140.1,142,274.6373,2956.1,47.68,0.0718,169.7188,0.0531,104.9185,0.0735,0,0.0742,0,0.0753,0,0.0743,0,0.0752,0,0.0754,0,0.0664,0,0.0575,0,42.3886,-71.1422,POINT (-71.1422099466281 42.388601318841)
B1254,2018,144-1,Compliant,Non-Residential,College/University,2402868,15,6 Divinity Ave,1902,241-43,1,College/University,College/University (30908.0),30908,,PRESIDENT & FELLOWS OF HARVARD COLLEGE,,,133127.6,454231.3,,,,,,,,,,949953.3,,1404184.6,1403564.3,45.4,45.4,2414680.6,2404000.9,78.1,77.8,94.9314,35.9,1.16,0.0701,31.856,0.0531,0,0.0735,0,0.0742,0,0.0753,0,0.0753,0,0.0742,0,0.0777,0,0.0664,63.0755,0.0575,0,42.3781,-71.1139,POINT (-71.1139389151771 42.3780770071333)
B1705,2024,185-59,Compliant,Non-Residential,House of Worship,135082,,41 Alewife Brook Parkway,1928,2-3,1,Worship Facility,Worship Facility (48125.0),48125,,"ECOLE BILINGUE, INC. &",,72,98051.9,334553,9196.8,919681.2,,,,,,,,,,1254234.2,1373239.6,26.1,28.5,1902413.7,2027369.4,39.5,42.1,73.0056,40.9,0.85,0.0722,24.1572,0.0531,48.8484,0.0735,0,0.0742,0,0.0753,0,0.0743,0,0.0752,0,0.0754,0,0.0664,0,0.0575,0,42.4031,-71.1336,POINT (-71.1336444547656 42.4031487911575)
B1082,2024,13-23,Compliant,Non-Residential,Office,448364,1,1 MAIN STREET,1986,620-79,1,Office,"Office (332808.0),Parking (148125.0)",332808,,RREEF AMERICA REIT II CORP.,,82,3769650.1,12862046,16007,1600700,,,,,,,,,,14462746,14999730.6,43.5,45.1,37694463.8,38518972.5,113.3,115.7,1013.7535,1408.8,4.23,0.0722,928.7331,0.0531,85.0204,0.0735,0,0.0742,0,0.0753,0,0.0743,0,0.0752,0,0.0754,0,0.0664,0,0.0575,0,42.3622,-71.0804,POINT (-71.080410778895 42.3622496907046)
B1401,2017,"57-173, 57-131",Compliant,Non-Residential,College/University,420079,0,100 MASSACHUSETTS AVE,1959,708-19,1,College/University,College/University (46574.0),46574,,MASSACHUSETTS INSTITUTE OF TECHNOLOGY,,,1207200.1,4118966.6,,,,,,,,,,8023678.2,,12142644.8,,260.7,,21185921.1,,454.9,,841.4257,1907.5,40.96,0.0749,308.6655,0.0531,0,0.0735,0,0.0742,0,0.0753,0,0.0753,0,0.0742,0,0.0777,0,0.0664,532.7602,0.0575,0,42.3594,-71.0951,POINT (-71.0950695055331 42.3593793888398)
B1194,2021,169-94,Compliant,Non-Residential,College/University,112620,3,7 Appian Way,1910,319-15,1,College/University,College/University (4692.0),4692,,PRESIDENT & FELLOWS OF HARVARD COLLEGE,,,19484.5,66481.1,2904.8,290477,,,,,,,,,,356958.1,382786.8,76.1,81.6,491147.9,518268,104.7,110.5,20.2362,25,5.32,0.0723,4.8076,0.0531,15.4286,0.0735,0,0.0742,0,0.0753,0,0.0753,0,0.0742,0,0.0777,0,0.0664,0,0.0575,0,42.3749,-71.1212,POINT (-71.1212018673431 42.374914866408)
B1047,2020,266-34,Compliant,Municipal,Municipal,124527,0,250 Fresh Pond Parkway,2004,96-4,1,Drinking Water Treatment & Distribution,Drinking Water Treatment & Distribution (155632.0),155632,,CAMBRIDGE CITY OF,,,6755549.7,23049935.4,69416.4,6941638.7,,,,,,,,,184557.7,30621285.1,31281656.5,196.8,201,72458250.8,73082740.7,465.6,469.6,2001.8253,43505.3,279.54,0.0709,1633.1215,0.0531,368.7038,0.0735,0,0.0742,0,0.0753,0,0.0753,0,0.0742,0,0.0777,0,0.0664,0,0.0575,0,42.3829,-71.144,POINT (-71.1440071608304 42.382929820983)
B1263,2021,159-1,Compliant,Non-Residential,College/University,1223988,1027,25 Harvard Yard,1880,318-17,1,College/University,College/University (77826.0),77826,,PRESIDENT & FELLOWS OF HARVARD COLLEGE,,,353287.7,1205417.5,,,,,,,,,756302.4,1526160.1,,3487880,3548691.5,44.8,45.6,5899437.6,5996451.8,75.8,77,231.9587,109,1.4,0.0723,87.1699,0.0531,0,0.0735,0,0.0742,0,0.0753,0,0.0753,0,0.0742,0,0.0777,0,0.0664,101.3347,0.0575,43.4541,42.3744,-71.1155,POINT (-71.1154917043724 42.3743593451036)
B1500,2024,52A-21,Compliant,Non-Residential,College/University,3691096,0,70 VASSAR ST,1969,668-37,1,College/University,College/University (102833.0),102833,,MASSACHUSETTS INSTITUTE OF TECHNOLOGY,,,1781695.9,6079146.5,67,6700,,,,,,,8894712.1,21410808.2,,36391366.8,36795871.9,353.9,357.8,50880915.3,51446106.1,494.8,500.3,2372.0145,868.5,8.45,0.0722,438.9585,0.0531,0.3559,0.0735,0,0.0742,0,0.0753,0,0.0743,0,0.0752,0,0.0754,0,0.0664,1421.6455,0.0575,511.0546,42.3607,-71.0932,POINT (-71.0932384198379 42.360684995031)
B1214,2023,130-168,Compliant,Non-Residential,Residential,176218,170,30 Hingham St,2008,619-28,1,Multifamily Housing,Multifamily Housing (10090.0),10090,15.1,PRESIDENT & FELLOWS OF HARVARD COLLEGE,,,56849.6,193970.9,3311.2,331125,,,,,,,,,,525095.9,548359.6,52,54.3,890799.8,915226.7,88.3,90.7,31.5936,389.9,38.64,0.0722,14.0061,0.0531,17.5875,0.0735,0,0.0742,0,0.0753,0,0.0743,0,0.0752,0,0.0754,0,0.0664,0,0.0575,0,42.3648,-71.1152,POINT (-71.1151551565807 42.3648387257937)
B1294,2019,157-69,Compliant,Non-Residential,College/University,1462119,18,33 Oxford Street,1999,266-2,1,College/University,College/University (97535.0),97535,,PRESIDENT & FELLOWS OF HARVARD COLLEGE,,,1246762.7,4253954.4,0,0,,,,,,,4243893.5,4049293.4,,12547141.3,12452107.4,128.6,127.7,20644481.9,20530152.1,211.7,210.5,791.9638,666,6.83,0.0656,279.2596,0.0531,0,0.0735,0,0.0742,0,0.0753,0,0.0753,0,0.0742,0,0.0777,0,0.0664,268.867,0.0575,243.8371,42.3788,-71.1173,POINT (-71.1173440314952 42.3787834703896)
B1704,2023,242B-56,Compliant,Non-Residential,Other,187700,,80 Gerry's Landing Rd.,1998,387-11,1,Fitness Center/Health Club/Gym,Fitness Center/Health Club/Gym (60000.0),80000,,BUCKINGHAM BROWNE AND NICHOLS SCHOOL,,,1033942.6,3527812,184.5,18452.6,,,,,,,,,,3546264.6,3706231.5,59.1,61.8,9897248.9,10340775.4,165,172.3,255.7137,737.9,12.3,0.0722,254.7336,0.0531,0.9801,0.0735,0,0.0742,0,0.0753,0,0.0743,0,0.0752,0,0.0754,0,0.0664,0,0.0575,0,42.3726,-71.136,POINT (-71.1359865722757 42.3726145631889)
B1718,2019,267D-305,Compliant,Non-Residential,Office,44048,1,733 Concord Avenue,1919,46-36,1,Office,"Office (28631.0),Laboratory (15417.0)",44048,,"CPI/KING 733 CONCORD OWNER, LLC",,,1770771.2,6041871.4,55468.9,5546893.4,,,,,,,,,,11588764.9,11470128.2,263.1,260.4,22741478.1,22614376.9,516.3,513.4,691.2532,425.7,9.67,0.0656,396.6311,0.0531,294.6221,0.0735,0,0.0742,0,0.0753,0,0.0753,0,0.0742,0,0.0777,0,0.0664,0,0.0575,0,42.3913,-71.1531,POINT (-71.1531235194415 42.3913067928957)
B1086,2017,"173-71, 173-101",Compliant,Residential,Residential,47492,58,1616 Massachusetts Avenue,1982,244-9,1,Multifamily Housing,Multifamily Housing (15830.0),15830,18,"Cambridge Realty Llc,",C/O A Mass Limited Liability Company,,4635.4,15816,8335.4,833535.5,,,,,,,,,,849351.5,886555.1,53.7,56,919497,958560.8,58.1,60.6,45.4583,421.5,26.63,0.0749,1.1852,0.0531,44.2731,0.0735,0,0.0742,0,0.0753,0,0.0753,0,0.0742,0,0.0777,0,0.0664,0,0.0575,0,42.3802,-71.1204,POINT (-71.1203610763829 42.3802019763051)
B1028,2019,86-105,Compliant,Municipal,Education,58502,,89 Elm Street,1983,456-3,1,K-12 School,K-12 School (58323.0),58323,,CAMBRIDGE CITY OF,SCHOOL DEPT,62,298997.5,1020179.4,31343.9,3134390.9,,,,,,,,,,4154570.3,4043066.5,71.2,69.3,6147612.6,6011402.6,105.4,103.1,233.4543,387.5,6.64,0.0656,66.9718,0.0531,166.4825,0.0735,0,0.0742,0,0.0753,0,0.0753,0,0.0742,0,0.0777,0,0.0664,0,0.0575,0,42.3694,-71.0978,POINT (-71.0977853597922 42.369399989155)
B1320,2017,1A-86,Compliant,Residential,Residential,426000,426,One Leighton Street,2008,378-11,1,Multifamily Housing,Multifamily Housing (612952.0),612952,528,NORTH POINT APARTMENTS LIMITED PARTNERSH,"C/O AVALONBAY COMMUNITIES, INC",1,9850410.2,33609599.5,307577.6,30757759.3,,,,,,,,,,47098667.9,65411562.9,76.8,144.5,108270400.5,127498940.2,176.6,281.7,4152.3152,18737.4,41.4,0.0749,2518.623,0.0531,1633.6922,0.0735,0,0.0742,0,0.0753,0,0.0753,0,0.0742,0,0.0777,0,0.0664,0,0.0575,0,42.37,-71.0731,POINT (-71.0731441491643 42.3699573152381)
B1608,2017,267D-339,Compliant,Non-Residential,Residential,161348,10,799 Concord Ave,1966,"65-33, 65-43",2,Senior Living Community,"Senior Living Community (162853.0),Parking (664.0)",162853,,Sancta Maria Hospital,,11,1486500,5071938,204863.6,20486359.6,,690001.4,,,69005.5,,,,,26317304.5,26599824.4,161.6,163.3,36478700.9,36731097.7,224,225.5,1524.5329,7.4,0.05,0.0749,380.0789,0.0531,1088.1289,0.0735,0,0.0742,51.2043,0.0753,0,0.0753,0,0.0742,5.1208,0.0777,0,0.0664,0,0.0575,0,42.3917,-71.1555,POINT (-71.155477729539 42.3916889654016)
B1643,2022,242-38,Compliant,Non-Residential,Education,109553,12,178 Coolidge Hill,1939,387-10,1,K-12 School,K-12 School (2968.0),2968,,SHADY HILL SCHOOL,,63,,,2309,230900,,,,,,,,,,230900,251736.4,77.8,84.8,242445,264323.2,81.7,89.1,12.2641,,,0.0718,0,0.0531,12.2641,0.0735,0,0.0742,0,0.0753,0,0.0743,0,0.0752,0,0.0754,0,0.0664,0,0.0575,0,42.3713,-71.1366,POINT (-71.1366122311816 42.3713171139331)
B1583,2019,42-86,Compliant,Non-Residential,Office,258834,4,50 Hampshire Street,1999,568-2,1,Office,"Office (104266.0),Laboratory (97757.0)",202023,,"BMR-HAMPSHIRE LLC,",,,4303741.9,14684367.5,109951.3,10995126,,,,,,,,,,25679493.5,25396577.7,127.1,125.7,52661111.4,52263627.1,260.7,258.7,1547.9895,3050.1,15.1,0.0656,963.9856,0.0531,584.0039,0.0735,0,0.0742,0,0.0753,0,0.0753,0,0.0742,0,0.0777,0,0.0664,0,0.0575,0,42.3666,-71.0929,POINT (-71.0928962245057 42.3665700924882)
B1829,2019,107-135,Compliant,Non-Residential,Office,50770,6,689 Massachusetts Avenue,1904,584-1,1,Office,Office,34973,,THE UNITARIAN UNIVERSALIST,"SERVICE COMMITTEE, INC.",72,360703.8,1230721.7,7702.9763,770297.6,,,,,,,,,,2001019.3,2048794.4,57.2,58.6,4254833.2,4304997,121.7,123.1,121.7075,219,6.26,0.0656,80.7933,0.0531,40.9142,0.0735,0,0.0742,0,0.0753,0,0.0753,0,0.0742,0,0.0777,0,0.0664,0,0.0575,0,42.3661,-71.1042,POINT (-71.1042386243203 42.3660588931157)
B1501,2015,52A-21,Non-Compliant,Non-Residential,College/University,3691096,0,21 AMES ST,1969,668-18,1,College/University,College/University (133552.0),133552,,MASSACHUSETTS INSTITUTE OF TECHNOLOGY,,,6407523.7,21862470.7,76,7600,,,,,,,22909717.8,33798558.4,,78578346.8,,588.4,,122731795.8,,919,,5237.1059,1165.5,8.73,0.0767,1676.2279,0.0531,0.4037,0.0735,0,0.0742,0,0.0753,0,0.0753,0,0.0742,0,0.0777,0,0.0664,2244.1736,0.0575,1316.3007,42.3601,-71.0898,POINT (-71.0898114884088 42.360061448912)
B1703,2020,168-21,Non-Compliant,Non-Residential,Office,32241,3,1 Mifflin Place,1989,355-10,1,Office,"Office (20353.0),Retail Store (7094.0)",27447,,"119 MOUNT AUBURN STREET LLC,",C/O UPLAND CAPITAL CORPORATION,,299032,1020297.2,12888,1288800,,,,,,,,,,2309097.2,2393196.3,84.1,87.2,4210072.1,4298376.1,153.4,156.6,140.7439,319.3,11.64,0.0709,72.2895,0.0531,68.4544,0.0735,0,0.0742,0,0.0753,0,0.0753,0,0.0742,0,0.0777,0,0.0664,0,0.0575,0,42.3734,-71.1225,POINT (-71.1225425764619 42.3734118465)
B1440,2019,255-100,Compliant,Residential,Residential,121598,153,1 Corcoran Lane,1953,"267-10, 267-12, 267-13, 267-14, 267-15, 267-16, 267-17, 267-18, 267-19, 267-21, 267-24, 267-27, 267-28, 267-30, 267-31, 267-32, 267-34, 267-35, 267-37, 267-43, 267-44, 267-50, 267-56",23,Multifamily Housing,Multifamily Housing (200633.0),200633,153,CAMBRIDGE HOUSING AUTHORITY,,62,657177,2242287.9,147714,14771399.9,,,,,,,,,,17013687.8,16651603.3,84.8,83,21788376.1,21401078,108.6,106.7,931.7796,17343.6,86.44,0.0656,147.1996,0.0531,784.58,0.0735,0,0.0742,0,0.0753,0,0.0753,0,0.0742,0,0.0777,0,0.0664,0,0.0575,0,42.377,-71.1541,POINT (-71.1540557716417 42.3769870685191)
B1755,2016,63-132,Compliant,Non-Residential,Technology/Science,65178,1,325 Vassar Street,1950,746-4,1,Laboratory,Laboratory (52520.0),52520,,"BMR-325 VASSAR STREET LLC,",C/O RYAN LLC,,2136224.1,7288796.6,80243.6,8024362.2,,,,,,,,,,15313158.8,15312603.8,291.6,291.6,28834210.9,28833628.1,549,549,972.4174,1272.3,24.23,0.0749,546.205,0.0531,426.2124,0.0735,0,0.0742,0,0.0753,0,0.0753,0,0.0742,0,0.0777,0,0.0664,0,0.0575,0,42.355,-71.1058,POINT (-71.1058280976031 42.3550113106537)
B1822,2022,160-59,Compliant,Non-Residential,Office,30384,2,21 Dunster Street,1898,357-7,1,Office,"Restaurant (5777.0),Office (18497.0),Medical Office (3942.0),Retail Store (2168.0)",30384,,DANA CHAMBERS ALLIANCE,,,424826.3,1449507.5,25114.7,2511467.7,,,,,,,,,,3960975.2,4009811.3,130.4,132,6695662,6708047.2,220.4,220.8,237.525,1044.5,34.38,0.0718,104.1297,0.0531,133.3954,0.0735,0,0.0742,0,0.0753,0,0.0743,0,0.0752,0,0.0754,0,0.0664,0,0.0575,0,42.3729,-71.1192,POINT (-71.1191625886639 42.3728935394175)
B1271,2016,130-168,Compliant,Non-Residential,Residential,176218,170,387 Western Ave,2008,619-29,1,Multifamily Housing,Multifamily Housing (11491.0),11491,13.79,PRESIDENT & FELLOWS OF HARVARD COLLEGE,,,44817.3,152916.7,3298.5,329846.3,,,,,,,,,,482763,482855.5,42,42,774505.3,774648,67.4,67.4,28.9789,334.3,29.1,0.0749,11.4592,0.0531,17.5197,0.0735,0,0.0742,0,0.0753,0,0.0753,0,0.0742,0,0.0777,0,0.0664,0,0.0575,0,42.3646,-71.1152,POINT (-71.1151783522534 42.3646070610723)
B1360,2015,157-69,Compliant,Non-Residential,Other,1462119,18,10 Everett Street,2010,253-6,1,Parking,Parking (N/A),223000,,PRESIDENT & FELLOWS OF HARVARD COLLEGE,,,614582.8,2096956.6,,,,,,,,,,,,2096956.6,2095993.8,7.9,7.9,5871478.6,5868782.6,22.3,22.3,160.7768,,,0.0767,160.7768,0.0531,0,0.0735,0,0.0742,0,0.0753,0,0.0753,0,0.0742,0,0.0777,0,0.0664,0,0.0575,0,42.3794,-71.1194,POINT (-71.1193981895402 42.3793814210564)
B1299,2019,159-1,Compliant,Non-Residential,College/University,1223988,1027,22 Harvard Yard,1974,"318-10, 318-9, 318-1",3,Residence Hall/Dormitory,Residence Hall/Dormitory (44776.0),44776,,PRESIDENT & FELLOWS OF HARVARD COLLEGE,,,442721.1,1510564.5,6973.6,697358,,,,,,,,4444069.9,,6651992.3,6514522.9,148.6,145.5,10308205.2,10134399.2,230.2,226.3,431.2837,5334.1,119.13,0.0656,99.1641,0.0531,37.04,0.0735,0,0.0742,0,0.0753,0,0.0753,0,0.0742,0,0.0777,0,0.0664,295.0796,0.0575,0,42.3742,-71.1167,POINT (-71.1166675094822 42.3742243367264)
B1530,2020,264-97,Compliant,Residential,Residential,58200,54,87 New Street,2016,98-1,1,Multifamily Housing,Multifamily Housing (50353.0),50353,54,"NEW STREET RESIDENCES LLC,",,,,,,,,,,,,,,,,,,,,,,,,0,,,0.0709,0,0.0531,0,0.0735,0,0.0742,0,0.0753,0,0.0753,0,0.0742,0,0.0777,0,0.0664,0,0.0575,0,42.3898,-71.1395,POINT (-71.139477346733 42.3898003510126)
B1677,2019,27-97,Compliant,Residential,Residential,99514,85,249 Third Street,2019,569-1,1,Multifamily Housing,Multifamily Housing (86381.0),86381,84,EQR-249 THIRD ST LLC,,100,187292,639040.3,14275.4,1427535.8,,,,,43746,,,,,2110322.2,2110322.2,24.4,24.4,3332409,3332409,38.6,38.6,121.0207,,,0.0656,41.9511,0.0531,75.8233,0.0735,0,0.0742,0,0.0753,0,0.0753,0,0.0742,3.2463,0.0777,0,0.0664,0,0.0575,0,42.3668,-71.0821,POINT (-71.0821113773762 42.366773885961)
B1044,2017,31-22,Compliant,Municipal,Municipal,109430,1,125 Sixth Street,2008,554-3,1,Police Station,"Police Station (115793.0),Parking (46754.0)",162547,,CITY OF CAMBRIDGE,,,3124765.4,10661699.6,49151.3,4915133.5,,,,,,,,,,15576833.1,15622115.6,134.5,134.9,35013649,34999073.8,302.4,302.3,1060.0286,2676.7,23.12,0.0749,798.9623,0.0531,261.0663,0.0735,0,0.0742,0,0.0753,0,0.0753,0,0.0742,0,0.0777,0,0.0664,0,0.0575,0,42.3673,-71.0862,POINT (-71.0861622121238 42.3672769631053)
B1025,2022,20-71,Compliant,Municipal,Municipal,14780,,175 Cambridge Street,1977,431-7,1,Fire Station,Fire Station (17093.0),17093,,CAMBRIDGE CITY OF,FIRE DEPT,,214273.5,731101.3,5449.9,544985.9,,,,,,,,,,1276087.2,1339229,74.7,78.3,2619318.9,2712255.4,153.2,158.7,81.4675,151.6,8.87,0.0718,52.5208,0.0531,28.9467,0.0735,0,0.0742,0,0.0753,0,0.0743,0,0.0752,0,0.0754,0,0.0664,0,0.0575,0,42.3712,-71.0788,POINT (-71.0787551440206 42.3711758679749)
B1856,2015,165-34,Compliant,Non-Residential,Other,33800,57,110 Mt Auburn Street,1959,380-6,1,Hotel,Hotel (29583.0),29583,,PRESIDENT & FELLOWS OF HARVARD COLLEGE,C/O HARVARD REAL ESTATE INC.,,,,,,,,,,,,,,,,,,,,,,,0,,,0.0767,0,0.0531,0,0.0735,0,0.0742,0,0.0753,0,0.0753,0,0.0742,0,0.0777,0,0.0664,0,0.0575,0,42.3727,-71.1221,POINT (-71.1220779377637 42.3726806041663)
B1752,2022,185-59,Compliant,Non-Residential,Education,135082,0,45 Alewife Brook Parkway,1875,2-1,1,K-12 School,K-12 School (5700.0),5700,,"ECOLE BILINGUE, INC. &",,76,26853,91622.4,1815,181500,,,,,,,,,,273122.4,292103,47.9,51.2,447117.8,471235.1,78.4,82.7,16.2222,38.2,6.71,0.0718,6.582,0.0531,9.6403,0.0735,0,0.0742,0,0.0753,0,0.0743,0,0.0752,0,0.0754,0,0.0664,0,0.0575,0,42.4035,-71.1339,POINT (-71.1339354656056 42.4034576897726)
B1064,2019,153-85,Compliant,Non-Residential,College/University,70818,,1801 Massachusetts Ave,2015,131-1,1,College/University,College/University (74000.0),79295,,LESLEY UNIVERSITY,,,912202.4,3112434.5,53714,5371399.9,,,,,,,,,,8483834.4,8428156.8,114.6,113.9,14354786.5,14296325,194,193.2,489.623,2039.9,27.57,0.0656,204.3222,0.0531,285.3008,0.0735,0,0.0742,0,0.0753,0,0.0753,0,0.0742,0,0.0777,0,0.0664,0,0.0575,0,42.3865,-71.1187,POINT (-71.1186826522208 42.3865323975549)
B1668,2018,"267F-279, 267F-281",Compliant,Non-Residential,Office,92029,,"10, 12, 20-22-24, 36, 50, 60, 62, 64 Moulton Street",1973,78-5,1,Office,Office (95148.0),193217,,"CV PORTFOLIO WEST CAMBRIDGE, LLC",,1,7893651,26933137.4,728770,72876999.9,,,,,,,,,,99810137.3,99810137.3,1049,1049,151933634.5,151933634.5,1596.8,1596.8,5759.7117,,,0.0701,1888.8644,0.0531,3870.8473,0.0735,0,0.0742,0,0.0753,0,0.0753,0,0.0742,0,0.0777,0,0.0664,0,0.0575,0,42.3907,-71.1473,POINT (-71.147329433765 42.390726890175)
B1317,2024,16-34,Compliant,Residential,Residential,135900,136,50 Rogers St,2019,600-3,1,Multifamily Housing,"Multifamily Housing (105566.0),Electric Vehicle Charging Station (0.0),Parking (20655.0)",105566,136,AIMCO 50 ROGERS STREET LLC,,30,1063594,3628982.7,38831.9,3883187,,,,,,,,,,7512169.7,7857894.4,71.2,74.4,14238497.8,14601508.7,134.9,138.3,468.2924,3544.7,33.58,0.0722,262.0389,0.0531,206.2535,0.0735,0,0.0742,0,0.0753,0,0.0743,0,0.0752,0,0.0754,0,0.0664,0,0.0575,0,42.3656,-71.0788,POINT (-71.0788269951858 42.3656292885999)
B1518,2024,121-114,Non-Compliant,Residential,Other,87557,72,609-611 Green Street,,489-20,1,,,,,MASSACHUSETTS INSTITUTE OF TECHNOLOGY,,,,,,,,,,,,,,,,,,,,,,,,0,,,0.0722,0,0.0531,0,0.0735,0,0.0742,0,0.0753,0,0.0743,0,0.0752,0,0.0754,0,0.0664,0,0.0575,0,42.3687,-71.1115,POINT (-71.1114793758008 42.3687375725905)
B1762,2017,92-127,Compliant,Non-Residential,Technology/Science,269084,,45 Sidney Street,1998,"665-5, 665-19",2,Laboratory,"Office (83100.0),Laboratory (193900.0)",277000,,MASSACHUSETTS INSTITUTE OF TECHNOLOGY,,,9968088.4,34011117.5,435134.3,43513432.8,,,,,,,,,,77524550.3,78612675.3,279.9,283.8,140920233.3,142062764.7,508.7,512.9,4859.9191,9673.1,34.92,0.0749,2548.7118,0.0531,2311.2073,0.0735,0,0.0742,0,0.0753,0,0.0753,0,0.0742,0,0.0777,0,0.0664,0,0.0575,0,42.3618,-71.1021,POINT (-71.1020669898333 42.3617609938397)
B1355,2018,144-1,Compliant,Non-Residential,Office,2402868,15,29 Kirkland Street,1917,241-54,1,Office,Office (57896.0),57896,,PRESIDENT & FELLOWS OF HARVARD COLLEGE,,96,154264.7,526351,,,,,,,,,15184.5,1755438.6,,2296974.2,2308951.8,39.7,39.9,3599465.7,3615152.5,62.2,62.4,154.3448,275,4.75,0.0701,36.9138,0.0531,0,0.0735,0,0.0742,0,0.0753,0,0.0753,0,0.0742,0,0.0777,0,0.0664,116.5585,0.0575,0.8724,42.377,-71.1143,POINT (-71.1143041871349 42.3769738402987)
B1412,2016,68-58,Non-Compliant,Non-Residential,College/University,44244,,185 ALBANY ST,1992,702-8,1,College/University,College/University (50118.0),50118,,MASSACHUSETTS INSTITUTE OF TECHNOLOGY,,,914050,3118738.7,27477,2747700,,,,,,,,,,5866438.7,,117.1,,11617553.4,,231.8,,379.6544,153.4,3.06,0.0749,233.7108,0.0531,145.9435,0.0735,0,0.0742,0,0.0753,0,0.0753,0,0.0742,0,0.0777,0,0.0664,0,0.0575,0,42.3597,-71.0995,POINT (-71.0995412336841 42.3596941907481)
B1062,2024,43-78,Compliant,Non-Residential,Office,501848,4,145 Broadway,2019,591-15,1,Office,"Office (471935.0),Data Center (10000.0),Retail Store (8065.0)",490000,,"BARRETT, DAVID, EDWARD H. LINDE &","MORTIMER B. ZUCKERMAN,TRS. OF ELEVEN",91,5571359.3,19009477.8,86448,8644799.9,,,,,0,,,,117275.6,28054422.1,28877870.7,57.3,58.9,62703722.2,63568343.2,128,129.7,1831.7865,2773.9,5.66,0.0722,1372.6223,0.0531,459.1642,0.0735,0,0.0742,0,0.0753,0,0.0743,0,0.0752,0,0.0754,0,0.0664,0,0.0575,0,42.3649,-71.0888,POINT (-71.0887577206676 42.3649251430685)
B1004,2016,92-126,Compliant,Residential,Residential,169738,135,91 Sidney Street,1999,665-17,1,Multifamily Housing,Multifamily Housing (159108.0),159108,135,MASSACHUSETTS INSTITUTE OF TECHNOLOGY,,5,2040605.4,6962545.6,52342.6,5234260.5,,,,,,,,,,12196806.1,12200167.9,76.7,76.7,24991101.3,24997513.7,157.1,157.1,799.7732,11794.6,74.13,0.0749,521.7565,0.0531,278.0167,0.0735,0,0.0742,0,0.0753,0,0.0753,0,0.0742,0,0.0777,0,0.0664,0,0.0575,0,42.3608,-71.1024,POINT (-71.102397509726 42.3607611540914)
B1364,2022,17-84,Compliant,Non-Residential,Office,114712,2,222 Third St.,1918,559-3,1,Office,"Office (118330.0),Parking (18000.0)",118330,,AMERICAN TWINE OWNER LLC,C/O NEW ENGLAND DEVELOPMENT,73,1169270.5,3989551,23841.5,2384149.8,,,,,,,,,,6373700.8,6621097.2,53.9,56,13674100,13933866.3,115.6,117.8,413.2342,383.2,3.24,0.0718,286.6012,0.0531,126.6329,0.0735,0,0.0742,0,0.0753,0,0.0743,0,0.0752,0,0.0754,0,0.0664,0,0.0575,0,42.3671,-71.0804,POINT (-71.0803961547933 42.3670612302119)
B1847,2019,44-99,Compliant,Non-Residential,Office,451653,0,325 Main St,,643-5,1,,,,,"ZUCKERMAN, MORTIMER B., EDWARD H. LINDE","& DAVID BARRETT, TRS. OF THREE CAMBRIDGE",,,,,,,,,,,,,,,,,,,,,,,0,,,0.0656,0,0.0531,0,0.0735,0,0.0742,0,0.0753,0,0.0753,0,0.0742,0,0.0777,0,0.0664,0,0.0575,0,42.3627,-71.0866,POINT (-71.0866271231941 42.3627403687649)
B1071,2016,63-135,Compliant,Non-Residential,Technology/Science,91500,1,620 Memorial Drive,1916,746-8,1,Laboratory,Laboratory (94476.0),94476,,MIT 620 MEMORIAL LLC,C/O MIT INVESTMENT MANAGEMENT CO.,,4711877.4,16076925.6,156072.4,15607242.8,,,,,,,,,,24476168.5,31419371.6,259.1,332.6,53834596.8,60661565.7,569.8,642.1,2033.7419,3364.8,35.62,0.0749,1204.7663,0.0531,828.9756,0.0735,0,0.0742,0,0.0753,0,0.0753,0,0.0742,0,0.0777,0,0.0664,0,0.0575,0,42.354,-71.1075,POINT (-71.1075448662431 42.3540444350413)
B1403,2018,60-6,Non-Compliant,Residential,College/University,279909,226,471-476 MEMORIAL DR,1976,747-9,1,College/University,College/University (114930.0),114930,,MASSACHUSETTS INSTITUTE OF TECHNOLOGY,,,1245010.5,4247975.8,0.05,5,,,,,,,,3164100,,7412075.8,,64.5,,15700874.7,,136.6,,508.0092,4103.1,35.7,0.0701,297.9174,0.0531,0.0003,0.0735,0,0.0742,0,0.0753,0,0.0753,0,0.0742,0,0.0777,0,0.0664,210.0915,0.0575,0,42.3552,-71.1005,POINT (-71.1005287003132 42.3551580585099)
B1076,2020,1A-190,Compliant,Non-Residential,Technology/Science,394992,1,222 Jacobs Street,2019,378-6,1,Laboratory,"Restaurant (N/A),Office (291807.0),Data Center (1901.0),Laboratory (164880.0),Parking (161919.0),Retail Store (1129.0)",466713,,"DW NP PROPERTY, LLC",C/O DIVCO WEST REAL ESTATE,,7635909.6,26053723.4,281630.9,28163090.3,,,,,,,,,,54216813.7,,116.2,,102521670.4,,219.7,,3341.8212,,,0.0709,1845.9443,0.0531,1495.8769,0.0735,0,0.0742,0,0.0753,0,0.0753,0,0.0742,0,0.0777,0,0.0664,0,0.0575,0,42.3725,-71.0745,POINT (-71.0745406008586 42.3724749112464)
B1759,2024,189-104,Compliant,Residential,Residential,100581,76,1 Whittemore Ave,2016,"17-4, 17-6, 17-8, 17-15, 17-18, 17-21",6,Multifamily Housing,Multifamily Housing (200000.0),200000,68,TYLER COURT LIMITED PARTNERSHIP,,100,83123.5,283617.3,8156,815600,,,,,,,,,,1099217.3,1155544.6,5.5,5.8,1650508.5,1709652.2,8.3,8.5,63.7994,2320.2,11.6,0.0722,20.4792,0.0531,43.3202,0.0735,0,0.0742,0,0.0753,0,0.0743,0,0.0752,0,0.0754,0,0.0664,0,0.0575,0,42.3983,-71.134,POINT (-71.1340161557421 42.3983400747196)
