[{"id": "DEN_3695", "address": "1300 South Steele Street, Denver, CO, 80210", "city": "Denver", "state": "CO", "type": "Higher Ed", "vertical": "Education", "sqft": 330522.0, "opex": 126706.8381, "valuation": 0.0, "carbon": 815.4716324, "eui": 93.18508783, "image": "DEN_3695_GooglePlaces.jpg", "lat": 39.6934825, "lon": -104.9483767}, {"id": "DEN_3769", "address": "2255 Evans, Denver, CO, 80210", "city": "Denver", "state": "CO", "type": "Higher Ed", "vertical": "Education", "sqft": 193370.0, "opex": 86895.09134, "valuation": 0.0, "carbon": 392.9305165, "eui": 91.57001758, "image": "DEN_3769_Youtube.jpg", "lat": 39.6785041, "lon": -104.9612137}, {"id": "DEN_3748", "address": "2101 S. University, Denver, CO, 80210", "city": "Denver", "state": "CO", "type": "Higher Ed", "vertical": "Education", "sqft": 110536.0, "opex": 52037.83216, "valuation": 0.0, "carbon": 229.7843721, "eui": 94.55756496, "image": "", "lat": 39.6774678, "lon": -104.9599067}, {"id": "DEN_3770", "address": "2040 S. York St., Denver, CO 80208", "city": "Denver", "state": "CO", "type": "Higher Ed", "vertical": "Education", "sqft": 64671.0, "opex": 50112.86865, "valuation": 0.0, "carbon": 89.65681069, "eui": 204.5676238, "image": "DEN_3770_Archello.jpg", "lat": 39.6790526, "lon": -104.9602913}, {"id": "DEN_3768", "address": "2000 E. Asbury Ave., Denver, CO, 80210", "city": "Denver", "state": "CO", "type": "Higher Ed", "vertical": "Education", "sqft": 174569.0, "opex": 46469.6089, "valuation": 0.0, "carbon": 285.5635293, "eui": 69.26148915, "image": "DEN_3768_GooglePlaces.jpg", "lat": 39.679947, "lon": -104.963448}, {"id": "DEN_3775", "address": "1999 E. Evans, Denver, CO, 80210", "city": "Denver", "state": "CO", "type": "Higher Ed", "vertical": "Education", "sqft": 71304.0, "opex": 24944.95067, "valuation": 0.0, "carbon": 118.2035947, "eui": 83.60210086, "image": "DEN_3775_Limegreendesign.jpg", "lat": 39.6788805, "lon": -104.9647941}, {"id": "DEN_3750", "address": "2150 E. Evans, Denver, CO, 80210", "city": "Denver", "state": "CO", "type": "Higher Ed", "vertical": "Education", "sqft": 162780.0, "opex": 24332.88493, "valuation": 0.0, "carbon": 106.4287213, "eui": 38.62455523, "image": "DEN_3750_Ghphippsconstruction.jpg", "lat": 39.6778967, "lon": -104.9618359}, {"id": "DEN_3752", "address": "2142 S High, Denver, CO, 80210", "city": "Denver", "state": "CO", "type": "Higher Ed", "vertical": "Education", "sqft": 54288.0, "opex": 21513.15543, "valuation": 0.0, "carbon": 116.1957273, "eui": 95.02536841, "image": "DEN_3752_streetview.jpg", "lat": 39.6775748, "lon": -104.9649142}, {"id": "DEN_3746", "address": "2201 S Gaylord, Denver, CO, 80210", "city": "Denver", "state": "CO", "type": "Higher Ed", "vertical": "Education", "sqft": 79543.0, "opex": 18026.36528, "valuation": 0.0, "carbon": 103.8083743, "eui": 62.66510692, "image": "DEN_3746_streetview.jpg", "lat": 39.6760224, "lon": -104.9621501}, {"id": "DEN_3745", "address": "2199 S University Blvd, Denver, CO, 80210", "city": "Denver", "state": "CO", "type": "Higher Ed", "vertical": "Education", "sqft": 77293.0, "opex": 16347.42661, "valuation": 0.0, "carbon": 113.169184, "eui": 66.40525662, "image": "DEN_3745_En.jpg", "lat": 39.6765877, "lon": -104.9614396}, {"id": "DEN_3766", "address": "2121 E. Asbury St., Denver, CO, 80208", "city": "Denver", "state": "CO", "type": "Higher Ed", "vertical": "Education", "sqft": 46456.0, "opex": 15040.3178, "valuation": 0.0, "carbon": 77.05349484, "eui": 82.90164672, "image": "DEN_3766_GooglePlaces.jpg", "lat": 39.6805284, "lon": -104.9627199}, {"id": "DEN_3760", "address": "2050 E Evans, Denver, CO, 80210", "city": "Denver", "state": "CO", "type": "Higher Ed", "vertical": "Education", "sqft": 46972.0, "opex": 11504.42721, "valuation": 0.0, "carbon": 20.2664716, "eui": 76.37373116, "image": "DEN_3760_Serpapi.jpg", "lat": 39.6779417, "lon": -104.9632129}, {"id": "DEN_3755", "address": "2306 E. Evans Ave., Denver, CO, 80208", "city": "Denver", "state": "CO", "type": "Higher Ed", "vertical": "Education", "sqft": 33547.0, "opex": 9009.115049, "valuation": 0.0, "carbon": 34.59774461, "eui": 61.06051212, "image": "DEN_3755_streetview.jpg", "lat": 39.6780353, "lon": -104.9604321}, {"id": "DEN_3754", "address": "2155 S. Race St., Denver, CO, 80208", "city": "Denver", "state": "CO", "type": "Higher Ed", "vertical": "Education", "sqft": 43920.0, "opex": 7613.68601, "valuation": 0.0, "carbon": 37.29710174, "eui": 50.67519353, "image": "", "lat": 39.6771084, "lon": -104.964406}]