[{"id": "NYC_1009960029", "address": "1133 Ave Of The Americas, New York, NY 10036", "city": "New York", "state": "NY", "type": "Office", "vertical": "Commercial", "sqft": 977035.0, "opex": 436600.7522, "valuation": 6237153.602857142, "carbon": 739.1108453, "eui": 63.78922127, "image": "NYC_1009960029_AWS.jpg", "lat": 40.75623, "lon": -73.98378}, {"id": "LA_436078845276", "address": "1840 Century Park East, Los Angeles, CA 90067", "city": "Los Angeles", "state": "CA", "type": "Office", "vertical": "Commercial", "sqft": 371074.0, "opex": 196608.072, "valuation": 2711835.475862069, "carbon": 44.15057046, "eui": 29.64510098, "image": "LA_436078845276_streetview.jpg", "lat": 34.062203, "lon": -118.4148895}, {"id": "SF_37400332024", "address": "211 Main St, San Francisco, CA, 94105", "city": "San Francisco", "state": "CA", "type": "Office", "vertical": "Commercial", "sqft": 450536.0, "opex": 85576.14517, "valuation": 1141015.2689333337, "carbon": 99.22442915, "eui": 26.38910678, "image": "SF_37400332024_energystar.jpg", "lat": 37.79059432, "lon": -122.3926991}, {"id": "CHI_250120", "address": "1401 S California Ave, Chicago, IL, 60608", "city": "Chicago", "state": "IL", "type": "Hospital/Clinic", "vertical": "Healthcare", "sqft": 177380.0, "opex": 59698.71179, "valuation": 0.0, "carbon": 225.7080847, "eui": 83.80354053, "image": "CHI_250120_streetview.jpg", "lat": 41.927891, "lon": -87.736002}, {"id": "CA_2905552", "address": "27201 Puerta Real, Mission Viejo, CA, 92691", "city": "Mission Viejo", "state": "CA", "type": "Office", "vertical": "Commercial", "sqft": 120322.0, "opex": 57149.29679, "valuation": 761990.6238666667, "carbon": 28.00210226, "eui": 29.63854121, "image": "CA_2905552_energystar.jpg", "lat": 33.5673047, "lon": -117.6714435}, {"id": "SF_02370062024", "address": "200 California St, San Francisco, CA, 94111", "city": "San Francisco", "state": "CA", "type": "Office", "vertical": "Commercial", "sqft": 29540.0, "opex": 19176.85144, "valuation": 255691.35253333332, "carbon": 37.64524915, "eui": 74.21238179, "image": "SF_02370062024_streetview.jpg", "lat": 37.79358051, "lon": -122.3990287}]