[{"id": "CA_27674366", "address": "1650 Garretson Ave., Corona, CA, 92879", "city": "Corona", "state": "CA", "type": "PreK-12", "vertical": "Education", "sqft": 56281.0, "opex": 27215.87553, "valuation": 0.0, "carbon": 40.10051429, "eui": 50.94777891, "image": "CA_27674366_yelp.jpg", "lat": 33.8634093, "lon": -117.5637551}, {"id": "CA_27674382", "address": "185 Magnolia Ave., Corona, CA, 92879", "city": "Corona", "state": "CA", "type": "PreK-12", "vertical": "Education", "sqft": 57200.0, "opex": 16956.42499, "valuation": 0.0, "carbon": 23.62195416, "eui": 33.45719418, "image": "CA_27674382_places.jpg", "lat": 33.8535505, "lon": -117.5681}, {"id": "CA_27674369", "address": "13550 Tolton Ave., Corona, CA, 92879", "city": "Corona", "state": "CA", "type": "PreK-12", "vertical": "Education", "sqft": 90894.0, "opex": 15335.71406, "valuation": 0.0, "carbon": 18.71140994, "eui": 24.60096445, "image": "CA_27674369_Homegardensacademyco.jpg", "lat": 33.8766248, "lon": -117.5205067}, {"id": "CA_27674380", "address": "750 Corona Ave., Corona, CA, 92879", "city": "Corona", "state": "CA", "type": "PreK-12", "vertical": "Education", "sqft": 60726.0, "opex": 10100.35903, "valuation": 0.0, "carbon": 11.85348917, "eui": 23.84799634, "image": "CA_27674380_Homes.jpg", "lat": 33.8919835, "lon": -117.5598113}, {"id": "CA_27674359", "address": "785 Village Loop Dr., Corona, CA, 92879", "city": "Corona", "state": "CA", "type": "PreK-12", "vertical": "Education", "sqft": 60961.0, "opex": 9417.331632, "valuation": 0.0, "carbon": 12.41974478, "eui": 24.19604883, "image": "CA_27674359_Coronaranchelementar.jpg", "lat": 33.8943598, "lon": -117.5415932}, {"id": "CA_27674373", "address": "2050 Aztec Ln., Corona, CA, 92879", "city": "Corona", "state": "CA", "type": "PreK-12", "vertical": "Education", "sqft": 66166.0, "opex": 8489.307314, "valuation": 0.0, "carbon": 9.405187377, "eui": 19.83492993, "image": "", "lat": 33.9029429, "lon": -117.5321797}]