[{"id": "SEA_3332501090", "address": "3928 S Graham St, Seattle, WA, 98118", "city": "Seattle", "state": "WA", "type": "PreK-12", "vertical": "Education", "sqft": 173185.0, "opex": 32471.76374, "valuation": 0.0, "carbon": 88.53908413, "eui": 49.51819153, "image": "SEA_3332501090_En.jpg", "lat": 47.54632, "lon": -122.28198}, {"id": "SEA_3524049149", "address": "8815 Seward Park Ave S, Seattle, WA, 98118", "city": "Seattle", "state": "WA", "type": "PreK-12", "vertical": "Education", "sqft": 184125.0, "opex": 31536.54288, "valuation": 0.0, "carbon": 67.02499723, "eui": 43.40758724, "image": "SEA_3524049149_places.jpg", "lat": 47.52407, "lon": -122.26586}, {"id": "SEA_7243500230", "address": "8311 Beacon Ave S, Seattle, WA, 98118", "city": "Seattle", "state": "WA", "type": "PreK-12", "vertical": "Education", "sqft": 103166.0, "opex": 18631.0361, "valuation": 0.0, "carbon": 31.41874306, "eui": 37.41963438, "image": "SEA_7243500230_Serpapi.jpg", "lat": 47.52915, "lon": -122.28904}, {"id": "SEA_7129302300", "address": "9709 60Th Ave S, Seattle, WA, 98118", "city": "Seattle", "state": "WA", "type": "PreK-12", "vertical": "Education", "sqft": 78804.0, "opex": 15666.08035, "valuation": 0.0, "carbon": 25.57931032, "eui": 42.3452109, "image": "SEA_7129302300_streetview.jpg", "lat": 47.51482, "lon": -122.25864}, {"id": "SEA_2123700235", "address": "4525 S Cloverdale St, Seattle, WA, 98118", "city": "Seattle", "state": "WA", "type": "PreK-12", "vertical": "Education", "sqft": 75605.0, "opex": 12124.54877, "valuation": 0.0, "carbon": 18.60024383, "eui": 33.11072019, "image": "SEA_2123700235_Homes.jpg", "lat": 47.52499, "lon": -122.27466}, {"id": "SEA_3812400550", "address": "6725 45Th Ave S, Seattle, WA, 98118", "city": "Seattle", "state": "WA", "type": "PreK-12", "vertical": "Education", "sqft": 67371.0, "opex": 11359.88039, "valuation": 0.0, "carbon": 19.30102784, "eui": 36.65672173, "image": "SEA_3812400550_Historylink.jpg", "lat": 47.54174, "lon": -122.27691}, {"id": "SEA_1704900242", "address": "5215 46Th Ave S, Seattle, WA, 98118", "city": "Seattle", "state": "WA", "type": "PreK-12", "vertical": "Education", "sqft": 59955.0, "opex": 9602.11646, "valuation": 0.0, "carbon": 10.5132442, "eui": 28.27710783, "image": "SEA_1704900242_streetview.jpg", "lat": 47.55478, "lon": -122.27596}, {"id": "SEA_1703400755", "address": "3528 S Ferdinand St, Seattle, WA, 98118", "city": "Seattle", "state": "WA", "type": "PreK-12", "vertical": "Education", "sqft": 33105.0, "opex": 9436.03272, "valuation": 0.0, "carbon": 27.48971326, "eui": 78.74565776, "image": "", "lat": 47.55818, "lon": -122.28712}, {"id": "SEA_8113100950", "address": "6020 Rainier Ave S, Seattle, WA, 98118", "city": "Seattle", "state": "WA", "type": "PreK-12", "vertical": "Education", "sqft": 41720.0, "opex": 7884.38171, "valuation": 0.0, "carbon": 0.26017438, "eui": 26.59860978, "image": "SEA_8113100950_Serpapi.jpg", "lat": 47.54774, "lon": -122.27642}, {"id": "SEA_7950302375", "address": "4100 39Th Ave S, Seattle, WA, 98118", "city": "Seattle", "state": "WA", "type": "PreK-12", "vertical": "Education", "sqft": 51672.0, "opex": 7229.436179, "valuation": 0.0, "carbon": 9.769521995, "eui": 30.71261031, "image": "SEA_7950302375_Yelp.jpg", "lat": 47.56591, "lon": -122.28339}, {"id": "SEA_1102000138", "address": "5101 S Graham St, Seattle, WA, 98118", "city": "Seattle", "state": "WA", "type": "PreK-12", "vertical": "Education", "sqft": 56228.0, "opex": 6612.574294, "valuation": 0.0, "carbon": 11.26040676, "eui": 28.91296151, "image": "SEA_1102000138_Homes.jpg", "lat": 47.54576, "lon": -122.26853}, {"id": "SEA_3395070210", "address": "3900 S Holly Park Dr, Seattle, WA, 98118", "city": "Seattle", "state": "WA", "type": "PreK-12", "vertical": "Education", "sqft": 37416.0, "opex": 5832.726178, "valuation": 0.0, "carbon": 0.192472406, "eui": 21.94066709, "image": "SEA_3395070210_Homes.jpg", "lat": 47.53636, "lon": -122.28309}, {"id": "SEA_4006000598", "address": "3701 S Kenyon St, Seattle, WA, 98118", "city": "Seattle", "state": "WA", "type": "PreK-12", "vertical": "Education", "sqft": 77636.0, "opex": 5728.365541, "valuation": 0.0, "carbon": 7.94136103, "eui": 20.88628987, "image": "SEA_4006000598_Homes.jpg", "lat": 47.53074, "lon": -122.28491}]