[{"id": "CA_2913476", "address": "1655 Iron Point Rd., Folsom, CA, 95630", "city": "Folsom", "state": "CA", "type": "PreK-12", "vertical": "Education", "sqft": 249412.0, "opex": 196252.9389, "valuation": 0.0, "carbon": 227.8838992, "eui": 62.1809006, "image": "CA_2913476_Myfolsom.jpg", "lat": 38.6491292, "lon": -121.1575258}, {"id": "CA_2915347", "address": "1970 Brd.Stone Pkwy., Folsom, CA, 95630", "city": "Folsom", "state": "CA", "type": "PreK-12", "vertical": "Education", "sqft": 167905.0, "opex": 176816.0124, "valuation": 0.0, "carbon": 288.4628893, "eui": 91.44210536, "image": "CA_2915347_Homes.jpg", "lat": 38.6559618, "lon": -121.1080091}, {"id": "CA_3446392", "address": "1965 Birkmont Drive, Rancho Cordova, CA, 95742", "city": "Rancho Cordova", "state": "CA", "type": "Office", "vertical": "Commercial", "sqft": 73722.0, "opex": 88100.30299, "valuation": 1174670.7065333333, "carbon": 83.23022574, "eui": 62.90754779, "image": "CA_3446392_streetview.jpg", "lat": 38.6330284, "lon": -121.1999021}, {"id": "CA_2915277", "address": "2239 Chase Dr., Rancho Cordova, CA, 95670", "city": "Rancho Cordova", "state": "CA", "type": "PreK-12", "vertical": "Education", "sqft": 181439.0, "opex": 65105.48656, "valuation": 0.0, "carbon": 130.2234297, "eui": 51.15179466, "image": "CA_2915277_places.jpg", "lat": 38.5997963, "lon": -121.3078153}, {"id": "CA_27835846", "address": "500 Blue Ravine Rd., Folsom, CA, 95630", "city": "Folsom", "state": "CA", "type": "PreK-12", "vertical": "Education", "sqft": 164733.0, "opex": 55945.80993, "valuation": 0.0, "carbon": 86.42824549, "eui": 35.46589912, "image": "CA_27835846_Homes.jpg", "lat": 38.6748783, "lon": -121.1485983}, {"id": "CA_27836423", "address": "715 Riley St., Folsom, CA, 95630", "city": "Folsom", "state": "CA", "type": "PreK-12", "vertical": "Education", "sqft": 143864.0, "opex": 42664.72719, "valuation": 0.0, "carbon": 58.91704926, "eui": 32.80357072, "image": "CA_27836423_Yelp.jpg", "lat": 38.6750133, "lon": -121.1709719}, {"id": "CA_2243016", "address": "11821 Cobble Brook Dr., Rancho Cordova, CA, 95742", "city": "Rancho Cordova", "state": "CA", "type": "PreK-12", "vertical": "Education", "sqft": 59611.0, "opex": 36395.38873, "valuation": 0.0, "carbon": 32.94157957, "eui": 40.21706331, "image": "CA_2243016_Serpapi.jpg", "lat": 38.555021, "lon": -121.2375587}, {"id": "CA_29240221", "address": "4350 Sophistry Dr., Rancho Cordova, CA, 95742", "city": "Rancho Cordova", "state": "CA", "type": "PreK-12", "vertical": "Education", "sqft": 57418.0, "opex": 23473.17772, "valuation": 0.0, "carbon": 23.11267093, "eui": 35.71342987, "image": "CA_29240221_places.jpg", "lat": 38.5446231, "lon": -121.2331654}, {"id": "CA_27836279", "address": "375 Dry Creek Rd., Folsom, CA, 95630", "city": "Folsom", "state": "CA", "type": "PreK-12", "vertical": "Education", "sqft": 56532.0, "opex": 23365.52343, "valuation": 0.0, "carbon": 23.57152767, "eui": 34.68374052, "image": "CA_27836279_Homes.jpg", "lat": 38.6512251, "lon": -121.0910344}, {"id": "CA_27836425", "address": "101 Dean Way, Folsom, CA, 95630", "city": "Folsom", "state": "CA", "type": "PreK-12", "vertical": "Education", "sqft": 52368.0, "opex": 19246.05568, "valuation": 0.0, "carbon": 26.72203465, "eui": 37.11960302, "image": "CA_27836425_Homes.jpg", "lat": 38.6779825, "lon": -121.1635219}]