[{"id": "CHI_101681", "address": "7435 West Talcott Avenue, Chicago, IL, 60631", "city": "Chicago", "state": "IL", "type": "Hospital/Clinic", "vertical": "Healthcare", "sqft": 1096074.0, "opex": 232724.4727, "valuation": 0.0, "carbon": 1388.728402, "eui": 227.0902478, "image": "CHI_101681_Payerprice.jpg", "lat": 41.9874835, "lon": -87.8123819}, {"id": "CHI_100433", "address": "2233 West Division St, Chicago, IL, 60622", "city": "Chicago", "state": "IL", "type": "Hospital/Clinic", "vertical": "Healthcare", "sqft": 697454.0, "opex": 168233.5668, "valuation": 0.0, "carbon": 908.4643323, "eui": 250.4095461, "image": "CHI_100433_GooglePlaces.jpg", "lat": 41.924996, "lon": -87.65859}, {"id": "CHI_251297", "address": "1431 N Western Ave, Chicago, IL, 60622", "city": "Chicago", "state": "IL", "type": "Medical Office/Lab", "vertical": "Healthcare", "sqft": 71110.0, "opex": 53732.88174, "valuation": 716438.4232, "carbon": 295.5451794, "eui": 132.0600572, "image": "CHI_251297_Serpapi.jpg", "lat": 41.907693, "lon": -87.687079}, {"id": "CHI_156856", "address": "2800 - 2812 N Sheridan Rd, Chicago, IL, 60657", "city": "Chicago", "state": "IL", "type": "Medical Office/Lab", "vertical": "Healthcare", "sqft": 96180.0, "opex": 44741.26212, "valuation": 596550.1616, "carbon": 216.2369497, "eui": 99.46973309, "image": "CHI_156856_streetview.jpg", "lat": 41.93320344, "lon": -87.63984213}, {"id": "CHI_251295", "address": "7370 West Talcott Avenue, Chicago, IL, 60631", "city": "Chicago", "state": "IL", "type": "Residential Care Facility", "vertical": "Healthcare", "sqft": 89268.0, "opex": 9142.934623, "valuation": 0.0, "carbon": 41.98674031, "eui": 97.30074285, "image": "CHI_251295_streetview.jpg", "lat": 41.9894719, "lon": -87.8115326}]