[{"id": "CA_26688", "address": "6905 Skyline Dr., San Diego, CA, 92114", "city": "San Diego", "state": "CA", "type": "PreK-12", "vertical": "Education", "sqft": 242842.0, "opex": 82347.18599, "valuation": 0.0, "carbon": 30.76096007, "eui": 25.78717973, "image": "CA_26688_Homes.jpg", "lat": 32.701281, "lon": -117.0485606}, {"id": "CA_26730", "address": "5880 Skyline Dr, San Diego, CA, 92114", "city": "San Diego", "state": "CA", "type": "PreK-12", "vertical": "Education", "sqft": 68163.0, "opex": 21125.67719, "valuation": 0.0, "carbon": 20.98896917, "eui": 26.39351786, "image": "CA_26730_streetview.jpg", "lat": 32.702328, "lon": -117.0713175}, {"id": "CA_26613", "address": "822 65Th St, San Diego, CA, 92114", "city": "San Diego", "state": "CA", "type": "PreK-12", "vertical": "Education", "sqft": 82566.0, "opex": 18874.61838, "valuation": 0.0, "carbon": 6.429449521, "eui": 19.37501514, "image": "CA_26613_places.jpg", "lat": 32.7133941, "lon": -117.0586751}, {"id": "CA_26625", "address": "7055 Skyline Dr, San Diego, CA, 92114", "city": "San Diego", "state": "CA", "type": "PreK-12", "vertical": "Education", "sqft": 54851.0, "opex": 17741.57488, "valuation": 0.0, "carbon": 15.96971354, "eui": 26.01540521, "image": "CA_26625_Fulton.jpg", "lat": 32.7020479, "lon": -117.0465549}, {"id": "CA_1056388", "address": "7330 Brookhaven Rd, San Diego, CA, 92114", "city": "San Diego", "state": "CA", "type": "PreK-12", "vertical": "Education", "sqft": 59856.0, "opex": 13398.27929, "valuation": 0.0, "carbon": 11.94976174, "eui": 21.76502732, "image": "CA_1056388_Boone.jpg", "lat": 32.6956728, "lon": -117.0364146}, {"id": "CA_19902322", "address": "7270 Lisbon St., San Diego, CA, 92114", "city": "San Diego", "state": "CA", "type": "PreK-12", "vertical": "Education", "sqft": 65609.0, "opex": 11962.77408, "valuation": 0.0, "carbon": 10.09432736, "eui": 18.27839969, "image": "CA_19902322_Yelp.jpg", "lat": 32.7137984, "lon": -117.0428595}, {"id": "CA_26572", "address": "8111 San Vicente St, San Diego, CA, 92114", "city": "San Diego", "state": "CA", "type": "PreK-12", "vertical": "Education", "sqft": 55886.0, "opex": 11593.92119, "valuation": 0.0, "carbon": 9.762112264, "eui": 19.54670476, "image": "CA_26572_Homes.jpg", "lat": 32.709833, "lon": -117.0303736}, {"id": "CA_26581", "address": "6835 Benjamin Holt Rd., San Diego, CA, 92114", "city": "San Diego", "state": "CA", "type": "PreK-12", "vertical": "Education", "sqft": 60602.0, "opex": 10441.76366, "valuation": 0.0, "carbon": 9.396633978, "eui": 18.36859467, "image": "CA_26581_Homes.jpg", "lat": 32.6888572, "lon": -117.0493652}]