[{"id": "CHI_251873", "address": "2111 W 47th St, Chicago, IL, 60609", "city": "Chicago", "state": "IL", "type": "PreK-12", "vertical": "Education", "sqft": 212285.0, "opex": 119042.0626, "valuation": 0.0, "carbon": 684.5157675, "eui": 98.20558532, "image": "CHI_251873_streetview.jpg", "lat": 41.940945, "lon": -87.668841}, {"id": "CHI_250054", "address": "4747 S Union Ave, Chicago, IL 60609", "city": "Chicago", "state": "IL", "type": "PreK-12", "vertical": "Education", "sqft": 328514.0, "opex": 45433.07182, "valuation": 0.0, "carbon": 377.4465432, "eui": 54.60981237, "image": "CHI_250054_En.jpg", "lat": 41.80752063, "lon": -87.64210109}, {"id": "CHI_251734", "address": "4343 W Wrightwood Ave, Chicago, IL, 60639", "city": "Chicago", "state": "IL", "type": "PreK-12", "vertical": "Education", "sqft": 188084.0, "opex": 43222.41486, "valuation": 0.0, "carbon": 364.3433229, "eui": 66.76157781, "image": "CHI_251734_Serpapi.jpg", "lat": 41.934383, "lon": -87.643099}, {"id": "CHI_251455", "address": "5009 S Laflin St, Chicago, IL 60609", "city": "Chicago", "state": "IL", "type": "PreK-12", "vertical": "Education", "sqft": 103015.0, "opex": 30942.37777, "valuation": 0.0, "carbon": 259.5425466, "eui": 81.01600447, "image": "CHI_251455_Chicagopublicschools.jpg", "lat": 41.80286625, "lon": -87.66205861}, {"id": "CHI_251558", "address": "3525 S. Honroe, Chicago, IL 60609", "city": "Chicago", "state": "IL", "type": "PreK-12", "vertical": "Education", "sqft": 82455.0, "opex": 29460.99712, "valuation": 0.0, "carbon": 205.9652473, "eui": 81.06077254, "image": "CHI_251558_streetview.jpg", "lat": 41.82970087, "lon": -87.67123908}, {"id": "CHI_251462", "address": "4436 S Union Ave, Chicago, IL 60609", "city": "Chicago", "state": "IL", "type": "PreK-12", "vertical": "Education", "sqft": 73500.0, "opex": 28704.32681, "valuation": 0.0, "carbon": 224.2880336, "eui": 95.61947075, "image": "CHI_251462_Homes.jpg", "lat": 41.81341181, "lon": -87.64414047}, {"id": "CHI_251409", "address": "5415 S Union Ave, Chicago, IL, 60609", "city": "Chicago", "state": "IL", "type": "PreK-12", "vertical": "Education", "sqft": 86191.0, "opex": 28152.46493, "valuation": 0.0, "carbon": 205.8480255, "eui": 76.38456649, "image": "CHI_251409_streetview.jpg", "lat": 41.938633, "lon": -87.640802}, {"id": "CHI_251559", "address": "25 W 47Th St, Chicago, IL 60609", "city": "Chicago", "state": "IL", "type": "PreK-12", "vertical": "Education", "sqft": 92185.0, "opex": 27539.33431, "valuation": 0.0, "carbon": 255.5538088, "eui": 82.72965775, "image": "CHI_251559_places.jpg", "lat": 41.80886394, "lon": -87.62670333}, {"id": "CHI_251605", "address": "5300 S Hermitage Ave, Chicago, IL 60609", "city": "Chicago", "state": "IL", "type": "PreK-12", "vertical": "Education", "sqft": 96598.0, "opex": 26802.31886, "valuation": 0.0, "carbon": 212.5277957, "eui": 73.57850577, "image": "CHI_251605_streetview.jpg", "lat": 41.79731177, "lon": -87.66870733}, {"id": "CHI_251449", "address": "5300 S Loomis Blvd, Chicago, IL 60609", "city": "Chicago", "state": "IL", "type": "PreK-12", "vertical": "Education", "sqft": 115600.0, "opex": 26371.63313, "valuation": 0.0, "carbon": 139.3728825, "eui": 51.30401211, "image": "CHI_251449_Homes.jpg", "lat": 41.79736598, "lon": -87.66014873}, {"id": "CHI_251912", "address": "1000 W 52Nd St, Chicago, IL 60609", "city": "Chicago", "state": "IL", "type": "PreK-12", "vertical": "Education", "sqft": 58451.0, "opex": 24624.09269, "valuation": 0.0, "carbon": 127.5977407, "eui": 75.29251168, "image": "CHI_251912_Chicagopublicschools.jpg", "lat": 41.80002439, "lon": -87.65049754}, {"id": "CHI_251347", "address": "3537 S Paulina St, Chicago, IL, 60609", "city": "Chicago", "state": "IL", "type": "PreK-12", "vertical": "Education", "sqft": 50060.0, "opex": 18667.31652, "valuation": 0.0, "carbon": 152.7185101, "eui": 94.2996866, "image": "CHI_251347_Yelp.jpg", "lat": 41.82903314, "lon": -87.66757109}, {"id": "CHI_251524", "address": "3630 S Wells St, Chicago, IL 60609", "city": "Chicago", "state": "IL", "type": "PreK-12", "vertical": "Education", "sqft": 68306.0, "opex": 15407.30434, "valuation": 0.0, "carbon": 96.65681173, "eui": 56.31795743, "image": "CHI_251524_Mapquest.jpg", "lat": 41.82818263, "lon": -87.63325219}, {"id": "CHI_251419", "address": "8 W Root St, Chicago, IL, 60609", "city": "Chicago", "state": "IL", "type": "PreK-12", "vertical": "Education", "sqft": 63929.0, "opex": 13518.78922, "valuation": 0.0, "carbon": 91.53045301, "eui": 55.48595814, "image": "CHI_251419_Bronzevilleclassical.jpg", "lat": 41.896877, "lon": -87.621934}]