[{"id": "NYC_2048230024", "address": "600 East 233 Street, New York, NY, 10466", "city": "New York", "state": "NY", "type": "Hospital/Clinic", "vertical": "Healthcare", "sqft": 617567.0, "opex": 149447.8823, "valuation": 0.0, "carbon": 363.2156697, "eui": 210.0978807, "image": "NYC_2048230024_Treatmentcentersdire.jpg", "lat": 40.894558, "lon": -73.861056}, {"id": "NYC_2033430283", "address": "3400 Bainbridge Avenue, New York, NY, 10467", "city": "New York", "state": "NY", "type": "Hospital/Clinic", "vertical": "Healthcare", "sqft": 214182.0, "opex": 106660.0657, "valuation": 0.0, "carbon": 485.7630052, "eui": 521.1595452, "image": "NYC_2033430283_cyclomedia.jpg", "lat": 40.879804, "lon": -73.878904}, {"id": "NYC_2033380035", "address": "3332 Rochambeau Avenue, New York, NY, 10467", "city": "New York", "state": "NY", "type": "Medical Office/Lab", "vertical": "Healthcare", "sqft": 53490.0, "opex": 82690.45928, "valuation": 1102539.4570666666, "carbon": 96.5860358, "eui": 106.6669022, "image": "NYC_2033380035_cyclomedia.jpg", "lat": 40.878677, "lon": -73.880291}, {"id": "NYC_2023910001", "address": "951 Brook Avenue, New York, NY, 10451", "city": "New York", "state": "NY", "type": "Medical Office/Lab", "vertical": "Healthcare", "sqft": 27088.0, "opex": 70263.19381, "valuation": 936842.5841333332, "carbon": 74.28015704, "eui": 188.9363703, "image": "NYC_2023910001_streetview.jpg", "lat": 40.825359, "lon": -73.911475}, {"id": "NYC_2042260130", "address": "1510 Waters Place, New York, NY, 10461", "city": "New York", "state": "NY", "type": "Hospital/Clinic", "vertical": "Healthcare", "sqft": 40503.0, "opex": 67868.75369, "valuation": 0.0, "carbon": 57.0362627, "eui": 144.5214774, "image": "NYC_2042260130_Serpapi.jpg", "lat": 40.846147, "lon": -73.841824}, {"id": "NYC_2039940001", "address": "2475 St. Raymond Avenue, New York, NY, 10461", "city": "New York", "state": "NY", "type": "Hospital/Clinic", "vertical": "Healthcare", "sqft": 137200.0, "opex": 25829.46482, "valuation": 0.0, "carbon": 28.32034508, "eui": 143.6598717, "image": "NYC_2039940001_streetview.jpg", "lat": 40.840463, "lon": -73.848122}, {"id": "NYC_2031790004", "address": "2058 Jerome Avenue, New York, NY, 10453", "city": "New York", "state": "NY", "type": "Hospital/Clinic", "vertical": "Healthcare", "sqft": 28000.0, "opex": 21429.01741, "valuation": 0.0, "carbon": 32.94990263, "eui": 112.3999321, "image": "NYC_2031790004_Serpapi.jpg", "lat": 40.854219, "lon": -73.906958}, {"id": "NYC_2050650075", "address": "4401 Bronx Boulevard, New York, NY, 10470", "city": "New York", "state": "NY", "type": "Hospital/Clinic", "vertical": "Healthcare", "sqft": 40000.0, "opex": 20644.66218, "valuation": 0.0, "carbon": 42.16578974, "eui": 96.30829, "image": "NYC_2050650075_Serpapi.jpg", "lat": 40.900082, "lon": -73.857605}]