[{"id": "DC_5497495", "address": "1160 Varnum St NE, Washington, DC, 20017", "city": "Washington", "state": "DC", "type": "Medical Office/Lab", "vertical": "Healthcare", "sqft": 724707.0, "opex": 650516.2408, "valuation": 8673549.877333334, "carbon": 1677.403625, "eui": 120.2280134, "image": "DC_5497495_Streetsofwashingtonl.jpg", "lat": 38.94443879, "lon": -76.99155587}, {"id": "DC_5493887", "address": "1150 Varnum St NE, Washington, DC 20017", "city": "Washington", "state": "DC", "type": "Hospital/Clinic", "vertical": "Healthcare", "sqft": 717000.0, "opex": 349846.4843, "valuation": 0.0, "carbon": 1366.329559, "eui": 432.4802859, "image": "DC_5493887_streetview.jpg", "lat": 38.94442877, "lon": -76.99199794}, {"id": "CA_9588480", "address": "27700 Medical Center Road, Mission Viejo, CA, 92691", "city": "Mission Viejo", "state": "CA", "type": "Hospital/Clinic", "vertical": "Healthcare", "sqft": 453378.0, "opex": 317681.0989, "valuation": 0.0, "carbon": 384.1597201, "eui": 266.3410086, "image": "CA_9588480_Providence.jpg", "lat": 33.5610153, "lon": -117.6653937}, {"id": "CA_4296747", "address": "2121 Santa Monica Boulevard, Santa Monica, CA, 90404", "city": "Santa Monica", "state": "CA", "type": "Hospital/Clinic", "vertical": "Healthcare", "sqft": 616074.0, "opex": 310596.8169, "valuation": 0.0, "carbon": 760.2389939, "eui": 321.4640546, "image": "CA_4296747_Providence.jpg", "lat": 34.0307739, "lon": -118.4796445}, {"id": "PDX_1N2E31BD-3500-B1", "address": "4805 NE Glisan St, Portland, OR, 97213", "city": "Portland", "state": "OR", "type": "Hospital/Clinic", "vertical": "Healthcare", "sqft": 1363673.453, "opex": 283586.6036, "valuation": 0.0, "carbon": 853.5688444, "eui": 221.9, "image": "", "lat": 45.5272301, "lon": -122.6132838}, {"id": "DC_5482903", "address": "925 Buchanan St NE, Washington, DC, 20017", "city": "Washington", "state": "DC", "type": "Hospital/Clinic", "vertical": "Healthcare", "sqft": 783191.0, "opex": 221588.1345, "valuation": 0.0, "carbon": 577.7912061, "eui": 253.8757689, "image": "DC_5482903_buildingurl.jpg", "lat": 38.94460471, "lon": -76.99505074}, {"id": "SEA_1978201096", "address": "747 Broadway, Seattle, WA, 98122", "city": "Seattle", "state": "WA", "type": "Hospital/Clinic", "vertical": "Healthcare", "sqft": 1639334.0, "opex": 185184.3148, "valuation": 0.0, "carbon": 485.2114578, "eui": 97.98230745, "image": "SEA_1978201096_places.jpg", "lat": 47.60884, "lon": -122.32193}, {"id": "SEA_7942600330", "address": "528 17Th Ave, Seattle, WA, 98122", "city": "Seattle", "state": "WA", "type": "Medical Office/Lab", "vertical": "Healthcare", "sqft": 320946.0, "opex": 181154.9471, "valuation": 2415399.2946666665, "carbon": 144.034456, "eui": 70.87212802, "image": "SEA_7942600330_Serpapi.jpg", "lat": 47.6064, "lon": -122.30949}, {"id": "PDX_1N2E31BD-3700-B2", "address": "5050 NE Hoyt St, Portland, OR, 97213", "city": "Portland", "state": "OR", "type": "Medical Office/Lab", "vertical": "Healthcare", "sqft": 267390.4127, "opex": 153050.8846, "valuation": 2040678.4613333333, "carbon": 450.9824659, "eui": 119.7, "image": "", "lat": 45.5267949, "lon": -122.6116677}, {"id": "CA_1151197", "address": "4101 Torrance Boulevard, Torrance, CA, 90503", "city": "Torrance", "state": "CA", "type": "Hospital/Clinic", "vertical": "Healthcare", "sqft": 410118.0, "opex": 152720.3473, "valuation": 0.0, "carbon": 240.2403783, "eui": 234.4412735, "image": "CA_1151197_streetview.jpg", "lat": 33.8384678, "lon": -118.3572436}, {"id": "SEA_7942600331", "address": "500 17Th Ave, Seattle, WA, 98122", "city": "Seattle", "state": "WA", "type": "Hospital/Clinic", "vertical": "Healthcare", "sqft": 597519.0, "opex": 110037.0772, "valuation": 0.0, "carbon": 183.0069956, "eui": 207.7841575, "image": "SEA_7942600331_Loopnet.jpg", "lat": 47.60705, "lon": -122.30966}, {"id": "CA_1151196", "address": "1300 West 7Th Street, Los Angeles, CA, 90732", "city": "Los Angeles", "state": "CA", "type": "Hospital/Clinic", "vertical": "Healthcare", "sqft": 261326.0, "opex": 84533.42783, "valuation": 0.0, "carbon": 105.0456538, "eui": 200.2126467, "image": "CA_1151196_energystar.jpg", "lat": 33.7382583, "lon": -118.305098}, {"id": "LA_419956923328", "address": "11333 Sepulveda Blvd, Los Angeles, CA, 91345", "city": "Los Angeles", "state": "CA", "type": "Medical Office/Lab", "vertical": "Healthcare", "sqft": 124059.0, "opex": 82050.58111, "valuation": 1094007.7481333334, "carbon": 20.43625682, "eui": 63.2, "image": "LA_419956923328_GooglePlaces.jpg", "lat": 34.2768308, "lon": -118.4684027}, {"id": "CA_4810228", "address": "15000 Kensington Park Drive, Tustin, CA, 92782", "city": "Tustin", "state": "CA", "type": "Medical Office/Lab", "vertical": "Healthcare", "sqft": 60013.0, "opex": 70043.79149, "valuation": 933917.2198666668, "carbon": 111.2658911, "eui": 117.2760571, "image": "CA_4810228_streetview.jpg", "lat": 33.7139116, "lon": -117.8161683}, {"id": "SEA_2324039001", "address": "4831 35Th Ave SW, Seattle, WA, 98126", "city": "Seattle", "state": "WA", "type": "Residential Care Facility", "vertical": "Healthcare", "sqft": 296313.0, "opex": 49227.8325, "valuation": 0.0, "carbon": 91.02077011, "eui": 145.7559135, "image": "SEA_2324039001_Serpapi.jpg", "lat": 47.55837, "lon": -122.37751}, {"id": "CA_6075427", "address": "1950 Sunny Crest Drive, Fullerton, CA, 92835", "city": "Fullerton", "state": "CA", "type": "Medical Office/Lab", "vertical": "Healthcare", "sqft": 86073.0, "opex": 46964.61084, "valuation": 626194.8112, "carbon": 31.97720154, "eui": 52.60907987, "image": "CA_6075427_Providence.jpg", "lat": 33.8931977, "lon": -117.9312161}, {"id": "CA_49224192", "address": "1100 Trancas Street, Napa, CA, 94558", "city": "Napa", "state": "CA", "type": "Medical Office/Lab", "vertical": "Healthcare", "sqft": 65112.0, "opex": 40624.03812, "valuation": 541653.8416, "carbon": 12.37081978, "eui": 40.31334219, "image": "CA_49224192_GooglePlaces.jpg", "lat": 38.3236475, "lon": -122.298622}, {"id": "SD_16", "address": "9573 Chesapeake Drive, San Diego, CA 92123", "city": "San Diego", "state": "CA", "type": "Office", "vertical": "Commercial", "sqft": 51464.0, "opex": 39963.89757, "valuation": 532851.9676000001, "carbon": 9.318461352, "eui": 30.7, "image": "SD_16_streetview.jpg", "lat": 32.83418152, "lon": -117.1249146}, {"id": "SEA_2767703875", "address": "5300 Tallman Ave NW, Seattle, WA, 98107", "city": "Seattle", "state": "WA", "type": "Hospital/Clinic", "vertical": "Healthcare", "sqft": 302661.0, "opex": 38124.94327, "valuation": 0.0, "carbon": 61.26094163, "eui": 180.0145245, "image": "SEA_2767703875_places.jpg", "lat": 47.66737, "lon": -122.37956}, {"id": "LA_400432885012", "address": "18321 Clark St, Los Angeles, CA, 91356", "city": "Los Angeles", "state": "CA", "type": "Hospital/Clinic", "vertical": "Healthcare", "sqft": 403997.0, "opex": 37763.5608, "valuation": 0.0, "carbon": 9.62856213, "eui": 49.74743847, "image": "LA_400432885012_streetview.jpg", "lat": 34.1704156, "lon": -118.5326773}, {"id": "LA_400198884737", "address": "18411 Clark St, Los Angeles, CA, 91356", "city": "Los Angeles", "state": "CA", "type": "Medical Office/Lab", "vertical": "Healthcare", "sqft": 38051.0, "opex": 37101.71498, "valuation": 494689.5330666666, "carbon": 10.43766441, "eui": 67.7, "image": "LA_400198884737_streetview.jpg", "lat": 34.1701748, "lon": -118.5337619}, {"id": "LA_420010922342", "address": "11165 Sepulveda Blvd, Los Angeles, CA, 91345", "city": "Los Angeles", "state": "CA", "type": "Medical Office/Lab", "vertical": "Healthcare", "sqft": 33438.0, "opex": 35580.31236, "valuation": 474404.1648000001, "carbon": 11.10643257, "eui": 72.9, "image": "LA_420010922342_streetview.jpg", "lat": 34.2737012, "lon": -118.468952}, {"id": "CHI_251448", "address": "6515 South Ashland Avenue, Chicago, IL, 60636", "city": "Chicago", "state": "IL", "type": "PreK-12", "vertical": "Education", "sqft": 53745.0, "opex": 27117.29743, "valuation": 0.0, "carbon": 112.0708163, "eui": 79.12640536, "image": "CHI_251448_Homes.jpg", "lat": 41.800092, "lon": -87.723214}, {"id": "PDX_1N2E33AA-1102-B1", "address": "1321 NE 99th Ave, Portland, OR, 97220", "city": "Portland", "state": "OR", "type": "Medical Office/Lab", "vertical": "Healthcare", "sqft": 25161.56877, "opex": 23560.62608, "valuation": 314141.6810666667, "carbon": 36.12228981, "eui": 122.2, "image": "", "lat": 45.532419, "lon": -122.5627826}, {"id": "CHI_172708", "address": "4200 N. Austin Ave, Chicago, IL, 60634", "city": "Chicago", "state": "IL", "type": "Mixed Use", "vertical": "Commercial", "sqft": 193381.0, "opex": 23353.35672, "valuation": 333619.3817142857, "carbon": 88.42202761, "eui": 64.99270239, "image": "CHI_172708_Chicagocatholic.jpg", "lat": 41.9572843, "lon": -87.7772941}, {"id": "NYC_2054090100", "address": "3304 Waterbury Avenue, New York, NY, 10465", "city": "New York", "state": "NY", "type": "Residential Care Facility", "vertical": "Healthcare", "sqft": 155005.0, "opex": 22506.73177, "valuation": 0.0, "carbon": 50.24893356, "eui": 113.3004335, "image": "NYC_2054090100_cyclomedia.jpg", "lat": 40.837222, "lon": -73.818012}, {"id": "PDX_1N2E31BB-3401-B3", "address": "4400 NE Halsey St, Portland, OR, 97213", "city": "Portland", "state": "OR", "type": "Medical Office/Lab", "vertical": "Healthcare", "sqft": 64662.39353, "opex": 20902.59801, "valuation": 0.0, "carbon": 39.22095558, "eui": 284.3, "image": "", "lat": 45.5328213, "lon": -122.6176317}, {"id": "DC_5497504", "address": "725 Buchanan St NE, Washington, DC, 20017", "city": "Washington", "state": "DC", "type": "Residential Care Facility", "vertical": "Healthcare", "sqft": 196500.0, "opex": 19109.61762, "valuation": 0.0, "carbon": 35.1940251, "eui": 72.53172656, "image": "DC_5497504_Serpapi.jpg", "lat": 38.94517232, "lon": -76.99581181}, {"id": "CA_33999320", "address": "4525 West Tulare Avenue, Visalia, CA, 93277", "city": "Visalia", "state": "CA", "type": "Residential Care Facility", "vertical": "Healthcare", "sqft": 52000.0, "opex": 9681.475962, "valuation": 0.0, "carbon": 14.08750656, "eui": 145.2328778, "image": "CA_33999320_Serpapi.jpg", "lat": 36.3191144, "lon": -119.3411999}, {"id": "PDX_1N2E32BB-200-B1", "address": "6402-6430 NE Halsey St, Portland, OR, 97213", "city": "Portland", "state": "OR", "type": "Medical Office/Lab", "vertical": "Healthcare", "sqft": 63308.71497, "opex": 7779.763846, "valuation": 0.0, "carbon": 10.46494783, "eui": 114.5, "image": "", "lat": 45.5328444, "lon": -122.5970229}, {"id": "LA_423560924689", "address": "11550 Indian Hills Rd, Los Angeles, CA, 91345", "city": "Los Angeles", "state": "CA", "type": "Medical Office/Lab", "vertical": "Healthcare", "sqft": 72821.0, "opex": 4420.387894, "valuation": 58938.505253333344, "carbon": 1.264066553, "eui": 7.394000357, "image": "LA_423560924689_streetview.jpg", "lat": 34.2802388, "lon": -118.4581099}]