[{"id": "SD_118", "address": "4275 Campus Point Ct, San Diego, CA 92121", "city": "San Diego", "state": "CA", "type": "Office", "vertical": "Commercial", "sqft": 92663.0, "opex": 627205.5826, "valuation": 8362741.101333333, "carbon": 179.9765665, "eui": 187.8, "image": "SD_118_GooglePlaces.jpg", "lat": 32.88705506, "lon": -117.223896}, {"id": "SD_96", "address": "9898 Genesee Ave, La Jolla, CA 92037", "city": "La Jolla", "state": "CA", "type": "Medical Office/Lab", "vertical": "Healthcare", "sqft": 176000.0, "opex": 406722.066, "valuation": 5422960.88, "carbon": 124.2591791, "eui": 145.6, "image": "SD_96_GooglePlaces.jpg", "lat": 32.88516714, "lon": -117.2257858}, {"id": "SD_45", "address": "16250 Technology Pl, San Diego, CA, 92127", "city": "San Diego", "state": "CA", "type": "Office", "vertical": "Commercial", "sqft": 410930.0, "opex": 320121.3018, "valuation": 4268284.024, "carbon": 80.67855835, "eui": 31.07846519, "image": "SD_45_Serpapi.jpg", "lat": 33.00996135, "lon": -117.0929259}, {"id": "CA_12418424", "address": "3811 Valley Centre Drive, San Diego, CA, 92130", "city": "San Diego", "state": "CA", "type": "Medical Office/Lab", "vertical": "Healthcare", "sqft": 142563.0, "opex": 284262.4466, "valuation": 3790165.954666667, "carbon": 147.6485805, "eui": 90.8590111, "image": "CA_12418424_streetview.jpg", "lat": 32.936657, "lon": -117.2320611}, {"id": "CA_12713692", "address": "354 Santa Fe Drive, Encinitas, CA, 92024", "city": "Encinitas", "state": "CA", "type": "Mixed Use", "vertical": "Commercial", "sqft": 470573.0, "opex": 211884.5602, "valuation": 3026922.2885714285, "carbon": 97.32329307, "eui": 70.38252873, "image": "CA_12713692_ScrippsHealth.jpg", "lat": 33.0383421, "lon": -117.2844532}, {"id": "SD_121", "address": "10710 N Torrey Pines Rd, San Diego, CA, 92037", "city": "San Diego", "state": "CA", "type": "Medical Office/Lab", "vertical": "Healthcare", "sqft": 156920.0, "opex": 192118.3192, "valuation": 2561577.5893333335, "carbon": 55.77851638, "eui": 78.9, "image": "SD_121_places.jpg", "lat": 32.89833185, "lon": -117.2422353}, {"id": "CA_12418419", "address": "10790 Rancho Bernardo Road, San Diego, CA, 92127", "city": "San Diego", "state": "CA", "type": "Medical Office/Lab", "vertical": "Healthcare", "sqft": 131000.0, "opex": 146859.674, "valuation": 1958128.9866666668, "carbon": 141.7140848, "eui": 79.76723, "image": "CA_12418419_GooglePlaces.jpg", "lat": 33.0221291, "lon": -117.1015642}, {"id": "SD_140", "address": "4077 5Th Ave, San Diego, CA 92103", "city": "San Diego", "state": "CA", "type": "Hospital/Clinic", "vertical": "Healthcare", "sqft": 609326.0, "opex": 134141.6551, "valuation": 0.0, "carbon": 33.87388567, "eui": 121.6, "image": "SD_140_GooglePlaces.jpg", "lat": 32.75100039, "lon": -117.1605942}, {"id": "CA_12528435", "address": "550 Washington Street, San Diego, CA, 92103", "city": "San Diego", "state": "CA", "type": "Medical Office/Lab", "vertical": "Healthcare", "sqft": 57974.0, "opex": 111302.4741, "valuation": 1484032.988, "carbon": 34.56760881, "eui": 75.72127831, "image": "CA_12528435_GooglePlaces.jpg", "lat": 32.7503541, "lon": -117.1601602}, {"id": "CA_12418463", "address": "435 H St, Chula Vista, CA, 91910", "city": "Chula Vista", "state": "CA", "type": "Hospital/Clinic", "vertical": "Healthcare", "sqft": 153000.0, "opex": 91373.32287, "valuation": 0.0, "carbon": 98.70960677, "eui": 231.7251831, "image": "CA_12418463_streetview.jpg", "lat": 32.6334963, "lon": -117.08368}, {"id": "CA_34550351", "address": "320 Santa Fe Drive, Encinitas, CA, 92024", "city": "Encinitas", "state": "CA", "type": "Medical Office/Lab", "vertical": "Healthcare", "sqft": 63383.0, "opex": 89866.77741, "valuation": 1198223.6988, "carbon": 94.39615932, "eui": 99.9698493, "image": "CA_34550351_ScrippsHealth.jpg", "lat": 33.0388911, "lon": -117.2856631}, {"id": "SD_122", "address": "10666 N Torrey Pines Rd, San Diego, CA, 92037", "city": "San Diego", "state": "CA", "type": "Hospital/Clinic", "vertical": "Healthcare", "sqft": 314663.0, "opex": 82005.40548, "valuation": 0.0, "carbon": 23.43282139, "eui": 136.6, "image": "SD_122_Scrippshealth.jpg", "lat": 32.89630375, "lon": -117.2418126}, {"id": "SD_95", "address": "9834 Genesee Ave, San Diego, CA 92121", "city": "San Diego", "state": "CA", "type": "Medical Office/Lab", "vertical": "Healthcare", "sqft": 81954.0, "opex": 77529.60519, "valuation": 1033728.0692, "carbon": 20.54805421, "eui": 60.4, "image": "SD_95_Scrippshealth.jpg", "lat": 32.88399377, "lon": -117.2257913}, {"id": "SD_117", "address": "10140 Campus Point Dr, San Diego, CA, 92121", "city": "San Diego", "state": "CA", "type": "Office", "vertical": "Commercial", "sqft": 65248.0, "opex": 76606.62772, "valuation": 1021421.7029333336, "carbon": 19.3067823, "eui": 47.1, "image": "SD_117_GooglePlaces.jpg", "lat": 32.88720979, "lon": -117.2226007}, {"id": "SD_30", "address": "10640 Scripps Ranch Blvd, San Diego, CA, 92131", "city": "San Diego", "state": "CA", "type": "Office", "vertical": "Commercial", "sqft": 62244.0, "opex": 50696.65313, "valuation": 675955.3750666666, "carbon": 11.82103927, "eui": 32.2, "image": "SD_30_Serpapi.jpg", "lat": 32.91235851, "lon": -117.1106948}, {"id": "CA_34806671", "address": "2205 Vista Way, Oceanside, CA, 92054", "city": "Oceanside", "state": "CA", "type": "Hospital/Clinic", "vertical": "Healthcare", "sqft": 85915.0, "opex": 30555.49763, "valuation": 0.0, "carbon": 36.85814846, "eui": 142.0056685, "image": "CA_34806671_ScrippsHealth.jpg", "lat": 33.1827023, "lon": -117.3384182}, {"id": "SD_120", "address": "10670 John Jay Hopkins Dr, San Diego, CA, 92121", "city": "San Diego", "state": "CA", "type": "Hospital/Clinic", "vertical": "Healthcare", "sqft": 45531.0, "opex": 23614.12641, "valuation": 0.0, "carbon": 7.425273998, "eui": 217.6, "image": "SD_120_GooglePlaces.jpg", "lat": 32.89663507, "lon": -117.2398664}, {"id": "CA_12418446", "address": "4077 Fifth Avenue, San Diego, CA, 92103", "city": "San Diego", "state": "CA", "type": "Hospital/Clinic", "vertical": "Healthcare", "sqft": 684980.0, "opex": 12814.65027, "valuation": 0.0, "carbon": 13.94266597, "eui": 11.09742401, "image": "CA_12418446_streetview.jpg", "lat": 32.7510887, "lon": -117.1605559}]