[{"id": "CA_6045370", "address": "848 South Barranca Avenue, Covina, CA, 91723", "city": "Covina", "state": "CA", "type": "Retail/Consumer Services", "vertical": "Commercial", "sqft": 325000.0, "opex": 131177.7141, "valuation": 2098843.4256, "carbon": 201.8119142, "eui": 61.69680477, "image": "CA_6045370_streetview.jpg", "lat": 34.0744813, "lon": -117.8791263}, {"id": "ATL_354", "address": "441 16Th St NW, Atlanta, GA, 30363", "city": "Atlanta", "state": "GA", "type": "Retail/Consumer Services", "vertical": "Commercial", "sqft": 366000.0, "opex": 77435.01701, "valuation": 1147185.437185185, "carbon": 44.38429348, "eui": 42.2, "image": "ATL_354_streetview.jpg", "lat": 33.7888368, "lon": -84.4051193}, {"id": "CA_6045395", "address": "4400 Shellmound Street, Emeryville, CA, 94608", "city": "Emeryville", "state": "CA", "type": "Retail/Consumer Services", "vertical": "Commercial", "sqft": 274000.0, "opex": 56977.80376, "valuation": 911644.86016, "carbon": 145.3255226, "eui": 59.89220109, "image": "", "lat": 37.8317539, "lon": -122.2919709}, {"id": "NYC_3006120130", "address": "1 Beard Street, New York, NY, 11231", "city": "New York", "state": "NY", "type": "Grocery/Supercenter", "vertical": "Commercial", "sqft": 346578.0, "opex": 45385.1046, "valuation": 789306.1669565217, "carbon": 66.81290184, "eui": 46.34235785, "image": "NYC_3006120130_cyclomedia.jpg", "lat": 40.67229, "lon": -74.011121}, {"id": "CA_6045510", "address": "700 Ikea Court, West Sacramento, CA, 95605", "city": "West Sacramento", "state": "CA", "type": "Retail/Consumer Services", "vertical": "Commercial", "sqft": 265000.0, "opex": 45323.57718, "valuation": 725177.23488, "carbon": 22.42928117, "eui": 18.62761052, "image": "CA_6045510_streetview.jpg", "lat": 38.5864966, "lon": -121.5535913}, {"id": "SF_37042402024", "address": "945 Market St, San Francisco, CA, 94103", "city": "San Francisco", "state": "CA", "type": "Strip/Enclosed Mall", "vertical": "Commercial", "sqft": 366467.0, "opex": 40165.74324, "valuation": 535543.2432, "carbon": 29.66037051, "eui": 20.95946304, "image": "SF_37042402024_Serpapi.jpg", "lat": 37.78283418, "lon": -122.4088379}, {"id": "CA_6045356", "address": "1475 South Coast Drive, Costa Mesa, CA, 92626", "city": "Costa Mesa", "state": "CA", "type": "Grocery/Supercenter", "vertical": "Commercial", "sqft": 308000.0, "opex": 31260.51606, "valuation": 543661.1488695652, "carbon": 79.74897658, "eui": 56.86228867, "image": "CA_6045356_Flickr.jpg", "lat": 33.6910441, "lon": -117.9162956}, {"id": "CA_6045491", "address": "2149 Fenton Parkway, San Diego, CA, 92108", "city": "San Diego", "state": "CA", "type": "Retail/Consumer Services", "vertical": "Commercial", "sqft": 198000.0, "opex": 29255.92447, "valuation": 468094.79152, "carbon": 6.254658849, "eui": 10.60586814, "image": "CA_6045491_streetview.jpg", "lat": 32.7801705, "lon": -117.1262915}, {"id": "PDX_1N2E15-102-B1", "address": "10280 NE Cascades Pkwy, Portland, OR, 97220", "city": "Portland", "state": "OR", "type": "Grocery/Supercenter", "vertical": "Commercial", "sqft": 280048.0782, "opex": 26154.63454, "valuation": 454863.2093913043, "carbon": 33.46844994, "eui": 44.6, "image": "", "lat": 45.5712639, "lon": -122.5535039}, {"id": "PHL_166300", "address": "2206 South Columbus Blvd, Philadelphia, PA, 19148", "city": "Philadelphia", "state": "PA", "type": "Grocery/Supercenter", "vertical": "Commercial", "sqft": 315375.0, "opex": 24656.21512, "valuation": 428803.7412173913, "carbon": 36.72966738, "eui": 36.42354312, "image": "", "lat": 39.91722173, "lon": -75.14148349}]