[{"id": "CA_34394194", "address": "1 Mission Hills Ct., San Marcos, CA, 92069", "city": "San Marcos", "state": "CA", "type": "PreK-12", "vertical": "Education", "sqft": 247214.0, "opex": 74731.00005, "valuation": 0.0, "carbon": 84.52490314, "eui": 27.82648879, "image": "CA_34394194_Homes.jpg", "lat": 33.145325, "lon": -117.1446402}, {"id": "CA_34394202", "address": "650 W. Mission Rd., San Marcos, CA, 92069", "city": "San Marcos", "state": "CA", "type": "PreK-12", "vertical": "Education", "sqft": 106755.0, "opex": 32909.7395, "valuation": 0.0, "carbon": 25.74391727, "eui": 23.08276509, "image": "CA_34394202_Yelp.jpg", "lat": 33.1470218, "lon": -117.1741749}, {"id": "CA_34394189", "address": "111 San Elijo Rd., San Marcos, CA, 92078", "city": "San Marcos", "state": "CA", "type": "PreK-12", "vertical": "Education", "sqft": 131671.0, "opex": 30319.86849, "valuation": 0.0, "carbon": 8.93111353, "eui": 19.10003645, "image": "CA_34394189_Serpapi.jpg", "lat": 33.1063804, "lon": -117.16595}, {"id": "CA_34394197", "address": "910 Borden Rd., San Marcos, CA, 92069", "city": "San Marcos", "state": "CA", "type": "PreK-12", "vertical": "Education", "sqft": 91447.0, "opex": 17653.29669, "valuation": 0.0, "carbon": 14.07549373, "eui": 19.28776593, "image": "CA_34394197_Schola.jpg", "lat": 33.1552556, "lon": -117.1408317}, {"id": "CA_34394200", "address": "1 Tiger Way, San Marcos, CA, 92069", "city": "San Marcos", "state": "CA", "type": "PreK-12", "vertical": "Education", "sqft": 80058.0, "opex": 8270.296583, "valuation": 0.0, "carbon": 6.680484024, "eui": 15.44435534, "image": "CA_34394200_yelp.jpg", "lat": 33.1412485, "lon": -117.1682934}, {"id": "CA_34394191", "address": "1825 Knob Hill Rd., San Marcos, CA, 92069", "city": "San Marcos", "state": "CA", "type": "PreK-12", "vertical": "Education", "sqft": 64099.0, "opex": 6347.930109, "valuation": 0.0, "carbon": 7.396297331, "eui": 14.87631788, "image": "CA_34394191_streetview.jpg", "lat": 33.1392667, "lon": -117.1208449}]