[{"id": "CA_6862415", "address": "15900 Valley View Court, Los Angeles, CA, 91342", "city": "Los Angeles", "state": "CA", "type": "Office", "vertical": "Commercial", "sqft": 226427.0, "opex": 483632.7759, "valuation": 6448437.012, "carbon": 113.8636899, "eui": 128.1134463, "image": "CA_6862415_GooglePlaces.jpg", "lat": 34.305792, "lon": -118.4781846}, {"id": "CA_36697815", "address": "1360 South Loop Road, Alameda, CA, 94502", "city": "Alameda", "state": "CA", "type": "Office", "vertical": "Commercial", "sqft": 118125.0, "opex": 274210.8448, "valuation": 3656144.597333334, "carbon": 84.56169627, "eui": 64.9966503, "image": "CA_36697815_Serpapi.jpg", "lat": 37.7221966, "lon": -122.2351656}, {"id": "CA_34139218", "address": "645 Almanor Avenue, Sunnyvale, CA, 94085", "city": "Sunnyvale", "state": "CA", "type": "Office", "vertical": "Commercial", "sqft": 174675.0, "opex": 188908.0322, "valuation": 2518773.7626666664, "carbon": 198.7665861, "eui": 60.59777724, "image": "CA_34139218_streetview.jpg", "lat": 37.3979826, "lon": -122.0309145}, {"id": "KC_141108110", "address": "8140 Ward Pkwy, Kansas City, MO, 64114", "city": "Kansas City", "state": "MO", "type": "Office", "vertical": "Commercial", "sqft": 247000.0, "opex": 108755.1682, "valuation": 1279472.5670588235, "carbon": 71.96339578, "eui": 63.5, "image": "KC_141108110_streetview.jpg", "lat": 38.9804424, "lon": -94.6073528}, {"id": "SF_01340012024", "address": "1045 Sansome St, San Francisco, CA, 94133", "city": "San Francisco", "state": "CA", "type": "Office", "vertical": "Commercial", "sqft": 84149.0, "opex": 30127.37377, "valuation": 401698.31693333335, "carbon": 26.70699856, "eui": 35.6087735, "image": "SF_01340012024_streetview.jpg", "lat": 37.79979773, "lon": -122.402865}]