[{"id": "SEA_225049078", "address": "7561 63Rd Ave NE, Seattle, WA, 98115", "city": "Seattle", "state": "WA", "type": "Mixed Use", "vertical": "Commercial", "sqft": 384772.0, "opex": 808330.0541, "valuation": 11547572.20142857, "carbon": 43.29688914, "eui": 45.75364891, "image": "SEA_225049078_streetview.jpg", "lat": 47.68454, "lon": -122.26235}, {"id": "SEA_1625049001", "address": "1959 NE Pacific St, Seattle, WA, 98195", "city": "Seattle", "state": "WA", "type": "Hospital/Clinic", "vertical": "Healthcare", "sqft": 1615291.0, "opex": 347699.8539, "valuation": 0.0, "carbon": 1010.003933, "eui": 162.3540328, "image": "SEA_1625049001_Uwmedicine.jpg", "lat": 47.64917, "lon": -122.30676}, {"id": "SEA_1988201485", "address": "850 Republican, Seattle, WA, 98109", "city": "Seattle", "state": "WA", "type": "Mixed Use", "vertical": "Commercial", "sqft": 282813.0, "opex": 142825.0474, "valuation": 2040357.82, "carbon": 153.5398683, "eui": 162.72392, "image": "SEA_1988201485_places.jpg", "lat": 47.62405, "lon": -122.34036}, {"id": "SEA_3026049130", "address": "1550 N 115Th St, Seattle, WA, 98133", "city": "Seattle", "state": "WA", "type": "Hospital/Clinic", "vertical": "Healthcare", "sqft": 401194.0, "opex": 115505.7914, "valuation": 0.0, "carbon": 192.6771787, "eui": 252.0338589, "image": "SEA_3026049130_GooglePlaces.jpg", "lat": 47.71425, "lon": -122.33689}, {"id": "SEA_1988201435", "address": "750 Republican St, Seattle, WA, 98109", "city": "Seattle", "state": "WA", "type": "Medical Office/Lab", "vertical": "Healthcare", "sqft": 225581.0, "opex": 83595.94464, "valuation": 0.0, "carbon": 114.5805039, "eui": 299.8358904, "image": "", "lat": 47.62339, "lon": -122.34191}, {"id": "SEA_1145000310", "address": "4245 Roosevelt Way NE, Seattle, WA, 98105", "city": "Seattle", "state": "WA", "type": "Hospital/Clinic", "vertical": "Healthcare", "sqft": 95995.0, "opex": 69919.55395, "valuation": 0.0, "carbon": 79.2513461, "eui": 134.9232356, "image": "SEA_1145000310_places.jpg", "lat": 47.65884, "lon": -122.3183}]