[{"id": "DC_5472858", "address": "1155 14th St NW, Washington, DC, 20005", "city": "Washington", "state": "DC", "type": "Hotel", "vertical": "Commercial", "sqft": 145297.0, "opex": 1511358.195, "valuation": 20151442.6, "carbon": 23.82453319, "eui": 60.42377763, "image": "DC_5472858_streetview.jpg", "lat": 38.90509028, "lon": -77.03156817}, {"id": "DC_5472859", "address": "700 F St NW, Washington, DC 20004", "city": "Washington", "state": "DC", "type": "Hotel", "vertical": "Commercial", "sqft": 175900.0, "opex": 840288.1656, "valuation": 11203842.208, "carbon": 42.01007126, "eui": 81.05995952, "image": "DC_5472859_buildingurl.jpg", "lat": 38.896989, "lon": -77.022463}, {"id": "BOS_104091", "address": "10 Huntington Ave, Boston, MA, 02116", "city": "Boston", "state": "MA", "type": "Hotel", "vertical": "Commercial", "sqft": 896062.0, "opex": 635950.8288, "valuation": 8479344.384000001, "carbon": 585.8063137, "eui": 86.70777323, "image": "BOS_104091_streetview.jpg", "lat": 42.3485013, "lon": -71.0771688}, {"id": "DC_5487151", "address": "1155 14th St NW, Washington, DC 20005", "city": "Washington", "state": "DC", "type": "Hotel", "vertical": "Commercial", "sqft": 145298.0, "opex": 509722.4734, "valuation": 6796299.645333334, "carbon": 39.36759217, "eui": 79.39346481, "image": "DC_5487151_buildingurl.jpg", "lat": 38.90509028, "lon": -77.03156817}, {"id": "BOS_106837", "address": "215 Charles Street, Boston, MA, 02114", "city": "Boston", "state": "MA", "type": "Hotel", "vertical": "Commercial", "sqft": 239000.0, "opex": 335500.9755, "valuation": 4473346.34, "carbon": 201.8445681, "eui": 161.4522866, "image": "BOS_106837_streetview.jpg", "lat": 42.3620354, "lon": -71.0703608}, {"id": "NYC_1010277501", "address": "870 Seventh Ave, New York, NY, 10019", "city": "New York", "state": "NY", "type": "Hotel", "vertical": "Commercial", "sqft": 1050872.0, "opex": 266495.1158, "valuation": 3807073.082857143, "carbon": 179.3941899, "eui": 50.26097974, "image": "NYC_1010277501_Serpapi.jpg", "lat": 40.764521, "lon": -73.980773}, {"id": "DC_5480573", "address": "1733 N St NW, Washington, DC, 20036", "city": "Washington", "state": "DC", "type": "Hotel", "vertical": "Commercial", "sqft": 59725.0, "opex": 242666.8163, "valuation": 3235557.550666667, "carbon": 16.329085, "eui": 93.58600943, "image": "DC_5480573_streetview.jpg", "lat": 38.90744639, "lon": -77.03970459}, {"id": "BOS_104671", "address": "200 Stuart St, Boston, MA, 02116", "city": "Boston", "state": "MA", "type": "Hotel", "vertical": "Commercial", "sqft": 312000.0, "opex": 240685.467, "valuation": 3209139.56, "carbon": 180.1717279, "eui": 87.63150449, "image": "BOS_104671_TripAdvisor.jpg", "lat": 42.350423, "lon": -71.0673059}, {"id": "SD_10", "address": "601 Pacific Hwy San Diego, San Diego, CA 92101", "city": "San Diego", "state": "CA", "type": "Hotel", "vertical": "Commercial", "sqft": 279471.0, "opex": 210204.0501, "valuation": 2802720.668, "carbon": 57.34476532, "eui": 70.3, "image": "SD_10_Reitnotes.jpg", "lat": 32.71201985, "lon": -117.1704706}, {"id": "SD_9", "address": "1775 E Mission Bay Dr, San Diego, CA 92109", "city": "San Diego", "state": "CA", "type": "Hotel", "vertical": "Commercial", "sqft": 262197.0, "opex": 194295.0304, "valuation": 2590600.405333333, "carbon": 53.72666637, "eui": 39.19102659, "image": "SD_9_streetview.jpg", "lat": 32.77939702, "lon": -117.2112145}, {"id": "SD_331", "address": "910 Broadway Circle, San Diego, CA 92109", "city": "San Diego", "state": "CA", "type": "Hotel", "vertical": "Commercial", "sqft": 430111.0, "opex": 161595.1162, "valuation": 2154601.5493333335, "carbon": 34.03151311, "eui": 52.4, "image": "SD_331_yelp.jpg", "lat": 32.71445892, "lon": -117.1633175}, {"id": "SD_226", "address": "435 6Th Ave San Diego, San Diego, CA 92101", "city": "San Diego", "state": "CA", "type": "Hotel", "vertical": "Commercial", "sqft": 238563.0, "opex": 156948.2676, "valuation": 2092643.568, "carbon": 39.8121828, "eui": 67.0, "image": "SD_226_streetview.jpg", "lat": 32.70978866, "lon": -117.1589017}, {"id": "CA_27529321", "address": "9700 N Torrey Pines Road, La Jolla, CA, 92037", "city": "La Jolla", "state": "CA", "type": "Hotel", "vertical": "Commercial", "sqft": 247000.0, "opex": 152488.5562, "valuation": 1906106.9525, "carbon": 95.20409066, "eui": 88.33038838, "image": "CA_27529321_GooglePlaces.jpg", "lat": 32.8841773, "lon": -117.2451521}, {"id": "DC_5486956", "address": "15 E St NW, Washington, DC 20001", "city": "Washington", "state": "DC", "type": "Hotel", "vertical": "Commercial", "sqft": 88704.0, "opex": 148518.4011, "valuation": 1980245.348, "carbon": 38.57748742, "eui": 105.4002304, "image": "DC_5486956_Washingtondc.jpg", "lat": 38.89639593, "lon": -77.00990752}, {"id": "SD_14", "address": "401 K St, San Diego, CA 92101", "city": "San Diego", "state": "CA", "type": "Hotel", "vertical": "Commercial", "sqft": 275811.0, "opex": 138949.6554, "valuation": 1852662.072, "carbon": 32.73133597, "eui": 32.00097132, "image": "SD_14_Reitnotes.jpg", "lat": 32.70792358, "lon": -117.1606068}, {"id": "CA_27899631", "address": "1 Chaminade Lane, Santa Cruz, CA, 95065", "city": "Santa Cruz", "state": "CA", "type": "Hotel", "vertical": "Commercial", "sqft": 135803.0, "opex": 122038.9597, "valuation": 1525486.99625, "carbon": 78.49468695, "eui": 111.950842, "image": "CA_27899631_Serpapi.jpg", "lat": 36.999399, "lon": -121.9835234}, {"id": "CA_27964147", "address": "1540 Camino Del Mar, Del Mar, CA, 92014", "city": "Del Mar", "state": "CA", "type": "Hotel", "vertical": "Commercial", "sqft": 84312.0, "opex": 110172.1056, "valuation": 1377151.3199999998, "carbon": 59.47789159, "eui": 143.7523309, "image": "CA_27964147_Serpapi.jpg", "lat": 32.9605783, "lon": -117.2659123}, {"id": "CA_6399334", "address": "8490 Sunset Boulevard, West Hollywood, CA, 90069", "city": "West Hollywood", "state": "CA", "type": "Hotel", "vertical": "Commercial", "sqft": 302716.0, "opex": 101769.9447, "valuation": 1272124.30875, "carbon": 44.33144016, "eui": 63.35403282, "image": "CA_6399334_streetview.jpg", "lat": 34.0941633, "lon": -118.3756762}, {"id": "CA_3662245", "address": "8440 Sunset Boulevard, West Hollywood, CA, 90069", "city": "West Hollywood", "state": "CA", "type": "Hotel", "vertical": "Commercial", "sqft": 188875.0, "opex": 94683.29962, "valuation": 1183541.2452500002, "carbon": 68.43275929, "eui": 86.67029496, "image": "CA_3662245_Serpapi.jpg", "lat": 34.0944796, "lon": -118.3743462}, {"id": "CA_3480182", "address": "930 Hilgard Avenue, Los Angeles, CA, 90024", "city": "Los Angeles", "state": "CA", "type": "Hotel", "vertical": "Commercial", "sqft": 255980.0, "opex": 91193.21713, "valuation": 1139915.214125, "carbon": 21.44115056, "eui": 43.74907903, "image": "CA_3480182_Reitnotes.jpg", "lat": 34.0633123, "lon": -118.440862}, {"id": "DC_5496546", "address": "1310 New Hampshire Ave NW, Washington, DC, 20036", "city": "Washington", "state": "DC", "type": "Hotel", "vertical": "Commercial", "sqft": 54200.0, "opex": 87633.41739, "valuation": 1168445.5652, "carbon": 34.37725349, "eui": 147.3625336, "image": "DC_5496546_Flickr.jpg", "lat": 38.90764051, "lon": -77.04575613}, {"id": "DC_5488702", "address": "415 New Jersey Ave NW, Washington, DC 20001", "city": "Washington", "state": "DC", "type": "Hotel", "vertical": "Commercial", "sqft": 259770.0, "opex": 76533.69407, "valuation": 1020449.2542666668, "carbon": 53.41047192, "eui": 78.16765985, "image": "DC_5488702_streetview.jpg", "lat": 38.89538998, "lon": -77.01068375}, {"id": "CA_3662261", "address": "530 Pico Boulevard, Santa Monica, CA, 90405", "city": "Santa Monica", "state": "CA", "type": "Hotel", "vertical": "Commercial", "sqft": 180326.0, "opex": 72822.13092, "valuation": 910276.6365, "carbon": 53.01528496, "eui": 77.24245555, "image": "CA_3662261_Serpapi.jpg", "lat": 34.0107122, "lon": -118.4853108}, {"id": "LA_481642839105", "address": "939 S Figueroa St, Los Angeles, CA 90015", "city": "Los Angeles", "state": "CA", "type": "Hotel", "vertical": "Commercial", "sqft": 114053.0, "opex": 58062.34638, "valuation": 774164.6184, "carbon": 14.84455031, "eui": 49.11253803, "image": "LA_481642839105_Hotelfigueroa.jpg", "lat": 34.045529, "lon": -118.2640141}, {"id": "SF_00140012024", "address": "250 Beach St, San Francisco, CA, 94133", "city": "San Francisco", "state": "CA", "type": "Hotel", "vertical": "Commercial", "sqft": 283951.0, "opex": 53387.08875, "valuation": 711827.8500000001, "carbon": 15.22687607, "eui": 34.99136685, "image": "SF_00140012024_streetview.jpg", "lat": 37.80805367, "lon": -122.4132503}, {"id": "LA_429217844548", "address": "10740 Wilshire Blvd, Los Angeles, CA, 90024", "city": "Los Angeles", "state": "CA", "type": "Hotel", "vertical": "Commercial", "sqft": 200000.0, "opex": 52717.36409, "valuation": 702898.1878666667, "carbon": 11.15556047, "eui": 28.4466305, "image": "LA_429217844548_streetview.jpg", "lat": 34.0601523, "lon": -118.4373319}, {"id": "CA_27516818", "address": "1819 Ocean Avenue, Santa Monica, CA, 90401", "city": "Santa Monica", "state": "CA", "type": "Hotel", "vertical": "Commercial", "sqft": 110680.0, "opex": 50766.34714, "valuation": 634579.33925, "carbon": 49.94474333, "eui": 100.5964818, "image": "CA_27516818_Serpapi.jpg", "lat": 34.0084199, "lon": -118.4903879}, {"id": "SF_37140192024", "address": "8 Mission St, San Francisco, CA, 94105", "city": "San Francisco", "state": "CA", "type": "Hotel", "vertical": "Commercial", "sqft": 145160.0, "opex": 47330.69856, "valuation": 631075.9808, "carbon": 41.3337436, "eui": 87.01326202, "image": "SF_37140192024_Reitnotes.jpg", "lat": 37.79376581, "lon": -122.3933197}, {"id": "DC_5486908", "address": "1430 Rhode Island Ave NW, Washington, DC, 20005", "city": "Washington", "state": "DC", "type": "Hotel", "vertical": "Commercial", "sqft": 136576.0, "opex": 37457.71766, "valuation": 499436.2354666667, "carbon": 25.68302386, "eui": 74.29353096, "image": "DC_5486908_Serpapi.jpg", "lat": 38.90806871, "lon": -77.03295326}, {"id": "SF_37050392024", "address": "55 5Th St, San Francisco, CA, 94103", "city": "San Francisco", "state": "CA", "type": "Hotel", "vertical": "Commercial", "sqft": 105905.0, "opex": 35768.00967, "valuation": 476906.7956, "carbon": 32.78734159, "eui": 93.27779551, "image": "SF_37050392024_streetview.jpg", "lat": 37.78350981, "lon": -122.4068515}, {"id": "SF_3705Z0012024", "address": "12 4Th St, San Francisco, CA, 94103", "city": "San Francisco", "state": "CA", "type": "Hotel", "vertical": "Commercial", "sqft": 129719.0, "opex": 35766.38988, "valuation": 476885.19840000005, "carbon": 29.6658089, "eui": 78.23522967, "image": "SF_3705Z0012024_Agoda.jpg", "lat": 37.78499029, "lon": -122.4056766}, {"id": "SF_00300012022", "address": "425 North Point St, San Francisco, CA, 94133", "city": "San Francisco", "state": "CA", "type": "Hotel", "vertical": "Commercial", "sqft": 125085.0, "opex": 29150.99511, "valuation": 388679.9348, "carbon": 6.832537738, "eui": 48.75476987, "image": "SF_00300012022_Trip.jpg", "lat": 37.80616102, "lon": -122.4140671}, {"id": "CA_6681766", "address": "900 Hammond Street, West Hollywood, CA, 90069", "city": "West Hollywood", "state": "CA", "type": "Hotel", "vertical": "Commercial", "sqft": 98000.0, "opex": 28035.42927, "valuation": 350442.865875, "carbon": 19.03318531, "eui": 67.19855229, "image": "CA_6681766_Serpapi.jpg", "lat": 34.0879353, "lon": -118.3873729}, {"id": "SF_00100022024", "address": "495 Jefferson St, San Francisco, CA, 94109", "city": "San Francisco", "state": "CA", "type": "Hotel", "vertical": "Commercial", "sqft": 180000.0, "opex": 23465.12331, "valuation": 312868.3108, "carbon": 11.27875884, "eui": 50.6103849, "image": "SF_00100022024_Reitnotes.jpg", "lat": 37.8071748, "lon": -122.4201743}, {"id": "CA_6681760", "address": "1000 Westmount Drive, West Hollywood, CA, 90069", "city": "West Hollywood", "state": "CA", "type": "Hotel", "vertical": "Commercial", "sqft": 81533.0, "opex": 21508.42386, "valuation": 268855.29825, "carbon": 11.98362949, "eui": 66.94105977, "image": "CA_6681760_Serpapi.jpg", "lat": 34.0898352, "lon": -118.3790116}, {"id": "CA_6699412", "address": "733 North West Knoll Drive, West Hollywood, CA, 90069", "city": "West Hollywood", "state": "CA", "type": "Hotel", "vertical": "Commercial", "sqft": 128525.0, "opex": 18140.91603, "valuation": 226761.450375, "carbon": 10.69942208, "eui": 60.01328049, "image": "CA_6699412_streetview.jpg", "lat": 34.0842397, "lon": -118.3778782}, {"id": "PDX_1S1E03BC-2800-B1", "address": "515 SW Clay St, Portland, OR, 97201", "city": "Portland", "state": "OR", "type": "Hotel", "vertical": "Commercial", "sqft": 119500.603, "opex": 17562.55018, "valuation": 195139.44644444445, "carbon": 15.05014323, "eui": 70.6, "image": "", "lat": 45.5136876, "lon": -122.6808486}, {"id": "SF_03060222024", "address": "545 Post St, San Francisco, CA, 94102", "city": "San Francisco", "state": "CA", "type": "Hotel", "vertical": "Commercial", "sqft": 57159.0, "opex": 17324.56002, "valuation": 230994.13360000003, "carbon": 14.35139325, "eui": 88.11736402, "image": "SF_03060222024_streetview.jpg", "lat": 37.7877125, "lon": -122.4107083}, {"id": "CA_6773859", "address": "165 Steuart Street, San Francisco, CA, 94105", "city": "San Francisco", "state": "CA", "type": "Hospital/Clinic", "vertical": "Healthcare", "sqft": 112615.0, "opex": 14105.47817, "valuation": 0.0, "carbon": 33.92958145, "eui": 93.31507703, "image": "CA_6773859_streetview.jpg", "lat": 37.7926104, "lon": -122.3921621}]