[{"id": "CA_2690707", "address": "1020 Vaquero Circle, Vacaville, CA, 95688", "city": "Vacaville", "state": "CA", "type": "Office", "vertical": "Commercial", "sqft": 87422.0, "opex": 461409.6105, "valuation": 6152128.140000001, "carbon": 257.5539287, "eui": 280.2476047, "image": "CA_2690707_streetview.jpg", "lat": 38.3824222, "lon": -121.9507773}, {"id": "CA_2690697", "address": "6301 Day Street, Riverside, CA, 92507", "city": "Riverside", "state": "CA", "type": "Office", "vertical": "Commercial", "sqft": 123549.0, "opex": 174927.1548, "valuation": 2332362.064, "carbon": 112.8613975, "eui": 64.59315332, "image": "CA_2690697_streetview.jpg", "lat": 33.9372618, "lon": -117.2793398}, {"id": "CA_2690699", "address": "10 River Park Place East, Fresno, CA, 93720", "city": "Fresno", "state": "CA", "type": "Office", "vertical": "Commercial", "sqft": 143744.0, "opex": 117760.2804, "valuation": 1570137.0720000002, "carbon": 90.69657106, "eui": 48.91477975, "image": "CA_2690699_energystar.jpg", "lat": 36.8606046, "lon": -119.785397}, {"id": "CA_2690705", "address": "5890 Owens Drive, Pleasanton, CA, 94588", "city": "Pleasanton", "state": "CA", "type": "Office", "vertical": "Commercial", "sqft": 119823.0, "opex": 85681.45192, "valuation": 1142419.3589333335, "carbon": 76.36535177, "eui": 44.70138621, "image": "", "lat": 37.6997436, "lon": -121.9010808}, {"id": "CA_23930577", "address": "5860 Owens Drive, Pleasanton, CA, 94588", "city": "Pleasanton", "state": "CA", "type": "Medical Office/Lab", "vertical": "Healthcare", "sqft": 92738.0, "opex": 77249.02438, "valuation": 1029986.9917333334, "carbon": 71.52537523, "eui": 72.77257449, "image": "CA_23930577_Loopnet.jpg", "lat": 37.6993, "lon": -121.8992168}, {"id": "CA_2690708", "address": "1030 Vaquero Circle, Vacaville, CA, 95688", "city": "Vacaville", "state": "CA", "type": "Office", "vertical": "Commercial", "sqft": 85692.0, "opex": 73313.76194, "valuation": 977516.8258666666, "carbon": 46.0219248, "eui": 44.36177298, "image": "CA_2690708_streetview.jpg", "lat": 38.3835863, "lon": -121.9506092}, {"id": "CA_2690706", "address": "1010 Vaquero Circle, Vacaville, CA, 95688", "city": "Vacaville", "state": "CA", "type": "Office", "vertical": "Commercial", "sqft": 86386.0, "opex": 70514.00489, "valuation": 940186.7318666668, "carbon": 57.8270292, "eui": 48.92831607, "image": "CA_2690706_streetview.jpg", "lat": 38.3823585, "lon": -121.9494553}, {"id": "CA_1324913", "address": "2860 Gateway Oaks Drive, Sacramento, CA, 95833", "city": "Sacramento", "state": "CA", "type": "Office", "vertical": "Commercial", "sqft": 121212.0, "opex": 60643.96185, "valuation": 808586.158, "carbon": 43.99057765, "eui": 29.69027571, "image": "CA_1324913_streetview.jpg", "lat": 38.6220636, "lon": -121.5191018}, {"id": "CA_2690704", "address": "5880 Owens Drive, Pleasanton, CA, 94588", "city": "Pleasanton", "state": "CA", "type": "Office", "vertical": "Commercial", "sqft": 122470.0, "opex": 54162.26285, "valuation": 722163.5046666667, "carbon": 52.39159874, "eui": 37.48127705, "image": "CA_2690704_streetview.jpg", "lat": 37.6990045, "lon": -121.9014398}, {"id": "CA_2690702", "address": "2175 Shasta View Drive, Redding, CA, 96003", "city": "Redding", "state": "CA", "type": "Office", "vertical": "Commercial", "sqft": 72339.0, "opex": 51167.99504, "valuation": 682239.9338666667, "carbon": 42.41854348, "eui": 42.66322039, "image": "CA_2690702_Serpapi.jpg", "lat": 40.5753953, "lon": -122.3230061}, {"id": "CA_2690695", "address": "2275 Gateway Oaks Drive, Sacramento, CA, 95833", "city": "Sacramento", "state": "CA", "type": "Office", "vertical": "Commercial", "sqft": 98455.0, "opex": 28624.79782, "valuation": 381663.9709333334, "carbon": 22.61735643, "eui": 26.67625653, "image": "CA_2690695_energystar.jpg", "lat": 38.6074449, "lon": -121.5119534}]