[{"id": "CA_5042751", "address": "26001 Redlands Boulevard, Loma Linda, CA, 92354", "city": "Loma Linda", "state": "CA", "type": "Medical Office/Lab", "vertical": "Healthcare", "sqft": 327000.0, "opex": 601473.2148, "valuation": 8019642.864, "carbon": 184.3868057, "eui": 84.59752031, "image": "CA_5042751_Arup.jpg", "lat": 34.0609678, "lon": -117.2361474}, {"id": "CA_57820395", "address": "11234 Anderson St., Loma Linda, CA, 92350", "city": "Loma Linda", "state": "CA", "type": "Hospital/Clinic", "vertical": "Healthcare", "sqft": 998000.0, "opex": 464906.7007, "valuation": 0.0, "carbon": 943.4144762, "eui": 311.6209872, "image": "CA_57820395_streetview.jpg", "lat": 34.049202, "lon": -117.2627323}, {"id": "CA_60350001", "address": "24760 Stewart St., Loma Linda, CA, 92350", "city": "Loma Linda", "state": "CA", "type": "Higher Ed", "vertical": "Education", "sqft": 144557.0, "opex": 342987.5342, "valuation": 0.0, "carbon": 996.6156048, "eui": 304.114963, "image": "CA_60350001_Lomalindauniversity.jpg", "lat": 34.0549644, "lon": -117.2638071}, {"id": "CA_60350993", "address": "11021 Campus St., Loma Linda, CA, 92350", "city": "Loma Linda", "state": "CA", "type": "Higher Ed", "vertical": "Education", "sqft": 61162.0, "opex": 269056.1495, "valuation": 0.0, "carbon": 696.2291942, "eui": 516.5364965, "image": "CA_60350993_streetview.jpg", "lat": 34.0532963, "lon": -117.2652983}, {"id": "CA_60351392", "address": "25040 Stewart St., Loma Linda, CA, 92350", "city": "Loma Linda", "state": "CA", "type": "Gym", "vertical": "Commercial", "sqft": 93679.0, "opex": 239318.2926, "valuation": 3418832.751428571, "carbon": 537.7277092, "eui": 301.1555856, "image": "CA_60351392_streetview.jpg", "lat": 34.0537443, "lon": -117.2581394}, {"id": "CA_60241093", "address": "24951 North Circle Dr., Loma Linda, CA, 92350", "city": "Loma Linda", "state": "CA", "type": "Medical Office/Lab", "vertical": "Healthcare", "sqft": 107709.0, "opex": 104385.4602, "valuation": 1391806.1360000002, "carbon": 243.9303354, "eui": 135.3491769, "image": "CA_60241093_Wikimediacommons.jpg", "lat": 34.0501932, "lon": -117.264176}, {"id": "CA_60352992", "address": "11175 Campus St., Loma Linda, CA, 92350", "city": "Loma Linda", "state": "CA", "type": "Hospital/Clinic", "vertical": "Healthcare", "sqft": 149810.0, "opex": 66462.20873, "valuation": 0.0, "carbon": 139.6067865, "eui": 301.8967432, "image": "CA_60352992_GooglePlaces.jpg", "lat": 34.050569, "lon": -117.2637956}, {"id": "CA_60345992", "address": "11072 Anderson St., Loma Linda, CA, 92350", "city": "Loma Linda", "state": "CA", "type": "Library/Museum", "vertical": "Education", "sqft": 100706.0, "opex": 50059.45582, "valuation": 0.0, "carbon": 112.5989359, "eui": 78.63016404, "image": "CA_60345992_streetview.jpg", "lat": 34.0522574, "lon": -117.2634412}, {"id": "CA_60239992", "address": "11092 Anderson St., Loma Linda, CA, 92350", "city": "Loma Linda", "state": "CA", "type": "Hospital/Clinic", "vertical": "Healthcare", "sqft": 115558.0, "opex": 45144.19863, "valuation": 0.0, "carbon": 90.60741919, "eui": 244.1931091, "image": "CA_60239992_Wikipediathefreeency.jpg", "lat": 34.0514122, "lon": -117.2634781}]