[{"id": "DC_5496679", "address": "1529 16th St NW, Washington, DC, 20036", "city": "Washington", "state": "DC", "type": "Entertainment Venue", "vertical": "Commercial", "sqft": 64844.0, "opex": 290743.7949, "valuation": 3876583.932, "carbon": 87.70587998, "eui": 88.76387968, "image": "DC_5496679_streetview.jpg", "lat": 38.91087895, "lon": -77.03595097}, {"id": "NYC_1011670033", "address": "334 Amsterdam Ave., New York, NY, 10023", "city": "New York", "state": "NY", "type": "Entertainment Venue", "vertical": "Commercial", "sqft": 129642.0, "opex": 265476.8326, "valuation": 3539691.1013333336, "carbon": 384.6357307, "eui": 129.8681778, "image": "NYC_1011670033_cyclomedia.jpg", "lat": 40.781014, "lon": -73.979891}, {"id": "SF_10210382024", "address": "3200 California St, San Francisco, CA, 94118", "city": "San Francisco", "state": "CA", "type": "Mixed Use", "vertical": "Commercial", "sqft": 199978.0, "opex": 83306.0438, "valuation": 1190086.34, "carbon": 212.701598, "eui": 90.70344348, "image": "SF_10210382024_streetview.jpg", "lat": 37.78751531, "lon": -122.4474727}, {"id": "DEN_4376", "address": "350 S Dahlia St, Denver, CO, 80246", "city": "Denver", "state": "CO", "type": "PreK-12", "vertical": "Education", "sqft": 128586.0, "opex": 59642.9915, "valuation": 0.0, "carbon": 446.7129816, "eui": 134.551707, "image": "DEN_4376_streetview.jpg", "lat": 39.7100153, "lon": -104.9304896}, {"id": "PDX_1S1E17DD-7700-B1", "address": "6651 SW Capitol Hwy, Portland, OR, 97219", "city": "Portland", "state": "OR", "type": "Hospital/Clinic", "vertical": "Healthcare", "sqft": 130011.4463, "opex": 14432.72638, "valuation": 0.0, "carbon": 37.77140931, "eui": 103.5, "image": "", "lat": 45.4769714, "lon": -122.7045785}]