[{"id": "CA_17399600", "address": "6912 Edinger Avenue, Huntington Beach, CA, 92647", "city": "Huntington Beach", "state": "CA", "type": "Strip/Enclosed Mall", "vertical": "Commercial", "sqft": 102233.0, "opex": 91942.59447, "valuation": 1362112.5106666666, "carbon": 27.21129777, "eui": 65.29994934, "image": "CA_17399600_streetview.jpg", "lat": 33.7284879, "lon": -118.0078128}, {"id": "LA_426791899898", "address": "14400 Arminta St, Los Angeles, CA, 91402", "city": "Los Angeles", "state": "CA", "type": "Retail/Consumer Services", "vertical": "Commercial", "sqft": 108400.0, "opex": 57888.57232, "valuation": 1006757.7794782608, "carbon": 13.87760246, "eui": 39.4255941, "image": "LA_426791899898_Google.jpg", "lat": 34.2121697, "lon": -118.4465377}, {"id": "CA_17399613", "address": "12649 Foothill Boulevard, Rancho Cucamonga, CA, 91739", "city": "Rancho Cucamonga", "state": "CA", "type": "Retail/Consumer Services", "vertical": "Commercial", "sqft": 149163.0, "opex": 44702.80103, "valuation": 715244.81648, "carbon": 13.34131021, "eui": 23.92471467, "image": "CA_17399613_streetview.jpg", "lat": 34.1043722, "lon": -117.5292214}, {"id": "CA_17402870", "address": "855 Broadway, Millbrae, CA, 94030", "city": "Millbrae", "state": "CA", "type": "Retail/Consumer Services", "vertical": "Commercial", "sqft": 87425.0, "opex": 44367.51155, "valuation": 709880.1848, "carbon": 10.36840676, "eui": 30.68834605, "image": "CA_17402870_streetview.jpg", "lat": 37.603926, "lon": -122.3963744}, {"id": "CA_17399603", "address": "250 Floresta Boulevard, San Leandro, CA, 94578", "city": "San Leandro", "state": "CA", "type": "Retail/Consumer Services", "vertical": "Commercial", "sqft": 91772.0, "opex": 26154.86441, "valuation": 418477.83056, "carbon": 5.257198678, "eui": 22.36122349, "image": "CA_17399603_streetview.jpg", "lat": 37.7002621, "lon": -122.1417834}, {"id": "CA_17399592", "address": "30251 Antelope Road, Menifee, CA, 92584", "city": "Menifee", "state": "CA", "type": "Retail/Consumer Services", "vertical": "Commercial", "sqft": 106465.0, "opex": 23984.73335, "valuation": 383755.7336, "carbon": 6.413098416, "eui": 22.42109801, "image": "CA_17399592_Loopnet.jpg", "lat": 33.6816021, "lon": -117.1696719}, {"id": "CA_17399586", "address": "407 West Huntington Drive, Monrovia, CA, 91016", "city": "Monrovia", "state": "CA", "type": "Retail/Consumer Services", "vertical": "Commercial", "sqft": 84050.0, "opex": 20001.33258, "valuation": 320021.32128, "carbon": 5.348006683, "eui": 24.83736915, "image": "CA_17399586_Yelp.jpg", "lat": 34.1409157, "lon": -118.0070809}, {"id": "CA_17402873", "address": "4801 Venice Boulevard, Los Angeles, CA, 90019", "city": "Los Angeles", "state": "CA", "type": "Retail/Consumer Services", "vertical": "Commercial", "sqft": 66397.0, "opex": 7354.064508, "valuation": 117665.032128, "carbon": 1.887095581, "eui": 17.94538889, "image": "CA_17402873_streetview.jpg", "lat": 34.0471302, "lon": -118.3409141}, {"id": "CA_17399584", "address": "101 Technology Drive West, Irvine, CA, 92618", "city": "Irvine", "state": "CA", "type": "Retail/Consumer Services", "vertical": "Commercial", "sqft": 82750.0, "opex": 6309.641506, "valuation": 100954.264096, "carbon": 2.066770599, "eui": 9.749349536, "image": "CA_17399584_streetview.jpg", "lat": 33.658084, "lon": -117.7440339}]