[{"id": "CA_6456789", "address": "1045 Bethel Ave., Sanger, CA, 93657", "city": "Sanger", "state": "CA", "type": "PreK-12", "vertical": "Education", "sqft": 279166.0, "opex": 165058.6349, "valuation": 0.0, "carbon": 456.6441055, "eui": 78.9318839, "image": "CA_6456789_Sangerhighschoolsang.jpg", "lat": 36.7013288, "lon": -119.5767369}, {"id": "CA_6456791", "address": "1705 Tenth St., Sanger, CA, 93657", "city": "Sanger", "state": "CA", "type": "PreK-12", "vertical": "Education", "sqft": 182081.0, "opex": 59750.75973, "valuation": 0.0, "carbon": 204.2664939, "eui": 64.79966498, "image": "CA_6456791_Homes.jpg", "lat": 36.7004654, "lon": -119.560588}, {"id": "CA_6456783", "address": "1199 Commerce Avenue, Sanger, CA, 93657", "city": "Sanger", "state": "CA", "type": "PreK-12", "vertical": "Education", "sqft": 52540.0, "opex": 19211.09221, "valuation": 0.0, "carbon": 16.66977529, "eui": 32.5167307, "image": "CA_6456783_Serpapi.jpg", "lat": 36.6809329, "lon": -119.5526374}, {"id": "CA_6456770", "address": "3095 N. Greenwood Ave., Sanger, CA, 93657", "city": "Sanger", "state": "CA", "type": "PreK-12", "vertical": "Education", "sqft": 71896.0, "opex": 13006.54025, "valuation": 0.0, "carbon": 4.566037033, "eui": 19.82721153, "image": "CA_6456770_Homes.jpg", "lat": 36.7803705, "lon": -119.5666582}, {"id": "CA_6456786", "address": "1586 S. Indianola, Sanger, CA, 93657", "city": "Sanger", "state": "CA", "type": "PreK-12", "vertical": "Education", "sqft": 50240.0, "opex": 11041.89066, "valuation": 0.0, "carbon": 3.710500609, "eui": 26.58372014, "image": "CA_6456786_Homes.jpg", "lat": 36.7135241, "lon": -119.5826791}]