[{"id": "CHI_252075", "address": "4248 W. 47th St., Chicago, IL, 60632", "city": "Chicago", "state": "IL", "type": "PreK-12", "vertical": "Education", "sqft": 174999.0, "opex": 69115.43192, "valuation": 0.0, "carbon": 344.1710496, "eui": 71.58012, "image": "CHI_252075_Serpapi.jpg", "lat": 41.8087843, "lon": -87.7307287}, {"id": "CHI_173884", "address": "7416 N Ridge Rd., Chicago, IL, 60645", "city": "Chicago", "state": "IL", "type": "PreK-12", "vertical": "Education", "sqft": 204041.0, "opex": 48433.42577, "valuation": 0.0, "carbon": 494.9082243, "eui": 73.9515392, "image": "CHI_173884_Serpapi.jpg", "lat": 42.016486, "lon": -87.6850013}, {"id": "CHI_252078", "address": "5025 S. St. Louis, Chicago, IL, 60632", "city": "Chicago", "state": "IL", "type": "PreK-12", "vertical": "Education", "sqft": 77088.0, "opex": 46640.31376, "valuation": 0.0, "carbon": 276.5255206, "eui": 112.6373993, "image": "CHI_252078_Aceroschools.jpg", "lat": 41.869536, "lon": -87.695839}, {"id": "CHI_252077", "address": "5050 S. Homan Ave., Chicago, IL, 60632", "city": "Chicago", "state": "IL", "type": "PreK-12", "vertical": "Education", "sqft": 63000.0, "opex": 37841.14281, "valuation": 0.0, "carbon": 208.8266484, "eui": 106.9386859, "image": "CHI_252077_Aceroschools.jpg", "lat": 41.909505, "lon": -87.74696}, {"id": "CHI_252076", "address": "2916 W. 47th St., Chicago, IL, 60632", "city": "Chicago", "state": "IL", "type": "PreK-12", "vertical": "Education", "sqft": 58150.0, "opex": 21968.11751, "valuation": 0.0, "carbon": 87.56377596, "eui": 63.08310972, "image": "", "lat": 41.8085471, "lon": -87.6970484}, {"id": "CHI_252079", "address": "2050 Natchez Ave., Chicago, IL, 60707", "city": "Chicago", "state": "IL", "type": "PreK-12", "vertical": "Education", "sqft": 56240.0, "opex": 18577.95216, "valuation": 0.0, "carbon": 97.63537608, "eui": 69.64976938, "image": "CHI_252079_Cushman.jpg", "lat": 41.887724, "lon": -87.648832}]