[{"id": "DC_5476099", "address": "1455 F St NW, Washington, DC 20004", "city": "Washington", "state": "DC", "type": "Office", "vertical": "Commercial", "sqft": 343755.0, "opex": 985581.3476, "valuation": 14079733.537142856, "carbon": 446.8539453, "eui": 83.64950069, "image": "DC_5476099_energystar.jpg", "lat": 38.89760946, "lon": -77.03291904}, {"id": "DEN_2580", "address": "1001 17Th St., Denver, CO, 80202", "city": "Denver", "state": "CO", "type": "Office", "vertical": "Commercial", "sqft": 755539.0, "opex": 918288.8519, "valuation": 11478610.64875, "carbon": 908.9034553, "eui": 51.11725007, "image": "DEN_2580_streetview.jpg", "lat": 39.7494626, "lon": -104.9932306}, {"id": "DEN_2557", "address": "1999 Broadway, Denver, CO, 80202", "city": "Denver", "state": "CO", "type": "Office", "vertical": "Commercial", "sqft": 749865.0, "opex": 430275.4437, "valuation": 5378443.04625, "carbon": 677.897662, "eui": 47.35978196, "image": "DEN_2557_streetview.jpg", "lat": 39.7477971, "lon": -104.9877172}, {"id": "DEN_2597", "address": "600 17Th Street, Denver, CO, 80202", "city": "Denver", "state": "CO", "type": "Office", "vertical": "Commercial", "sqft": 675937.0, "opex": 386270.9562, "valuation": 4828386.9525, "carbon": 431.4557492, "eui": 41.11521991, "image": "DEN_2597_Hines.jpg", "lat": 39.7451302, "lon": -104.9910321}, {"id": "BOS_103127", "address": "130 Northern Ave, Boston, MA, 02210", "city": "Boston", "state": "MA", "type": "Office", "vertical": "Commercial", "sqft": 394245.0, "opex": 361974.1655, "valuation": 5171059.507142857, "carbon": 278.5091411, "eui": 52.39427691, "image": "BOS_103127_streetview.jpg", "lat": 42.3524086, "lon": -71.0433205}, {"id": "ATL_57", "address": "1420 Peachtree St NE, Atlanta, GA, 30309", "city": "Atlanta", "state": "GA", "type": "Office", "vertical": "Commercial", "sqft": 201847.0, "opex": 49281.40405, "valuation": 616017.5506249999, "carbon": 33.30217602, "eui": 34.2, "image": "ATL_57_EnergyStar.jpg", "lat": 33.7932426, "lon": -84.3874311}]