[{"id": "DC_5478354", "address": "500 12th St SW, Washington, DC 20250", "city": "Washington", "state": "DC", "type": "Office", "vertical": "Commercial", "sqft": 508250.0, "opex": 403698.5715, "valuation": 5767122.45, "carbon": 161.3920442, "eui": 49.23043925, "image": "DC_5478354_energystar.jpg", "lat": 38.88402094, "lon": -77.02750725}, {"id": "DC_5477672", "address": "Government Accountability Office Building, 200 Massachusetts Ave NW, Washington, DC 20001", "city": "Washington", "state": "DC", "type": "Office", "vertical": "Commercial", "sqft": 407032.0, "opex": 316617.7642, "valuation": 4523110.917142856, "carbon": 112.6764762, "eui": 40.73681568, "image": "DC_5477672_GooglePlaces.jpg", "lat": 38.89896651, "lon": -77.01408898}, {"id": "NYC_1005200001", "address": "200 Varick Street, New York, NY, 10014", "city": "New York", "state": "NY", "type": "Office", "vertical": "Commercial", "sqft": 444211.0, "opex": 211774.7788, "valuation": 3025353.9828571426, "carbon": 381.8106052, "eui": 68.31859004, "image": "NYC_1005200001_streetview.jpg", "lat": 40.728347, "lon": -74.005343}, {"id": "CA_14957288", "address": "2740 Gateway Oaks Drive, Sacramento, CA, 95833", "city": "Sacramento", "state": "CA", "type": "Office", "vertical": "Commercial", "sqft": 71270.0, "opex": 86227.41617, "valuation": 1149698.8822666667, "carbon": 83.06464858, "eui": 65.33476129, "image": "CA_14957288_Serpapi.jpg", "lat": 38.618013, "lon": -121.5172843}, {"id": "CA_14957283", "address": "5555 Florin Perkins Road, Sacramento, CA, 95826", "city": "Sacramento", "state": "CA", "type": "Office", "vertical": "Commercial", "sqft": 97775.0, "opex": 43698.85237, "valuation": 582651.3649333334, "carbon": 74.78395029, "eui": 51.8859945, "image": "", "lat": 38.5260258, "lon": -121.3899632}, {"id": "CA_14955404", "address": "3136 Boeing Way, Stockton, CA, 95206", "city": "Stockton", "state": "CA", "type": "Office", "vertical": "Commercial", "sqft": 137932.0, "opex": 43061.83185, "valuation": 574157.758, "carbon": 25.82181981, "eui": 23.4459594, "image": "CA_14955404_streetview.jpg", "lat": 37.9108086, "lon": -121.2267327}, {"id": "CA_14957249", "address": "4040 West Lane, Stockton, CA, 95204", "city": "Stockton", "state": "CA", "type": "Office", "vertical": "Commercial", "sqft": 93350.0, "opex": 29327.11638, "valuation": 391028.2184, "carbon": 30.45153812, "eui": 31.62523235, "image": "CA_14957249_streetview.jpg", "lat": 37.990299, "lon": -121.2856038}, {"id": "PDX_1N1E34CB-5500-B1", "address": "220 NW 8th Ave, Portland, OR, 97209", "city": "Portland", "state": "OR", "type": "Office", "vertical": "Commercial", "sqft": 89808.43743, "opex": 23225.72302, "valuation": 273243.8002352941, "carbon": 52.98866526, "eui": 53.0, "image": "", "lat": 45.5248565, "lon": -122.6780051}, {"id": "CAM_1862", "address": "770 Massachusetts Ave, Cambridge, MA, 02139", "city": "Cambridge", "state": "MA", "type": "Office", "vertical": "Commercial", "sqft": 56000.0, "opex": 3247.736766, "valuation": 0.0, "carbon": 14.47791692, "eui": 32.1554125, "image": "CAM_1862_Serpapi.jpg", "lat": 42.3663, "lon": -71.106}]