[{"id": "CA_27560416", "address": "5115 Dudley Blvd., Mcclellan, CA, 95652", "city": "Mcclellan", "state": "CA", "type": "Office", "vertical": "Commercial", "sqft": 64680.0, "opex": 47843.07572, "valuation": 637907.6762666667, "carbon": 57.11780446, "eui": 61.01269433, "image": "CA_27560416_streetview.jpg", "lat": 38.6601362, "lon": -121.3884255}, {"id": "CA_27560463", "address": "4601 Norwood Ave., Sacramento, CA, 95838", "city": "Sacramento", "state": "CA", "type": "PreK-12", "vertical": "Education", "sqft": 76297.0, "opex": 13625.51409, "valuation": 0.0, "carbon": 27.54323677, "eui": 34.16759956, "image": "CA_27560463_Twinriversunifiedsch.jpg", "lat": 38.6522051, "lon": -121.4586961}, {"id": "CA_27560461", "address": "3201 Northstead Drive, Sacramento, CA, 95833", "city": "Sacramento", "state": "CA", "type": "PreK-12", "vertical": "Education", "sqft": 66370.0, "opex": 11122.29325, "valuation": 0.0, "carbon": 14.53397047, "eui": 23.88822887, "image": "CA_27560461_Homes.jpg", "lat": 38.6255098, "lon": -121.4821037}, {"id": "CA_27560435", "address": "1801 S. Ave., Sacramento, CA, 95838", "city": "Sacramento", "state": "CA", "type": "PreK-12", "vertical": "Education", "sqft": 51270.0, "opex": 8670.375794, "valuation": 0.0, "carbon": 20.44256558, "eui": 33.53718564, "image": "CA_27560435_Twinriversunifiedsch.jpg", "lat": 38.6333413, "lon": -121.4247031}, {"id": "CA_27560446", "address": "1040 Q Street, Rio Linda, CA, 95673", "city": "Rio Linda", "state": "CA", "type": "PreK-12", "vertical": "Education", "sqft": 54958.0, "opex": 7115.692575, "valuation": 0.0, "carbon": 15.29426275, "eui": 26.56323753, "image": "CA_27560446_Twinriversunifiedsch.jpg", "lat": 38.5721067, "lon": -121.4961917}]