[{"id": "DC_5493023", "address": "1000 H St NW, Washington, DC 20001", "city": "Washington", "state": "DC", "type": "Hotel", "vertical": "Commercial", "sqft": 819138.0, "opex": 8518803.187, "valuation": 113584042.49333335, "carbon": 161.8700174, "eui": 68.79524462, "image": "DC_5493023_streetview.jpg", "lat": 38.89934061, "lon": -77.02648774}, {"id": "DC_5475113", "address": "1331 Pennsylvania Ave NW, Washington, DC, 20004", "city": "Washington", "state": "DC", "type": "Hotel", "vertical": "Commercial", "sqft": 695364.0, "opex": 4794741.113, "valuation": 63929881.50666667, "carbon": 192.3252915, "eui": 87.52780206, "image": "DC_5475113_buildingurl.jpg", "lat": 38.8965794, "lon": -77.03124764}, {"id": "NYC_1010177501", "address": "1535 Broadway, New York, NY, 10036", "city": "New York", "state": "NY", "type": "Hotel", "vertical": "Commercial", "sqft": 1943287.0, "opex": 1851773.077, "valuation": 26453901.1, "carbon": 860.0563198, "eui": 113.5512844, "image": "NYC_1010177501_Wikipediathefreeency.jpg", "lat": 40.758267, "lon": -73.985468}, {"id": "DC_5491315", "address": "1331 Pennsylvania Ave NW, Washington, DC 20004", "city": "Washington", "state": "DC", "type": "Hotel", "vertical": "Commercial", "sqft": 695364.0, "opex": 1758619.02, "valuation": 23448253.6, "carbon": 221.6188518, "eui": 87.52780204, "image": "DC_5491315_Serpapi.jpg", "lat": 38.8965794, "lon": -77.03124764}, {"id": "DEN_4895", "address": "4900 South Syracuse, Denver, CO, 80237", "city": "Denver", "state": "CO", "type": "Hotel", "vertical": "Commercial", "sqft": 514079.0, "opex": 1236806.726, "valuation": 14550667.36470588, "carbon": 290.7623786, "eui": 87.14856627, "image": "DEN_4895_streetview.jpg", "lat": 39.6267689, "lon": -104.9012904}, {"id": "DC_5477152", "address": "2350 M St NW, Washington, DC 20037", "city": "Washington", "state": "DC", "type": "Hotel", "vertical": "Commercial", "sqft": 233241.0, "opex": 1139494.796, "valuation": 15193263.94666667, "carbon": 51.59584992, "eui": 74.5, "image": "DC_5477152_buildingurl.jpg", "lat": 38.90497203, "lon": -77.05109467}, {"id": "DC_5495177", "address": "1000 H St NW, Washington, DC, 20001", "city": "Washington", "state": "DC", "type": "Hotel", "vertical": "Commercial", "sqft": 404943.0, "opex": 966569.6868, "valuation": 12887595.824, "carbon": 427.0332563, "eui": 194.1779303, "image": "DC_5495177_Serpapi.jpg", "lat": 38.89934806, "lon": -77.02649002}, {"id": "BOS_102501", "address": "110 Huntington Ave, Boston, MA, 02116", "city": "Boston", "state": "MA", "type": "Hotel", "vertical": "Commercial", "sqft": 870612.0, "opex": 946286.9003, "valuation": 12617158.670666669, "carbon": 619.7838334, "eui": 89.26094793, "image": "BOS_102501_streetview.jpg", "lat": 42.3463738, "lon": -71.0781901}, {"id": "CA_3351419", "address": "333 West Harbor Dr, San Diego, CA, 92101", "city": "San Diego", "state": "CA", "type": "Hotel", "vertical": "Commercial", "sqft": 1412419.0, "opex": 465208.8905, "valuation": 5815111.13125, "carbon": 107.2040131, "eui": 36.50888205, "image": "CA_3351419_streetview.jpg", "lat": 32.7083455, "lon": -117.16531}, {"id": "NYC_1000550016", "address": "85 West Street, New York, NY, 10006", "city": "New York", "state": "NY", "type": "Hotel", "vertical": "Commercial", "sqft": 374505.0, "opex": 378318.8051, "valuation": 5404554.358571428, "carbon": 451.6507517, "eui": 181.2432627, "image": "NYC_1000550016_Reitnotes.jpg", "lat": 40.709676, "lon": -74.014929}, {"id": "SEA_659000475", "address": "1900 5Th Ave, Seattle, WA, 98101", "city": "Seattle", "state": "WA", "type": "Hotel", "vertical": "Commercial", "sqft": 759392.0, "opex": 362329.8199, "valuation": 4529122.74875, "carbon": 388.3602311, "eui": 89.03579706, "image": "SEA_659000475_Reitnotes.jpg", "lat": 47.61367, "lon": -122.33822}, {"id": "CA_4226792", "address": "1333 Old Bayshore Highway, Burlingame, CA, 94010", "city": "Burlingame", "state": "CA", "type": "Hotel", "vertical": "Commercial", "sqft": 626889.0, "opex": 321158.2447, "valuation": 4014478.05875, "carbon": 110.3665153, "eui": 61.9923806, "image": "CA_4226792_streetview.jpg", "lat": 37.5938725, "lon": -122.3651261}, {"id": "CHI_158304", "address": "511 North Columbus Drive, Chicago, IL, 60611", "city": "Chicago", "state": "IL", "type": "Hotel", "vertical": "Commercial", "sqft": 425940.0, "opex": 293471.7263, "valuation": 3452608.5447058817, "carbon": 812.0126415, "eui": 171.7445566, "image": "CHI_158304_streetview.jpg", "lat": 41.89143123, "lon": -87.61968569}, {"id": "CA_3351315", "address": "2000 2Nd Street, Coronado, CA, 92118", "city": "Coronado", "state": "CA", "type": "Hotel", "vertical": "Commercial", "sqft": 262713.0, "opex": 211578.1865, "valuation": 2644727.3312500003, "carbon": 113.8971821, "eui": 93.88137991, "image": "CA_3351315_Serpapi.jpg", "lat": 32.694927, "lon": -117.1659041}, {"id": "CA_1483336", "address": "686 Anton Boulevard, Costa Mesa, CA, 92626", "city": "Costa Mesa", "state": "CA", "type": "Hotel", "vertical": "Commercial", "sqft": 334925.0, "opex": 207082.2041, "valuation": 2588527.55125, "carbon": 178.992836, "eui": 103.0982577, "image": "CA_1483336_Reitnotes.jpg", "lat": 33.6908082, "lon": -117.884184}, {"id": "CA_3351420", "address": "2700 Mission College Boulevard, Santa Clara, CA, 95054", "city": "Santa Clara", "state": "CA", "type": "Hotel", "vertical": "Commercial", "sqft": 477525.0, "opex": 206112.6519, "valuation": 2576408.1487499997, "carbon": 70.55466793, "eui": 52.20223618, "image": "CA_3351420_Serpapi.jpg", "lat": 37.3905125, "lon": -121.9737939}, {"id": "DC_5475111", "address": "775 12th St NW, Washington, DC, 20005", "city": "Washington", "state": "DC", "type": "Hotel", "vertical": "Commercial", "sqft": 450000.0, "opex": 163008.2779, "valuation": 2173443.7053333335, "carbon": 61.61865018, "eui": 61.21912442, "image": "DC_5475111_streetview.jpg", "lat": 38.89911166, "lon": -77.02757688}, {"id": "DC_5493033", "address": "400 New Jersey Ave NW, Washington, DC 20001", "city": "Washington", "state": "DC", "type": "Hotel", "vertical": "Commercial", "sqft": 602097.0, "opex": 160310.3509, "valuation": 2137471.345333333, "carbon": 95.9986661, "eui": 68.61861551, "image": "DC_5493033_streetview.jpg", "lat": 38.89521815, "lon": -77.01144269}, {"id": "PHL_157964", "address": "One Logan Square, Philadelphia, PA, 19103", "city": "Philadelphia", "state": "PA", "type": "Hotel", "vertical": "Commercial", "sqft": 338200.0, "opex": 149822.3488, "valuation": 1762615.868235294, "carbon": 256.3542126, "eui": 141.5134012, "image": "PHL_157964_Serpapi.jpg", "lat": 39.95639879, "lon": -75.17012058}, {"id": "CA_3351359", "address": "4100 Admiralty Way, Marina Del Rey, CA, 90292", "city": "Marina Del Rey", "state": "CA", "type": "Hotel", "vertical": "Commercial", "sqft": 257086.0, "opex": 147789.3396, "valuation": 1847366.745, "carbon": 104.4883596, "eui": 92.38004831, "image": "CA_3351359_Serpapi.jpg", "lat": 33.9819242, "lon": -118.4599641}, {"id": "DC_5483645", "address": "775 12th St NW, Washington, DC 20005", "city": "Washington", "state": "DC", "type": "Hotel", "vertical": "Commercial", "sqft": 321193.0, "opex": 145470.5242, "valuation": 1939606.9893333337, "carbon": 76.96992581, "eui": 76.97459552, "image": "DC_5483645_streetview.jpg", "lat": 38.89931278, "lon": -77.02775201}, {"id": "SEA_942000165", "address": "1112 4Th Ave, Seattle, WA, 98101", "city": "Seattle", "state": "WA", "type": "Hotel", "vertical": "Commercial", "sqft": 272015.0, "opex": 143596.0671, "valuation": 1794950.83875, "carbon": 139.6999575, "eui": 92.67053288, "image": "SEA_942000165_Reitnotes.jpg", "lat": 47.60738, "lon": -122.33362}, {"id": "CA_3351785", "address": "4375 Admiralty Way, Marina Del Rey, CA, 90292", "city": "Marina Del Rey", "state": "CA", "type": "Hotel", "vertical": "Commercial", "sqft": 257086.0, "opex": 138767.4717, "valuation": 1734593.39625, "carbon": 114.0059443, "eui": 94.60580743, "image": "CA_3351785_Serpapi.jpg", "lat": 33.984245, "lon": -118.4508691}, {"id": "ATL_247", "address": "3300 Peachtree Rd NE, Atlanta, GA, 30305", "city": "Atlanta", "state": "GA", "type": "Hotel", "vertical": "Commercial", "sqft": 503014.0, "opex": 136016.5193, "valuation": 1511294.658888889, "carbon": 106.9336716, "eui": 74.4, "image": "ATL_247_Hyatt.jpg", "lat": 33.8456115, "lon": -84.3703873}, {"id": "NYC_1012730071", "address": "1414 Ave Of America, New York, NY, 10019", "city": "New York", "state": "NY", "type": "Hotel", "vertical": "Commercial", "sqft": 120963.0, "opex": 114988.2494, "valuation": 1642689.277142857, "carbon": 56.60010394, "eui": 114.5872382, "image": "NYC_1012730071_cyclomedia.jpg", "lat": 40.764787, "lon": -73.976846}, {"id": "SF_02950162024", "address": "345 Stockton St, San Francisco, CA, 94108", "city": "San Francisco", "state": "CA", "type": "Hotel", "vertical": "Commercial", "sqft": 578630.0, "opex": 102964.2277, "valuation": 1372856.369333333, "carbon": 80.83600719, "eui": 54.45821383, "image": "SF_02950162024_Reitnotes.jpg", "lat": 37.78891016, "lon": -122.407196}, {"id": "SF_03300262022", "address": "55 Cyril Magnin St, San Francisco, CA, 94102", "city": "San Francisco", "state": "CA", "type": "Hotel", "vertical": "Commercial", "sqft": 754081.0, "opex": 92629.83347, "valuation": 1235064.4462666668, "carbon": 43.87886663, "eui": 49.58871235, "image": "SF_03300262022_streetview.jpg", "lat": 37.78487824, "lon": -122.4089648}, {"id": "ATL_87", "address": "3300 Lenox Rd NE, Atlanta, GA, 30326", "city": "Atlanta", "state": "GA", "type": "Hotel", "vertical": "Commercial", "sqft": 518881.0, "opex": 70538.5907, "valuation": 783762.118888889, "carbon": 43.94854263, "eui": 51.8, "image": "ATL_87_Serpapi.jpg", "lat": 33.8456718, "lon": -84.3594229}, {"id": "CHI_175495", "address": "329 N Dearborn St, Chicago, IL, 60654", "city": "Chicago", "state": "IL", "type": "Hotel", "vertical": "Commercial", "sqft": 54600.0, "opex": 54950.73383, "valuation": 785010.4832857142, "carbon": 176.5357184, "eui": 142.4086584, "image": "CHI_175495_Reitnotes.jpg", "lat": 41.88830123, "lon": -87.62940669}, {"id": "SF_00280162024", "address": "1250 Columbus Ave, San Francisco, CA, 94133", "city": "San Francisco", "state": "CA", "type": "Hotel", "vertical": "Commercial", "sqft": 214671.0, "opex": 53094.61589, "valuation": 707928.2118666667, "carbon": 10.38999915, "eui": 41.508247, "image": "SF_00280162024_streetview.jpg", "lat": 37.80571368, "lon": -122.4174265}, {"id": "NYC_1012990023", "address": "141 East 44Th Street, New York, NY, 10017", "city": "New York", "state": "NY", "type": "Hotel", "vertical": "Commercial", "sqft": 72307.0, "opex": 39428.27921, "valuation": 563261.1315714285, "carbon": 33.06996481, "eui": 87.43317659, "image": "NYC_1012990023_streetview.jpg", "lat": 40.752454, "lon": -73.974403}]