[{"id": "CA_27504973", "address": "1440 E. Brd.Way, Glendale, CA, 91205", "city": "Glendale", "state": "CA", "type": "PreK-12", "vertical": "Education", "sqft": 397265.0, "opex": 146951.7694, "valuation": 0.0, "carbon": 395.7945695, "eui": 51.4118835, "image": "CA_27504973_places.jpg", "lat": 34.1456904, "lon": -118.2319211}, {"id": "CA_27516796", "address": "2900 Comm Ave., La Crescenta, CA, 91214", "city": "La Crescenta", "state": "CA", "type": "PreK-12", "vertical": "Education", "sqft": 349029.0, "opex": 70109.58846, "valuation": 0.0, "carbon": 135.237448, "eui": 34.11634506, "image": "CA_27516796_Homes.jpg", "lat": 34.2238176, "lon": -118.2432057}, {"id": "CA_27069923", "address": "651 Glenwood Rd., Glendale, CA, 91202", "city": "Glendale", "state": "CA", "type": "PreK-12", "vertical": "Education", "sqft": 387265.0, "opex": 37757.72279, "valuation": 0.0, "carbon": 51.49898232, "eui": 17.4247474, "image": "CA_27069923_Mapquest.jpg", "lat": 34.1662218, "lon": -118.2701122}, {"id": "CA_27489687", "address": "223 North Jackson Street, Glendale, CA, 91206", "city": "Glendale", "state": "CA", "type": "PreK-12", "vertical": "Education", "sqft": 56991.0, "opex": 34602.92238, "valuation": 0.0, "carbon": 48.0009511, "eui": 61.09931824, "image": "CA_27489687_Serpapi.jpg", "lat": 34.1492171, "lon": -118.2503812}, {"id": "CA_6175890", "address": "4747 New York Ave., La Crescenta, CA, 91214", "city": "La Crescenta", "state": "CA", "type": "PreK-12", "vertical": "Education", "sqft": 118916.0, "opex": 33508.60385, "valuation": 0.0, "carbon": 52.70773943, "eui": 35.53058293, "image": "CA_6175890_places.jpg", "lat": 34.2372222, "lon": -118.2539051}, {"id": "CA_27204922", "address": "700 Glenwood Rd., Glendale, CA, 91202", "city": "Glendale", "state": "CA", "type": "PreK-12", "vertical": "Education", "sqft": 150483.0, "opex": 22739.41201, "valuation": 0.0, "carbon": 34.48937827, "eui": 21.88103108, "image": "CA_27204922_Yelp.jpg", "lat": 34.1650171, "lon": -118.2712542}, {"id": "CA_27227530", "address": "744 E. Doran St., Glendale, CA, 91206", "city": "Glendale", "state": "CA", "type": "PreK-12", "vertical": "Education", "sqft": 81600.0, "opex": 21205.93797, "valuation": 0.0, "carbon": 30.15480592, "eui": 31.42242525, "image": "CA_27227530_Yelp.jpg", "lat": 34.1537927, "lon": -118.2457641}, {"id": "CA_27207631", "address": "912 S. Chevy Chase Dr., Glendale, CA, 91205", "city": "Glendale", "state": "CA", "type": "PreK-12", "vertical": "Education", "sqft": 86870.0, "opex": 17707.0966, "valuation": 0.0, "carbon": 11.77614433, "eui": 25.10531714, "image": "CA_27207631_Homes.jpg", "lat": 34.135623, "lon": -118.239094}, {"id": "CA_27289227", "address": "222 E. Acacia Ave., Glendale, CA, 91206", "city": "Glendale", "state": "CA", "type": "PreK-12", "vertical": "Education", "sqft": 115315.0, "opex": 17649.75027, "valuation": 0.0, "carbon": 26.94654586, "eui": 21.65938863, "image": "CA_27289227_Homes.jpg", "lat": 34.1347083, "lon": -118.2527765}, {"id": "CA_27491202", "address": "435 S. Pacific Ave., Glendale, CA, 91204", "city": "Glendale", "state": "CA", "type": "PreK-12", "vertical": "Education", "sqft": 116269.0, "opex": 17090.16867, "valuation": 0.0, "carbon": 22.30263541, "eui": 20.02653713, "image": "CA_27491202_Homes.jpg", "lat": 34.1402905, "lon": -118.2655329}, {"id": "CA_27205393", "address": "501 E. Acacia Ave., Glendale, CA, 91205", "city": "Glendale", "state": "CA", "type": "PreK-12", "vertical": "Education", "sqft": 77586.0, "opex": 14982.04662, "valuation": 0.0, "carbon": 24.33686063, "eui": 25.58373031, "image": "CA_27205393_Homes.jpg", "lat": 34.1354803, "lon": -118.248962}, {"id": "CA_4440075", "address": "1221 Monterey Rd., Glendale, CA, 91206", "city": "Glendale", "state": "CA", "type": "PreK-12", "vertical": "Education", "sqft": 155436.0, "opex": 13922.30473, "valuation": 0.0, "carbon": 17.21179946, "eui": 16.26057799, "image": "CA_4440075_places.jpg", "lat": 34.1560551, "lon": -118.2381003}, {"id": "CA_27443888", "address": "1201 East Broadway, Glendale, CA, 91206", "city": "Glendale", "state": "CA", "type": "PreK-12", "vertical": "Education", "sqft": 54453.0, "opex": 13102.67109, "valuation": 0.0, "carbon": 20.03856318, "eui": 30.15510073, "image": "CA_27443888_Homes.jpg", "lat": 34.147083, "lon": -118.2390026}, {"id": "CA_27588332", "address": "425 W. Milford St, Glendale, CA, 91203", "city": "Glendale", "state": "CA", "type": "PreK-12", "vertical": "Education", "sqft": 62244.0, "opex": 10192.70415, "valuation": 0.0, "carbon": 15.20956247, "eui": 23.92682634, "image": "CA_27588332_Yelp.jpg", "lat": 34.1528826, "lon": -118.2631005}, {"id": "CA_27516824", "address": "4725 Rosemont Ave., La Crescenta, CA, 91214", "city": "La Crescenta", "state": "CA", "type": "PreK-12", "vertical": "Education", "sqft": 135617.0, "opex": 8588.62212, "valuation": 0.0, "carbon": 4.253881321, "eui": 10.34105495, "image": "CA_27516824_Homes.jpg", "lat": 34.2259358, "lon": -118.2358668}, {"id": "CA_8486724", "address": "1610 Lake St., Glendale, CA, 91201", "city": "Glendale", "state": "CA", "type": "PreK-12", "vertical": "Education", "sqft": 57225.0, "opex": 8043.294168, "valuation": 0.0, "carbon": 11.20708306, "eui": 20.8614941, "image": "CA_8486724_Serpapi.jpg", "lat": 34.1621509, "lon": -118.2964664}, {"id": "CA_27232697", "address": "120 E. Cerritos Ave, Glendale, CA, 91205", "city": "Glendale", "state": "CA", "type": "PreK-12", "vertical": "Education", "sqft": 57998.0, "opex": 8018.066557, "valuation": 0.0, "carbon": 11.9667998, "eui": 21.13266492, "image": "CA_27232697_mapillary.jpg", "lat": 34.1250512, "lon": -118.2545353}, {"id": "CA_27500075", "address": "1751 N. Verdugo Rd., Glendale, CA, 91208", "city": "Glendale", "state": "CA", "type": "PreK-12", "vertical": "Education", "sqft": 77733.0, "opex": 7568.65008, "valuation": 0.0, "carbon": 9.157397081, "eui": 18.39024154, "image": "CA_27500075_Homes.jpg", "lat": 34.1736684, "lon": -118.227238}, {"id": "CA_27491392", "address": "4310 New York Ave., La Crescenta, CA, 91214", "city": "La Crescenta", "state": "CA", "type": "PreK-12", "vertical": "Education", "sqft": 53914.0, "opex": 7144.627459, "valuation": 0.0, "carbon": 12.39520409, "eui": 25.33547446, "image": "CA_27491392_Homes.jpg", "lat": 34.227733, "lon": -118.2521598}, {"id": "CA_27812528", "address": "4343 Lacrescenta Ave, Lacrescenta, CA, 91214", "city": "Lacrescenta", "state": "CA", "type": "PreK-12", "vertical": "Education", "sqft": 55140.0, "opex": 6709.897594, "valuation": 0.0, "carbon": 11.49499857, "eui": 23.11513446, "image": "CA_27812528_Homes.jpg", "lat": 34.2215828, "lon": -118.2413555}, {"id": "CA_27491368", "address": "4717 Dunsmore Ave., La Crescenta, CA, 91214", "city": "La Crescenta", "state": "CA", "type": "PreK-12", "vertical": "Education", "sqft": 54835.0, "opex": 6468.799147, "valuation": 0.0, "carbon": 12.30195866, "eui": 23.66652291, "image": "CA_27491368_Homes.jpg", "lat": 34.2391003, "lon": -118.2578244}, {"id": "CA_27516867", "address": "2620 Orange Ave., La Crescenta, CA, 91214", "city": "La Crescenta", "state": "CA", "type": "PreK-12", "vertical": "Education", "sqft": 58295.0, "opex": 6454.238189, "valuation": 0.0, "carbon": 10.02684089, "eui": 21.26167368, "image": "CA_27516867_Homes.jpg", "lat": 34.2310515, "lon": -118.2368782}, {"id": "CA_27578395", "address": "730 Glenwood Rd., Glendale, CA, 91202", "city": "Glendale", "state": "CA", "type": "PreK-12", "vertical": "Education", "sqft": 81643.0, "opex": 6321.431327, "valuation": 0.0, "carbon": 6.757459746, "eui": 13.88491849, "image": "CA_27578395_Homes.jpg", "lat": 34.1654597, "lon": -118.2719622}, {"id": "CA_27491378", "address": "2015 E. Glenoaks Blvd., Glendale, CA, 91206", "city": "Glendale", "state": "CA", "type": "PreK-12", "vertical": "Education", "sqft": 54553.0, "opex": 4890.934051, "valuation": 0.0, "carbon": 7.336136299, "eui": 18.01092196, "image": "CA_27491378_Homes.jpg", "lat": 34.1516415, "lon": -118.2213668}, {"id": "CA_27517439", "address": "2307 Mountain Ave., La Crescenta, CA, 91214", "city": "La Crescenta", "state": "CA", "type": "PreK-12", "vertical": "Education", "sqft": 52601.0, "opex": 4767.826322, "valuation": 0.0, "carbon": 5.68590845, "eui": 16.4961893, "image": "CA_27517439_Homes.jpg", "lat": 34.2250337, "lon": -118.2370684}]