[{"id": "DEN_2649", "address": "1450 Glenarm Place, Denver, CO, 80202", "city": "Denver", "state": "CO", "type": "Hotel", "vertical": "Commercial", "sqft": 320400.0, "opex": 532823.6708, "valuation": 6268513.774117646, "carbon": 131.1652769, "eui": 64.84544195, "image": "DEN_2649_streetview.jpg", "lat": 39.7424191, "lon": -104.9917796}, {"id": "CAM_1075", "address": "40 Edwin H Land Blvd, Cambridge, MA 02142", "city": "Cambridge", "state": "MA", "type": "Hotel", "vertical": "Commercial", "sqft": 321771.0, "opex": 206927.3043, "valuation": 2759030.724, "carbon": 83.9850074, "eui": 78.92372122, "image": "CAM_1075_Cvent.jpg", "lat": 42.3668, "lon": -71.0749}, {"id": "PHL_97334", "address": "1800 Market Street, Philadelphia, PA, 19103", "city": "Philadelphia", "state": "PA", "type": "Hotel", "vertical": "Commercial", "sqft": 275500.0, "opex": 120550.2146, "valuation": 1418237.8188235294, "carbon": 171.1041897, "eui": 120.250455, "image": "PHL_97334_Tripadvisor.jpg", "lat": 39.95285126, "lon": -75.17045512}, {"id": "CA_15975625", "address": "777 Bellew Drive, Milpitas, CA, 95035", "city": "Milpitas", "state": "CA", "type": "Hotel", "vertical": "Commercial", "sqft": 164000.0, "opex": 118111.9429, "valuation": 1476399.28625, "carbon": 46.84379459, "eui": 69.52722982, "image": "CA_15975625_streetview.jpg", "lat": 37.422497, "lon": -121.919266}, {"id": "SF_03160132024", "address": "495 Geary St, San Francisco, CA, 94102", "city": "San Francisco", "state": "CA", "type": "Hotel", "vertical": "Commercial", "sqft": 271387.0, "opex": 115458.4529, "valuation": 1539446.0386666667, "carbon": 157.8393527, "eui": 91.18021687, "image": "SF_03160132024_streetview.jpg", "lat": 37.78670601, "lon": -122.4111055}, {"id": "LA_443661803014", "address": "5985 W Century Blvd, Los Angeles, CA 90045", "city": "Los Angeles", "state": "CA", "type": "Hotel", "vertical": "Commercial", "sqft": 339178.0, "opex": 96213.87878, "valuation": 1282851.7170666668, "carbon": 18.28822974, "eui": 27.88244933, "image": "LA_443661803014_streetview.jpg", "lat": 33.9462342, "lon": -118.3890511}, {"id": "CA_15975623", "address": "300 North Harbor Drive, Redondo Beach, CA, 90277", "city": "Redondo Beach", "state": "CA", "type": "Hotel", "vertical": "Commercial", "sqft": 296051.0, "opex": 92366.15987, "valuation": 1154576.998375, "carbon": 41.14946245, "eui": 56.42811455, "image": "CA_15975623_energystar.jpg", "lat": 33.8454782, "lon": -118.392394}, {"id": "CA_10889388", "address": "17941 Von Karman Avenue, Irvine, CA, 92614", "city": "Irvine", "state": "CA", "type": "Hotel", "vertical": "Commercial", "sqft": 175000.0, "opex": 84163.73341, "valuation": 1052046.667625, "carbon": 47.42034496, "eui": 72.93522451, "image": "CA_10889388_streetview.jpg", "lat": 33.6815008, "lon": -117.8508322}, {"id": "NYC_1013050020", "address": "125 East 50Th. Street, New York, NY, 10022", "city": "New York", "state": "NY", "type": "Hotel", "vertical": "Commercial", "sqft": 157462.0, "opex": 61898.22609, "valuation": 884260.3727142856, "carbon": 52.60036347, "eui": 79.64414525, "image": "NYC_1013050020_cyclomedia.jpg", "lat": 40.75639, "lon": -73.972088}, {"id": "CA_10888572", "address": "1820 Barber Lane, Milpitas, CA, 95035", "city": "Milpitas", "state": "CA", "type": "Hotel", "vertical": "Commercial", "sqft": 116243.0, "opex": 55293.2194, "valuation": 691165.2425, "carbon": 23.29909798, "eui": 65.10022705, "image": "CA_10888572_Serpapi.jpg", "lat": 37.4009194, "lon": -121.9109312}, {"id": "CA_3351578", "address": "5555 Shellmound Street, Emeryville, CA, 94608", "city": "Emeryville", "state": "CA", "type": "Hotel", "vertical": "Commercial", "sqft": 241989.0, "opex": 54415.8203, "valuation": 680197.75375, "carbon": 17.67019728, "eui": 46.62316254, "image": "CA_3351578_streetview.jpg", "lat": 37.8348361, "lon": -122.2936985}, {"id": "CA_15975614", "address": "1915 South Manchester Avenue, Anaheim, CA, 92802", "city": "Anaheim", "state": "CA", "type": "Hotel", "vertical": "Commercial", "sqft": 165412.0, "opex": 52672.526, "valuation": 658406.575, "carbon": 38.02201754, "eui": 69.6693061, "image": "CA_15975614_streetview.jpg", "lat": 33.8003397, "lon": -117.901141}, {"id": "KC_531107920", "address": "7901 NW Tiffany Springs Pkwy, Kansas City, MO, 64153", "city": "Kansas City", "state": "MO", "type": "Hotel", "vertical": "Commercial", "sqft": 101277.0, "opex": 45800.91742, "valuation": 482114.92021052627, "carbon": 77.58469374, "eui": 75.7, "image": "KC_531107920_Serpapi.jpg", "lat": 39.2716559, "lon": -94.6715977}, {"id": "PDX_1N1E34CC-7700-B1", "address": "506 SW Washington St, Portland, OR, 97204", "city": "Portland", "state": "OR", "type": "Hotel", "vertical": "Commercial", "sqft": 225053.8307, "opex": 43820.41176, "valuation": 486893.464, "carbon": 37.69631584, "eui": 63.5, "image": "", "lat": 45.5201219, "lon": -122.6772556}, {"id": "CA_3351336", "address": "11002 Rancho Carmel Drive, San Diego, CA, 92128", "city": "San Diego", "state": "CA", "type": "Hotel", "vertical": "Commercial", "sqft": 82142.0, "opex": 37909.70538, "valuation": 473871.31725, "carbon": 9.153173398, "eui": 49.19620381, "image": "CA_3351336_Serpapi.jpg", "lat": 32.9779351, "lon": -117.0855795}, {"id": "KC_311110510", "address": "500 E 105Th St, Kansas City, MO, 64131", "city": "Kansas City", "state": "MO", "type": "Hotel", "vertical": "Commercial", "sqft": 75000.0, "opex": 36011.00358, "valuation": 379063.1955789473, "carbon": 63.52698322, "eui": 76.9, "image": "KC_311110510_Serpapi.jpg", "lat": 38.938544, "lon": -94.5844496}, {"id": "CA_15975629", "address": "19901 Prairie Avenue, Torrance, CA, 90503", "city": "Torrance", "state": "CA", "type": "Hotel", "vertical": "Commercial", "sqft": 109728.0, "opex": 33908.11195, "valuation": 423851.399375, "carbon": 13.62819623, "eui": 45.61739062, "image": "CA_15975629_Serpapi.jpg", "lat": 33.8498342, "lon": -118.3461149}, {"id": "CA_15975624", "address": "1350 Huntington Avenue, San Bruno, CA, 94066", "city": "San Bruno", "state": "CA", "type": "Hotel", "vertical": "Commercial", "sqft": 70104.0, "opex": 31640.30924, "valuation": 395503.8655, "carbon": 16.77632391, "eui": 72.12526549, "image": "CA_15975624_Serpapi.jpg", "lat": 37.6417622, "lon": -122.4190744}, {"id": "CA_15975615", "address": "1855 South Manchester Avenue, Anaheim, CA, 92802", "city": "Anaheim", "state": "CA", "type": "Hotel", "vertical": "Commercial", "sqft": 118757.0, "opex": 28904.97573, "valuation": 361312.196625, "carbon": 10.08539847, "eui": 42.69362249, "image": "CA_15975615_Serpapi.jpg", "lat": 33.8010034, "lon": -117.9015112}, {"id": "CA_3351569", "address": "1300 Veterans Boulevard, South San Francisco, CA, 94080", "city": "South San Francisco", "state": "CA", "type": "Hotel", "vertical": "Commercial", "sqft": 110047.0, "opex": 28443.07062, "valuation": 355538.38275, "carbon": 6.197203282, "eui": 42.2856998, "image": "CA_3351569_Serpapi.jpg", "lat": 37.6661503, "lon": -122.3942944}, {"id": "CA_3351402", "address": "23175 Avenida De La Carlota, Laguna Hills, CA, 92653", "city": "Laguna Hills", "state": "CA", "type": "Hotel", "vertical": "Commercial", "sqft": 75834.0, "opex": 27914.38131, "valuation": 348929.766375, "carbon": 9.348868718, "eui": 54.04856187, "image": "CA_3351402_energystar.jpg", "lat": 33.6255624, "lon": -117.7190791}, {"id": "NYC_1008930025", "address": "303 Lexington Ave, New York, NY, 10016", "city": "New York", "state": "NY", "type": "Hotel", "vertical": "Commercial", "sqft": 179142.0, "opex": 26954.65417, "valuation": 385066.4881428571, "carbon": 25.2305131, "eui": 63.38423206, "image": "NYC_1008930025_AWS.jpg", "lat": 40.746489, "lon": -73.980983}, {"id": "CA_15975628", "address": "900 Hamlin Court, Sunnyvale, CA, 94089", "city": "Sunnyvale", "state": "CA", "type": "Hotel", "vertical": "Commercial", "sqft": 105156.0, "opex": 26569.72217, "valuation": 332121.527125, "carbon": 9.58712415, "eui": 44.55844901, "image": "CA_15975628_energystar.jpg", "lat": 37.3999954, "lon": -122.0290939}, {"id": "CA_15975616", "address": "11855 Avenue Of Industry, San Diego, CA, 92128", "city": "San Diego", "state": "CA", "type": "Hotel", "vertical": "Commercial", "sqft": 69511.0, "opex": 26319.95313, "valuation": 328999.414125, "carbon": 6.230371649, "eui": 42.05215173, "image": "CA_15975616_streetview.jpg", "lat": 32.9900771, "lon": -117.0754089}, {"id": "CA_15975617", "address": "21902 Lassen Street, Los Angeles, CA, 91311", "city": "Los Angeles", "state": "CA", "type": "Hotel", "vertical": "Commercial", "sqft": 86868.0, "opex": 25685.99093, "valuation": 321074.886625, "carbon": 8.677672197, "eui": 49.96016568, "image": "CA_15975617_Serpapi.jpg", "lat": 34.2493994, "lon": -118.6045648}, {"id": "NYC_1014190010", "address": "215 East, New York, NY, 10065", "city": "New York", "state": "NY", "type": "Hotel", "vertical": "Commercial", "sqft": 109800.0, "opex": 25346.17111, "valuation": 362088.1587142856, "carbon": 13.76512564, "eui": 57.41496266, "image": "NYC_1014190010_streetview.jpg", "lat": 40.7644098, "lon": -73.9630848}, {"id": "CA_3351364", "address": "5322 North Diana Avenue, Fresno, CA, 93710", "city": "Fresno", "state": "CA", "type": "Hotel", "vertical": "Commercial", "sqft": 80751.0, "opex": 22812.18949, "valuation": 285152.368625, "carbon": 8.619174468, "eui": 60.98608851, "image": "CA_3351364_streetview.jpg", "lat": 36.8141335, "lon": -119.7865856}, {"id": "SJ_284", "address": "1602 Crane Ct, San Jose, CA, 95112", "city": "San Jose", "state": "CA", "type": "Hotel", "vertical": "Commercial", "sqft": 98268.0, "opex": 22715.67213, "valuation": 283945.901625, "carbon": 7.150142922, "eui": 47.85190995, "image": "SJ_284_Tripadvisor.jpg", "lat": 37.3723849, "lon": -121.9112201}, {"id": "CA_3351581", "address": "1350 Veterans Boulevard, South San Francisco, CA, 94080", "city": "South San Francisco", "state": "CA", "type": "Hotel", "vertical": "Commercial", "sqft": 106409.0, "opex": 22585.50322, "valuation": 282318.79024999996, "carbon": 6.714422212, "eui": 44.87204234, "image": "CA_3351581_Serpapi.jpg", "lat": 37.6667711, "lon": -122.393365}, {"id": "CA_15975622", "address": "16150 Sand Canyon Avenue, Irvine, CA, 92618", "city": "Irvine", "state": "CA", "type": "Hotel", "vertical": "Commercial", "sqft": 65758.0, "opex": 20589.24897, "valuation": 257365.612125, "carbon": 7.450314637, "eui": 42.80190581, "image": "CA_15975622_Serpapi.jpg", "lat": 33.6619434, "lon": -117.7698228}, {"id": "CA_15975621", "address": "12901 Garden Grove Boulevard, Garden Grove, CA, 92843", "city": "Garden Grove", "state": "CA", "type": "Hotel", "vertical": "Commercial", "sqft": 71687.0, "opex": 20454.48029, "valuation": 255681.003625, "carbon": 7.530727611, "eui": 41.08092572, "image": "CA_15975621_Google.jpg", "lat": 33.7752189, "lon": -117.9072786}, {"id": "SJ_203", "address": "1727 Technology Dr, San Jose, CA, 95110", "city": "San Jose", "state": "CA", "type": "Hotel", "vertical": "Commercial", "sqft": 79406.0, "opex": 17909.68257, "valuation": 223871.032125, "carbon": 5.839177682, "eui": 47.12288564, "image": "SJ_203_Serpapi.jpg", "lat": 37.3654295, "lon": -121.9185833}, {"id": "CA_15975627", "address": "6639 Mira Mesa Boulevard, San Diego, CA, 92121", "city": "San Diego", "state": "CA", "type": "Hotel", "vertical": "Commercial", "sqft": 85589.0, "opex": 17876.60261, "valuation": 223457.532625, "carbon": 4.717047312, "eui": 41.8597087, "image": "CA_15975627_streetview.jpg", "lat": 32.9059325, "lon": -117.174956}, {"id": "SEA_1974600035", "address": "1007 1St Ave, Seattle, WA, 98104", "city": "Seattle", "state": "WA", "type": "Hotel", "vertical": "Commercial", "sqft": 169037.0, "opex": 17302.8576, "valuation": 216285.72, "carbon": 1.728629484, "eui": 32.72289499, "image": "SEA_1974600035_Serpapi.jpg", "lat": 47.6048, "lon": -122.3368}, {"id": "CA_15975620", "address": "2600 Red Hill Avenue, Santa Ana, CA, 92705", "city": "Santa Ana", "state": "CA", "type": "Hotel", "vertical": "Commercial", "sqft": 65758.0, "opex": 16891.27845, "valuation": 211140.98062500003, "carbon": 6.329918129, "eui": 38.92899586, "image": "CA_15975620_streetview.jpg", "lat": 33.7067768, "lon": -117.8434604}, {"id": "CA_3351245", "address": "9930 Slater Avenue, Fountain Valley, CA, 92708", "city": "Fountain Valley", "state": "CA", "type": "Hotel", "vertical": "Commercial", "sqft": 80220.0, "opex": 16114.48653, "valuation": 201431.081625, "carbon": 6.444024078, "eui": 52.15712289, "image": "CA_3351245_Serpapi.jpg", "lat": 33.7083286, "lon": -117.9563401}, {"id": "CA_3351256", "address": "2250 Contra Costa Boulevard, Pleasant Hill, CA, 94523", "city": "Pleasant Hill", "state": "CA", "type": "Hotel", "vertical": "Commercial", "sqft": 72514.0, "opex": 15045.65335, "valuation": 188070.666875, "carbon": 4.060657385, "eui": 38.70825741, "image": "CA_3351256_streetview.jpg", "lat": 37.9457734, "lon": -122.0595525}, {"id": "CA_3351278", "address": "18090 San Ramon Valley Boulevard, San Ramon, CA, 94583", "city": "San Ramon", "state": "CA", "type": "Hotel", "vertical": "Commercial", "sqft": 72143.0, "opex": 15029.92868, "valuation": 187874.1085, "carbon": 4.078273732, "eui": 39.24897283, "image": "CA_3351278_streetview.jpg", "lat": 37.7578202, "lon": -121.965041}, {"id": "CA_3351400", "address": "1925 West 190Th Street, Torrance, CA, 90504", "city": "Torrance", "state": "CA", "type": "Hotel", "vertical": "Commercial", "sqft": 83834.0, "opex": 14755.01897, "valuation": 184437.737125, "carbon": 5.230652512, "eui": 44.11536678, "image": "CA_3351400_Serpapi.jpg", "lat": 33.8591368, "lon": -118.3120595}, {"id": "CA_3351244", "address": "4994 Verdugo Way, Camarillo, CA, 93012", "city": "Camarillo", "state": "CA", "type": "Hotel", "vertical": "Commercial", "sqft": 73939.0, "opex": 13768.09429, "valuation": 172101.17862499997, "carbon": 5.48610073, "eui": 47.94128518, "image": "CA_3351244_Serpapi.jpg", "lat": 34.2140842, "lon": -119.0051651}, {"id": "CA_3351242", "address": "9950 Slater Avenue, Fountain Valley, CA, 92708", "city": "Fountain Valley", "state": "CA", "type": "Hotel", "vertical": "Commercial", "sqft": 87870.0, "opex": 13270.65502, "valuation": 165883.18775, "carbon": 4.937298748, "eui": 40.99960679, "image": "CA_3351242_GooglePlaces.jpg", "lat": 33.7082402, "lon": -117.9550588}, {"id": "CA_15975618", "address": "3 South Pointe Drive, Lake Forest, CA, 92630", "city": "Lake Forest", "state": "CA", "type": "Hotel", "vertical": "Commercial", "sqft": 65758.0, "opex": 12137.07967, "valuation": 151713.495875, "carbon": 2.497666226, "eui": 34.69754386, "image": "CA_15975618_Serpapi.jpg", "lat": 33.658763, "lon": -117.6988028}, {"id": "CA_3351367", "address": "2000 East Mariposa Avenue, El Segundo, CA, 90245", "city": "El Segundo", "state": "CA", "type": "Hotel", "vertical": "Commercial", "sqft": 79406.0, "opex": 12051.83026, "valuation": 150647.87825, "carbon": 4.695137173, "eui": 41.81741023, "image": "CA_3351367_energystar.jpg", "lat": 33.9228341, "lon": -118.3914354}, {"id": "CA_15975626", "address": "481 El Camino Real, Santa Clara, CA, 95050", "city": "Santa Clara", "state": "CA", "type": "Hotel", "vertical": "Commercial", "sqft": 65758.0, "opex": 9941.267382, "valuation": 124265.842275, "carbon": 3.03004401, "eui": 36.89532294, "image": "CA_15975626_Serpapi.jpg", "lat": 37.352468, "lon": -121.9356228}]