[{"id": "CA_15663777", "address": "1 Glen Bell Way, Irvine, CA, 92618", "city": "Irvine", "state": "CA", "type": "Office", "vertical": "Commercial", "sqft": 181482.0, "opex": 401192.1146, "valuation": 5349228.194666667, "carbon": 508.1559424, "eui": 129.21941, "image": "CA_15663777_Transpacificdevelopm.jpg", "lat": 33.6571731, "lon": -117.746271}, {"id": "CA_13419184", "address": "2600 Homestead Road, Santa Clara, CA, 95051", "city": "Santa Clara", "state": "CA", "type": "Retail/Consumer Services", "vertical": "Commercial", "sqft": 126658.0, "opex": 145362.9285, "valuation": 2076613.264285714, "carbon": 32.67376491, "eui": 93.92495918, "image": "CA_13419184_streetview.jpg", "lat": 37.339381, "lon": -121.9725721}, {"id": "ORL_110001", "address": "1 S Orange Ave, Orlando, FL 32801", "city": "Orlando", "state": "FL", "type": "Office", "vertical": "Commercial", "sqft": 72793.0, "opex": 75346.543, "valuation": 941831.7875, "carbon": 101.5101086, "eui": 88.7, "image": "ORL_110001_streetview.jpg", "lat": 28.5419763, "lon": -81.3789357}, {"id": "CA_16406706", "address": "1107 9Th Street, Sacramento, CA, 95814", "city": "Sacramento", "state": "CA", "type": "Retail/Consumer Services", "vertical": "Commercial", "sqft": 116240.0, "opex": 64994.54012, "valuation": 866593.8682666667, "carbon": 19.67275497, "eui": 72.23917721, "image": "CA_16406706_streetview.jpg", "lat": 38.5791884, "lon": -121.4951332}, {"id": "CA_20662026", "address": "1604 East 2Nd Street, Beaumont, CA, 92223", "city": "Beaumont", "state": "CA", "type": "Retail/Consumer Services", "vertical": "Commercial", "sqft": 177446.0, "opex": 62871.75199, "valuation": 898167.8855714285, "carbon": 13.72127472, "eui": 49.31850252, "image": "CA_20662026_streetview.jpg", "lat": 33.9236562, "lon": -116.9486081}, {"id": "NYC_1007890067", "address": "250 West 40Th Street, New York, NY, 10018", "city": "New York", "state": "NY", "type": "Office", "vertical": "Commercial", "sqft": 52524.0, "opex": 32587.92706, "valuation": 465541.81514285714, "carbon": 22.80271988, "eui": 53.45531947, "image": "NYC_1007890067_streetview.jpg", "lat": 40.75535, "lon": -73.989334}, {"id": "NYC_2024840009", "address": "880 River Avenue, New York, NY, 10452", "city": "New York", "state": "NY", "type": "Office", "vertical": "Commercial", "sqft": 45787.0, "opex": 31613.3436, "valuation": 451619.19428571424, "carbon": 34.53821556, "eui": 65.7310088, "image": "NYC_2024840009_cyclomedia.jpg", "lat": 40.828333, "lon": -73.925625}, {"id": "NYC_2022930053", "address": "448-450 East 149Th Street, New York, NY, 10455", "city": "New York", "state": "NY", "type": "Office", "vertical": "Commercial", "sqft": 27348.0, "opex": 14123.03678, "valuation": 201757.66828571423, "carbon": 10.64507204, "eui": 43.06759544, "image": "NYC_2022930053_cyclomedia.jpg", "lat": 40.815377, "lon": -73.916026}]