[{"id": "CA_17463782", "address": "1 Shields Ave, Davis, CA, 95616", "city": "Davis", "state": "CA", "type": "Higher Ed", "vertical": "Education", "sqft": 11398733.0, "opex": 16296359.7, "valuation": 0.0, "carbon": 29954.07892, "eui": 139.5660295, "image": "CA_17463782_streetview.jpg", "lat": 38.5710457, "lon": -121.7654258}, {"id": "CA_3881681", "address": "101 The City Drive South, Orange, CA, 92868", "city": "Orange", "state": "CA", "type": "Hospital/Clinic", "vertical": "Healthcare", "sqft": 1414146.0, "opex": 438186.2289, "valuation": 0.0, "carbon": 713.1646711, "eui": 198.4428162, "image": "CA_3881681_streetview.jpg", "lat": 33.7871657, "lon": -117.8883221}, {"id": "CA_1510974", "address": "18881 Von Karman Ave, Irvine, CA, 92612", "city": "Irvine", "state": "CA", "type": "Office", "vertical": "Commercial", "sqft": 255610.0, "opex": 183130.3859, "valuation": 2441738.478666667, "carbon": 64.93343848, "eui": 36.28836711, "image": "CA_1510974_energystar.jpg", "lat": 33.6712559, "lon": -117.8582506}, {"id": "CA_6075429", "address": "1640 Newport Boulevard, Costa Mesa, CA, 92627", "city": "Costa Mesa", "state": "CA", "type": "Medical Office/Lab", "vertical": "Healthcare", "sqft": 76880.0, "opex": 160343.4139, "valuation": 2137912.1853333334, "carbon": 249.446961, "eui": 178.5935512, "image": "CA_6075429_streetview.jpg", "lat": 33.6344158, "lon": -117.9215362}, {"id": "CA_23246654", "address": "2300 Delaware Av, Santa Cruz, CA, 95060", "city": "Santa Cruz", "state": "CA", "type": "Higher Ed", "vertical": "Education", "sqft": 240075.0, "opex": 158853.6947, "valuation": 0.0, "carbon": 239.2336451, "eui": 68.77751165, "image": "CA_23246654_streetview.jpg", "lat": 36.9563995, "lon": -122.0587276}, {"id": "CA_19574631", "address": "10920 Wilshire Boulevard, Los Angeles, CA, 90024", "city": "Los Angeles", "state": "CA", "type": "Office", "vertical": "Commercial", "sqft": 318432.0, "opex": 145335.074, "valuation": 1937800.9866666663, "carbon": 29.50030894, "eui": 31.57960817, "image": "CA_19574631_streetview.jpg", "lat": 34.0581942, "lon": -118.4444166}, {"id": "CA_23246656", "address": "606 Engineering Lp, Santa Cruz, CA, 95064", "city": "Santa Cruz", "state": "CA", "type": "Higher Ed", "vertical": "Education", "sqft": 175318.0, "opex": 120589.3259, "valuation": 0.0, "carbon": 46.11539816, "eui": 69.13972319, "image": "CA_23246656_GooglePlaces.jpg", "lat": 37.0003748, "lon": -122.0631966}, {"id": "CA_6437103", "address": "6256 Greenwich Drive, San Diego, CA, 92122", "city": "San Diego", "state": "CA", "type": "Office", "vertical": "Commercial", "sqft": 101054.0, "opex": 107735.7375, "valuation": 1436476.5, "carbon": 25.12095583, "eui": 37.28964634, "image": "CA_6437103_streetview.jpg", "lat": 32.8529959, "lon": -117.1829839}, {"id": "CA_55235592", "address": "3700 South Street, Lakewood, CA, 90712", "city": "Lakewood", "state": "CA", "type": "Hospital/Clinic", "vertical": "Healthcare", "sqft": 181569.0, "opex": 107191.9682, "valuation": 0.0, "carbon": 190.9392904, "eui": 307.8058454, "image": "CA_55235592_UCIHealth.jpg", "lat": 33.8596883, "lon": -118.1482913}, {"id": "CA_52670692", "address": "113 Pereira Drive, Irvine, CA, 92697", "city": "Irvine", "state": "CA", "type": "Higher Ed", "vertical": "Education", "sqft": 287000.0, "opex": 100431.6264, "valuation": 0.0, "carbon": 227.5281647, "eui": 56.83167456, "image": "CA_52670692_streetview.jpg", "lat": 33.6494292, "lon": -117.8424161}, {"id": "SD_286", "address": "6655 Alvarado Rd., San Diego, CA 92120", "city": "San Diego", "state": "CA", "type": "Hospital/Clinic", "vertical": "Healthcare", "sqft": 185737.0, "opex": 97316.82707, "valuation": 0.0, "carbon": 125.3183263, "eui": 294.9487781, "image": "SD_286_places.jpg", "lat": 32.7763113, "lon": -117.0568466}, {"id": "CA_1131179", "address": "1111 Franklin Street, Oakland, CA, 94607", "city": "Oakland", "state": "CA", "type": "Office", "vertical": "Commercial", "sqft": 227600.0, "opex": 96905.52238, "valuation": 1292073.6317333332, "carbon": 44.22599167, "eui": 27.75525078, "image": "CA_1131179_Ucsustainabilityrepo.jpg", "lat": 37.8023966, "lon": -122.271326}, {"id": "CA_19574612", "address": "100 Medical Plaza Driveway, Los Angeles, CA, 90024", "city": "Los Angeles", "state": "CA", "type": "Medical Office/Lab", "vertical": "Healthcare", "sqft": 127766.0, "opex": 88506.0173, "valuation": 1180080.2306666668, "carbon": 22.04410591, "eui": 66.19714617, "image": "CA_19574612_streetview.jpg", "lat": 34.0654341, "lon": -118.4456849}, {"id": "CA_19574625", "address": "924 Westwood, Los Angeles, CA, 90024", "city": "Los Angeles", "state": "CA", "type": "Office", "vertical": "Commercial", "sqft": 150165.0, "opex": 77991.31177, "valuation": 1039884.1569333334, "carbon": 53.02652279, "eui": 48.51898009, "image": "CA_19574625_GooglePlaces.jpg", "lat": 34.0631451, "lon": -118.4367551}, {"id": "CA_54955694", "address": "3751 Katella Avenue, Los Alamitos, CA, 90720", "city": "Los Alamitos", "state": "CA", "type": "Hospital/Clinic", "vertical": "Healthcare", "sqft": 135793.0, "opex": 73491.19119, "valuation": 0.0, "carbon": 142.0560116, "eui": 318.2583102, "image": "CA_54955694_UCIHealth.jpg", "lat": 33.8045254, "lon": -118.0669994}, {"id": "CA_1474931", "address": "1100 Larkspur Landing Circle, Larkspur, CA, 94939", "city": "Larkspur", "state": "CA", "type": "Office", "vertical": "Commercial", "sqft": 82535.0, "opex": 57991.43573, "valuation": 773219.1430666667, "carbon": 38.21800927, "eui": 39.40481345, "image": "CA_1474931_streetview.jpg", "lat": 37.9490896, "lon": -122.5110856}, {"id": "CA_20448434", "address": "1130 K Street, Sacramento, CA, 95814", "city": "Sacramento", "state": "CA", "type": "Office", "vertical": "Commercial", "sqft": 200000.0, "opex": 53427.40491, "valuation": 712365.3988, "carbon": 75.17686268, "eui": 31.08772004, "image": "CA_20448434_Turtoncommercialreal.jpg", "lat": 38.578345, "lon": -121.4919429}, {"id": "CA_23246657", "address": "612 Engineering Lp, Santa Cruz, CA, 95064", "city": "Santa Cruz", "state": "CA", "type": "Higher Ed", "vertical": "Education", "sqft": 151550.0, "opex": 52042.6895, "valuation": 0.0, "carbon": 33.90214469, "eui": 32.63149984, "image": "CA_23246657_GooglePlaces.jpg", "lat": 37.0006696, "lon": -122.0639078}, {"id": "CA_55235892", "address": "1301 North Rose Drive, Placentia, CA, 92870", "city": "Placentia", "state": "CA", "type": "Hospital/Clinic", "vertical": "Healthcare", "sqft": 93288.0, "opex": 51898.99382, "valuation": 0.0, "carbon": 100.7756247, "eui": 311.6026656, "image": "CA_55235892_Ucihealth.jpg", "lat": 33.8870822, "lon": -117.843323}, {"id": "CA_6587653", "address": "6333 Greenwich Drive, San Diego, CA, 92122", "city": "San Diego", "state": "CA", "type": "Office", "vertical": "Commercial", "sqft": 64131.0, "opex": 50921.86009, "valuation": 678958.1345333334, "carbon": 11.87355123, "eui": 31.39268034, "image": "CA_6587653_streetview.jpg", "lat": 32.8555644, "lon": -117.1852021}, {"id": "SD_287", "address": "6645 Alvarado Rd., San Diego, CA 92120", "city": "San Diego", "state": "CA", "type": "Hospital/Clinic", "vertical": "Healthcare", "sqft": 107000.0, "opex": 50458.29397, "valuation": 0.0, "carbon": 58.66411415, "eui": 187.475928, "image": "SD_287_Sandiegouniontribune.jpg", "lat": 32.77666744, "lon": -117.0577449}, {"id": "DC_5487495", "address": "1608 Rhode Island Ave NW, Washington, DC 20036", "city": "Washington", "state": "DC", "type": "Higher Ed", "vertical": "Education", "sqft": 161884.0, "opex": 49561.10415, "valuation": 0.0, "carbon": 88.82767965, "eui": 57.3271274, "image": "DC_5487495_buildingurl.jpg", "lat": 38.90650513, "lon": -77.03738346}, {"id": "CA_6437105", "address": "6165 Greenwich Drive, San Diego, CA, 92122", "city": "San Diego", "state": "CA", "type": "Office", "vertical": "Commercial", "sqft": 52392.0, "opex": 40935.56985, "valuation": 545807.598, "carbon": 9.178123316, "eui": 30.1600351, "image": "CA_6437105_streetview.jpg", "lat": 32.8537845, "lon": -117.1833595}, {"id": "CA_19574630", "address": "1101 Gayley Avenue, Los Angeles, CA, 90024", "city": "Los Angeles", "state": "CA", "type": "Office", "vertical": "Commercial", "sqft": 81234.0, "opex": 35040.43776, "valuation": 467205.8368000001, "carbon": 21.68883679, "eui": 41.01655711, "image": "CA_19574630_Alamy.jpg", "lat": 34.0599318, "lon": -118.4465845}, {"id": "CA_23246671", "address": "704 College Nine Rd, Santa Cruz, CA, 95064", "city": "Santa Cruz", "state": "CA", "type": "Higher Ed", "vertical": "Education", "sqft": 54611.0, "opex": 31261.92778, "valuation": 0.0, "carbon": 58.83614618, "eui": 75.23241838, "image": "CA_23246671_streetview.jpg", "lat": 37.0023664, "lon": -122.058092}, {"id": "CA_52670993", "address": "653 East Peltason Drive, Irvine, CA, 92617", "city": "Irvine", "state": "CA", "type": "Higher Ed", "vertical": "Education", "sqft": 62123.0, "opex": 30876.92642, "valuation": 0.0, "carbon": 57.33407874, "eui": 68.3819792, "image": "CA_52670993_Serpapi.jpg", "lat": 33.6426854, "lon": -117.837588}, {"id": "CA_23246672", "address": "402 Mchenry Rd, Santa Cruz, CA, 95064", "city": "Santa Cruz", "state": "CA", "type": "Higher Ed", "vertical": "Education", "sqft": 50548.0, "opex": 26467.77705, "valuation": 0.0, "carbon": 60.35446926, "eui": 78.99080334, "image": "CA_23246672_streetview.jpg", "lat": 36.9930497, "lon": -122.0606179}, {"id": "CA_23246668", "address": "712 College Ten Rd, Santa Cruz, CA, 95064", "city": "Santa Cruz", "state": "CA", "type": "Higher Ed", "vertical": "Education", "sqft": 77015.0, "opex": 24808.23767, "valuation": 0.0, "carbon": 42.81400856, "eui": 48.2761207, "image": "CA_23246668_GooglePlaces.jpg", "lat": 37.0016291, "lon": -122.0588321}, {"id": "CA_6874055", "address": "9454 Gilman Drive, San Diego, CA, 92161", "city": "San Diego", "state": "CA", "type": "Higher Ed", "vertical": "Education", "sqft": 70303.0, "opex": 20209.4131, "valuation": 0.0, "carbon": 5.900732581, "eui": 28.56549614, "image": "CA_6874055_streetview.jpg", "lat": 32.8734936, "lon": -117.2379042}, {"id": "CA_23246669", "address": "550 Red Hill Rd, Santa Cruz, CA, 95064", "city": "Santa Cruz", "state": "CA", "type": "Higher Ed", "vertical": "Education", "sqft": 61857.0, "opex": 13865.83727, "valuation": 0.0, "carbon": 4.598877365, "eui": 25.30303823, "image": "CA_23246669_Serpapi.jpg", "lat": 36.9986083, "lon": -122.0597911}, {"id": "CA_23246666", "address": "500 Kerr Rd, Santa Cruz, CA, 95064", "city": "Santa Cruz", "state": "CA", "type": "Higher Ed", "vertical": "Education", "sqft": 79363.0, "opex": 13454.23439, "valuation": 0.0, "carbon": 4.657437079, "eui": 19.16930463, "image": "CA_23246666_GooglePlaces.jpg", "lat": 36.9969966, "lon": -122.0620385}, {"id": "CA_23246670", "address": "506 Cowell-Stevenson Rd, Santa Cruz, CA, 95064", "city": "Santa Cruz", "state": "CA", "type": "Higher Ed", "vertical": "Education", "sqft": 58844.0, "opex": 12051.92735, "valuation": 0.0, "carbon": 18.7877855, "eui": 31.02118352, "image": "CA_23246670_Collegeconfidentialf.jpg", "lat": 36.9982703, "lon": -122.05414}, {"id": "CA_58744792", "address": "2400 Ridge Rd, Berkeley, CA, 94709", "city": "Berkeley", "state": "CA", "type": "Library/Museum", "vertical": "Education", "sqft": 52263.0, "opex": 7572.064213, "valuation": 0.0, "carbon": 2.909409073, "eui": 23.2833523, "image": "CA_58744792_TheArchitectsNewspap.jpg", "lat": 37.8755699, "lon": -122.2616853}, {"id": "CA_6874053", "address": "9475 Russell Lane, San Diego, CA, 92093", "city": "San Diego", "state": "CA", "type": "Medical Office/Lab", "vertical": "Healthcare", "sqft": 68505.0, "opex": 3134.908388, "valuation": 0.0, "carbon": 0.344474122, "eui": 33.83038825, "image": "CA_6874053_streetview.jpg", "lat": 32.8791565, "lon": -117.2341341}]