[{"id": "CA_11662510", "address": "1933 Davis Street, San Leandro, CA, 94577", "city": "San Leandro", "state": "CA", "type": "Strip/Enclosed Mall", "vertical": "Commercial", "sqft": 364994.0, "opex": 444786.0919, "valuation": 6589423.583703703, "carbon": 271.8065787, "eui": 87.95772517, "image": "CA_11662510_streetview.jpg", "lat": 37.7152997, "lon": -122.179217}, {"id": "NYC_5013800155", "address": "2501 Forest Avenue, New York, NY, 10303", "city": "New York", "state": "NY", "type": "Retail/Consumer Services", "vertical": "Commercial", "sqft": 161615.0, "opex": 299964.7833, "valuation": 5999295.666, "carbon": 98.15852059, "eui": 123.6486087, "image": "NYC_5013800155_Serpapi.jpg", "lat": 40.626336, "lon": -74.174961}, {"id": "CA_5700522", "address": "10604 Westview Parkway, San Diego, CA, 92126", "city": "San Diego", "state": "CA", "type": "Retail/Consumer Services", "vertical": "Commercial", "sqft": 238747.0, "opex": 278442.5001, "valuation": 4455080.0016, "carbon": 214.2892843, "eui": 80.00700243, "image": "CA_5700522_streetview.jpg", "lat": 32.9137466, "lon": -117.1215117}, {"id": "DEN_3539", "address": "500 S Santa Fe Dr, Denver, CO, 80223", "city": "Denver", "state": "CO", "type": "Retail/Consumer Services", "vertical": "Commercial", "sqft": 130601.0, "opex": 275272.9536, "valuation": 4234968.5169230765, "carbon": 77.50164961, "eui": 56.12146614, "image": "DEN_3539_Serpapi.jpg", "lat": 39.7059111, "lon": -104.9924651}, {"id": "DEN_1547", "address": "3870 Quebec Street, Denver, CO, 80207", "city": "Denver", "state": "CO", "type": "Retail/Consumer Services", "vertical": "Commercial", "sqft": 136953.0, "opex": 240606.9756, "valuation": 3701645.7784615383, "carbon": 61.57797279, "eui": 56.40076304, "image": "DEN_1547_streetview.jpg", "lat": 39.7704128, "lon": -104.9010502}, {"id": "SEA_7666207295", "address": "2701 Utah Ave S, Seattle, WA, 98134", "city": "Seattle", "state": "WA", "type": "Retail/Consumer Services", "vertical": "Commercial", "sqft": 107930.0, "opex": 240298.6958, "valuation": 4004978.263333333, "carbon": 18.36278047, "eui": 48.67392755, "image": "SEA_7666207295_streetview.jpg", "lat": 47.57842, "lon": -122.33558}, {"id": "DEN_5084", "address": "7990 W. Crestline Avenue, Denver, CO, 80235", "city": "Denver", "state": "CO", "type": "Retail/Consumer Services", "vertical": "Commercial", "sqft": 131335.0, "opex": 223227.9338, "valuation": 3434275.9046153845, "carbon": 57.21240792, "eui": 54.41634294, "image": "DEN_5084_Serpapi.jpg", "lat": 39.6173761, "lon": -105.0852126}, {"id": "CA_1405827", "address": "4000 East 3Rd Avenue, Foster City, CA, 94404", "city": "Foster City", "state": "CA", "type": "Office", "vertical": "Commercial", "sqft": 134523.0, "opex": 213578.624, "valuation": 2847714.986666667, "carbon": 193.4451035, "eui": 68.1549662, "image": "CA_1405827_LoopNet.jpg", "lat": 37.5715413, "lon": -122.2668952}, {"id": "BOS_103779", "address": "1213 VFW Pkwy, Boston, MA, 02132", "city": "Boston", "state": "MA", "type": "Retail/Consumer Services", "vertical": "Commercial", "sqft": 107350.0, "opex": 200680.059, "valuation": 3648728.3454545457, "carbon": 272.4880855, "eui": 187.4386912, "image": "BOS_103779_MapQuest.jpg", "lat": 42.2796269, "lon": -71.1741865}, {"id": "CA_6568819", "address": "550 West San Marcos Boulevard, San Marcos, CA, 92069", "city": "San Marcos", "state": "CA", "type": "Retail/Consumer Services", "vertical": "Commercial", "sqft": 105700.0, "opex": 190981.6016, "valuation": 3055705.6256, "carbon": 277.8513832, "eui": 175.9996452, "image": "CA_6568819_Serpapi.jpg", "lat": 33.1402185, "lon": -117.1737154}, {"id": "CA_36459531", "address": "5040 San Fernando Road, Glendale, CA, 91204", "city": "Glendale", "state": "CA", "type": "Retail/Consumer Services", "vertical": "Commercial", "sqft": 111624.0, "opex": 190279.6719, "valuation": 3044474.7504, "carbon": 312.2087135, "eui": 199.5663976, "image": "CA_36459531_Serpapi.jpg", "lat": 34.1438458, "lon": -118.2691073}, {"id": "CA_55524415", "address": "5755 Mission Avenue, Oceanside, CA, 92057", "city": "Oceanside", "state": "CA", "type": "Retail/Consumer Services", "vertical": "Commercial", "sqft": 107920.0, "opex": 190182.6657, "valuation": 3042922.6512, "carbon": 279.6997458, "eui": 173.2000019, "image": "CA_55524415_Serpapi.jpg", "lat": 33.2375678, "lon": -117.2961874}, {"id": "CA_6570472", "address": "12175 Tech Center Drive, Poway, CA, 92064", "city": "Poway", "state": "CA", "type": "Retail/Consumer Services", "vertical": "Commercial", "sqft": 95016.0, "opex": 181571.7064, "valuation": 2905147.3024, "carbon": 264.7274998, "eui": 195.2690721, "image": "CA_6570472_streetview.jpg", "lat": 32.937492, "lon": -117.0350893}, {"id": "CA_6455402", "address": "7530 Broadway, Lemon Grove, CA, 91945", "city": "Lemon Grove", "state": "CA", "type": "Retail/Consumer Services", "vertical": "Commercial", "sqft": 102494.0, "opex": 173773.1771, "valuation": 2780370.8336, "carbon": 248.3862305, "eui": 162.7618123, "image": "CA_6455402_Flickr.jpg", "lat": 32.7436629, "lon": -117.0357098}, {"id": "CA_6455459", "address": "3838 Vista Way, Oceanside, CA, 92056", "city": "Oceanside", "state": "CA", "type": "Retail/Consumer Services", "vertical": "Commercial", "sqft": 96005.0, "opex": 172960.2371, "valuation": 2767363.7936, "carbon": 244.8432367, "eui": 183.6042562, "image": "CA_6455459_streetview.jpg", "lat": 33.1854267, "lon": -117.2949821}, {"id": "CA_6570402", "address": "601 Woollomes Avenue, Delano, CA, 93215", "city": "Delano", "state": "CA", "type": "Retail/Consumer Services", "vertical": "Commercial", "sqft": 96143.0, "opex": 172046.4436, "valuation": 2752743.0976, "carbon": 260.5833751, "eui": 190.8663569, "image": "CA_6570402_streetview.jpg", "lat": 35.7482237, "lon": -119.2460619}, {"id": "CA_6456756", "address": "4000 Alameda Avenue, Oakland, CA, 94601", "city": "Oakland", "state": "CA", "type": "Retail/Consumer Services", "vertical": "Commercial", "sqft": 122050.0, "opex": 167897.884, "valuation": 2686366.144, "carbon": 259.9428176, "eui": 142.6567499, "image": "CA_6456756_Serpapi.jpg", "lat": 37.7695396, "lon": -122.2235024}, {"id": "CA_6406619", "address": "1001 North El Camino Real, Encinitas, CA, 92024", "city": "Encinitas", "state": "CA", "type": "Retail/Consumer Services", "vertical": "Commercial", "sqft": 102170.0, "opex": 165545.8893, "valuation": 2648734.2288, "carbon": 274.8519457, "eui": 178.0053725, "image": "CA_6406619_streetview.jpg", "lat": 33.0646648, "lon": -117.2611817}, {"id": "CA_6570230", "address": "12218 Apple Valley Road, Apple Valley, CA, 92308", "city": "Apple Valley", "state": "CA", "type": "Retail/Consumer Services", "vertical": "Commercial", "sqft": 102083.0, "opex": 164688.7038, "valuation": 2635019.2608, "carbon": 285.8438776, "eui": 178.2343409, "image": "CA_6570230_streetview.jpg", "lat": 34.4732672, "lon": -117.2442794}, {"id": "CA_6570356", "address": "58705 Twentynine Palms Highway, Yucca Valley, CA, 92284", "city": "Yucca Valley", "state": "CA", "type": "Retail/Consumer Services", "vertical": "Commercial", "sqft": 102629.0, "opex": 157182.3623, "valuation": 2514917.7968, "carbon": 301.9827493, "eui": 188.2694754, "image": "CA_6570356_Serpapi.jpg", "lat": 34.1322792, "lon": -116.3815785}, {"id": "CA_6570323", "address": "16005 Sierra Lakes Parkway, Fontana, CA, 92336", "city": "Fontana", "state": "CA", "type": "Retail/Consumer Services", "vertical": "Commercial", "sqft": 114700.0, "opex": 156236.6213, "valuation": 2499785.9408, "carbon": 294.7798921, "eui": 165.0388193, "image": "CA_6570323_streetview.jpg", "lat": 34.138606, "lon": -117.456783}, {"id": "CA_6549504", "address": "501 12Th Avenue, Hanford, CA, 93230", "city": "Hanford", "state": "CA", "type": "Retail/Consumer Services", "vertical": "Commercial", "sqft": 94878.0, "opex": 153337.5618, "valuation": 2453400.9888, "carbon": 246.8970859, "eui": 181.2626002, "image": "CA_6549504_GooglePlaces.jpg", "lat": 36.3296542, "lon": -119.6711022}, {"id": "CA_6570453", "address": "6200 Irvine Boulevard, Irvine, CA, 92620", "city": "Irvine", "state": "CA", "type": "Retail/Consumer Services", "vertical": "Commercial", "sqft": 114665.0, "opex": 151472.8584, "valuation": 2423565.7344, "carbon": 279.6138865, "eui": 157.2975216, "image": "CA_6570453_streetview.jpg", "lat": 33.6997014, "lon": -117.7419188}, {"id": "CA_6554053", "address": "16783 Santa Ana Avenue, Fontana, CA, 92337", "city": "Fontana", "state": "CA", "type": "Retail/Consumer Services", "vertical": "Commercial", "sqft": 102629.0, "opex": 150697.5342, "valuation": 2411160.5472, "carbon": 282.8446985, "eui": 177.1706333, "image": "CA_6554053_streetview.jpg", "lat": 34.0549547, "lon": -117.4382024}, {"id": "CA_6456813", "address": "1151 West Lugonia Avenue, Redlands, CA, 92374", "city": "Redlands", "state": "CA", "type": "Retail/Consumer Services", "vertical": "Commercial", "sqft": 115065.0, "opex": 149469.0256, "valuation": 2391504.4096, "carbon": 275.6132749, "eui": 161.5774466, "image": "CA_6456813_Serpapi.jpg", "lat": 34.068187, "lon": -117.197607}, {"id": "CA_6570262", "address": "14549 Ramona Avenue, Chino, CA, 91710", "city": "Chino", "state": "CA", "type": "Retail/Consumer Services", "vertical": "Commercial", "sqft": 102867.0, "opex": 148380.003, "valuation": 2374080.048, "carbon": 279.1225499, "eui": 174.3546965, "image": "CA_6570262_Serpapi.jpg", "lat": 33.988947, "lon": -117.7041642}, {"id": "CA_6549526", "address": "1401 East 19Th Street, Upland, CA, 91784", "city": "Upland", "state": "CA", "type": "Retail/Consumer Services", "vertical": "Commercial", "sqft": 102513.0, "opex": 146035.2602, "valuation": 2336564.1632, "carbon": 277.0289679, "eui": 173.3491395, "image": "CA_6549526_Serpapi.jpg", "lat": 34.1336453, "lon": -117.6297324}, {"id": "CA_6543782", "address": "28033 Newhall Ranch Road, Santa Clarita, CA, 91355", "city": "Santa Clarita", "state": "CA", "type": "Retail/Consumer Services", "vertical": "Commercial", "sqft": 115058.0, "opex": 145903.779, "valuation": 2334460.464, "carbon": 275.500389, "eui": 160.7384268, "image": "CA_6543782_Serpapi.jpg", "lat": 34.4405461, "lon": -118.5737797}, {"id": "CA_6568821", "address": "2745 Teller Road, Thousand Oaks, CA, 91320", "city": "Thousand Oaks", "state": "CA", "type": "Retail/Consumer Services", "vertical": "Commercial", "sqft": 125712.0, "opex": 144599.2969, "valuation": 2313588.7504, "carbon": 269.2911764, "eui": 144.2058424, "image": "CA_6568821_streetview.jpg", "lat": 34.1928515, "lon": -118.9339757}, {"id": "CA_55524508", "address": "7121 Firestone Boulevard, Downey, CA, 90241", "city": "Downey", "state": "CA", "type": "Retail/Consumer Services", "vertical": "Commercial", "sqft": 106619.0, "opex": 144578.787, "valuation": 2313260.592, "carbon": 275.1408361, "eui": 172.9611716, "image": "CA_55524508_Yelp.jpg", "lat": 33.9497647, "lon": -118.1557877}, {"id": "CA_6554058", "address": "101 Towne Center Drive, Compton, CA, 90220", "city": "Compton", "state": "CA", "type": "Retail/Consumer Services", "vertical": "Commercial", "sqft": 102641.0, "opex": 144488.0972, "valuation": 2311809.5552, "carbon": 278.2864578, "eui": 173.3895796, "image": "CA_6554058_streetview.jpg", "lat": 33.8799788, "lon": -118.221778}, {"id": "CA_6262416", "address": "3500 West Macarthur Boulevard, Santa Ana, CA, 92704", "city": "Santa Ana", "state": "CA", "type": "Retail/Consumer Services", "vertical": "Commercial", "sqft": 134400.0, "opex": 143469.4534, "valuation": 2295511.2544, "carbon": 271.1922891, "eui": 135.3186158, "image": "CA_6262416_Serpapi.jpg", "lat": 33.7002935, "lon": -117.9166617}, {"id": "CA_6537991", "address": "401 West Ventura Boulevard, Camarillo, CA, 93010", "city": "Camarillo", "state": "CA", "type": "Retail/Consumer Services", "vertical": "Commercial", "sqft": 114968.0, "opex": 143288.3438, "valuation": 2292613.5008, "carbon": 268.5585157, "eui": 157.0480695, "image": "CA_6537991_Serpapi.jpg", "lat": 34.2178323, "lon": -119.0778107}, {"id": "CA_6570333", "address": "1855 North Tustin Street, Orange, CA, 92865", "city": "Orange", "state": "CA", "type": "Retail/Consumer Services", "vertical": "Commercial", "sqft": 102000.0, "opex": 143261.6743, "valuation": 2292186.7888, "carbon": 262.5491396, "eui": 166.2858129, "image": "CA_6570333_streetview.jpg", "lat": 33.8182357, "lon": -117.8331576}, {"id": "CA_6568715", "address": "1305 South Lone Hill Avenue, Glendora, CA, 91740", "city": "Glendora", "state": "CA", "type": "Retail/Consumer Services", "vertical": "Commercial", "sqft": 107920.0, "opex": 142759.7878, "valuation": 2284156.6048, "carbon": 272.7335201, "eui": 169.2490906, "image": "CA_6568715_GooglePlaces.jpg", "lat": 34.1146008, "lon": -117.831326}, {"id": "CA_34656814", "address": "2001 Solano Avenue, Vallejo, CA, 94590", "city": "Vallejo", "state": "CA", "type": "Strip/Enclosed Mall", "vertical": "Commercial", "sqft": 113654.0, "opex": 142211.0139, "valuation": 2106829.8355555553, "carbon": 101.2061887, "eui": 101.5877184, "image": "CA_34656814_streetview.jpg", "lat": 38.103405, "lon": -122.2314868}, {"id": "CA_6265514", "address": "490 Mckinley Street, Corona, CA, 92879", "city": "Corona", "state": "CA", "type": "Retail/Consumer Services", "vertical": "Commercial", "sqft": 100000.0, "opex": 141699.1148, "valuation": 2267185.8368, "carbon": 264.6709846, "eui": 177.6897159, "image": "CA_6265514_Serpapi.jpg", "lat": 33.8852425, "lon": -117.5251851}, {"id": "CA_6570298", "address": "1600 E Prosperity Avenue, Tulare, CA, 93274", "city": "Tulare", "state": "CA", "type": "Retail/Consumer Services", "vertical": "Commercial", "sqft": 102513.0, "opex": 139683.3326, "valuation": 2234933.3216, "carbon": 250.8051464, "eui": 152.8583087, "image": "CA_6570298_Serpapi.jpg", "lat": 36.227168, "lon": -119.3233864}, {"id": "CA_21642364", "address": "6633 Westminster, Westminster, CA, 92683", "city": "Westminster", "state": "CA", "type": "Retail/Consumer Services", "vertical": "Commercial", "sqft": 102220.0, "opex": 135284.1123, "valuation": 2164545.7968, "carbon": 273.3919548, "eui": 177.1520145, "image": "CA_21642364_Serpapi.jpg", "lat": 33.7612141, "lon": -118.0129011}, {"id": "CA_6415330", "address": "2430 South Melrose Drive, Vista, CA, 92081", "city": "Vista", "state": "CA", "type": "Retail/Consumer Services", "vertical": "Commercial", "sqft": 115058.0, "opex": 133474.4723, "valuation": 2135591.5568, "carbon": 197.1084207, "eui": 114.6721613, "image": "CA_6415330_Serpapi.jpg", "lat": 33.1407153, "lon": -117.2420747}, {"id": "CA_6549531", "address": "6140 Hamner Avenue, Eastvale, CA, 91752", "city": "Eastvale", "state": "CA", "type": "Retail/Consumer Services", "vertical": "Commercial", "sqft": 115058.0, "opex": 132919.2837, "valuation": 2126708.5392, "carbon": 257.3243783, "eui": 149.3836082, "image": "CA_6549531_MapQuest.jpg", "lat": 33.9782559, "lon": -117.556005}, {"id": "CA_55525011", "address": "23651 El Toro Road, Lake Forest, CA, 92630", "city": "Lake Forest", "state": "CA", "type": "Retail/Consumer Services", "vertical": "Commercial", "sqft": 102083.0, "opex": 132806.2716, "valuation": 2124900.3456, "carbon": 267.8820394, "eui": 161.0933688, "image": "CA_55525011_streetview.jpg", "lat": 33.6193655, "lon": -117.7054473}, {"id": "CA_6538859", "address": "401 West Esplanade Drive, Oxnard, CA, 93036", "city": "Oxnard", "state": "CA", "type": "Retail/Consumer Services", "vertical": "Commercial", "sqft": 115158.0, "opex": 131381.371, "valuation": 2102101.936, "carbon": 256.155039, "eui": 148.3652573, "image": "CA_6538859_streetview.jpg", "lat": 34.2355725, "lon": -119.1774032}, {"id": "CA_6455411", "address": "3818 East Hammer Lane, Stockton, CA, 95212", "city": "Stockton", "state": "CA", "type": "Retail/Consumer Services", "vertical": "Commercial", "sqft": 102190.0, "opex": 128035.1824, "valuation": 2048562.9184, "carbon": 271.9228141, "eui": 169.5496723, "image": "CA_6455411_Serpapi.jpg", "lat": 38.0201776, "lon": -121.2663752}, {"id": "CA_6549515", "address": "5631 Lone Tree Way, Brentwood, CA, 94513", "city": "Brentwood", "state": "CA", "type": "Retail/Consumer Services", "vertical": "Commercial", "sqft": 102513.0, "opex": 127477.1224, "valuation": 2039633.9584, "carbon": 254.1499872, "eui": 159.3889959, "image": "CA_6549515_Serpapi.jpg", "lat": 37.9592146, "lon": -121.7455489}, {"id": "CA_6570436", "address": "1955 East Pacheco Boulevard, Los Banos, CA, 93635", "city": "Los Banos", "state": "CA", "type": "Retail/Consumer Services", "vertical": "Commercial", "sqft": 102513.0, "opex": 127322.6043, "valuation": 2037161.6688, "carbon": 302.6675326, "eui": 177.2927357, "image": "CA_6570436_streetview.jpg", "lat": 37.0550261, "lon": -120.825275}, {"id": "CA_6570473", "address": "2150 3Rd Street, Oroville, CA, 95965", "city": "Oroville", "state": "CA", "type": "Retail/Consumer Services", "vertical": "Commercial", "sqft": 102513.0, "opex": 126165.1092, "valuation": 2018641.7472, "carbon": 248.4027878, "eui": 149.2755044, "image": "CA_6570473_streetview.jpg", "lat": 39.5231253, "lon": -121.5704513}, {"id": "CA_6456854", "address": "7150 North Abby Street, Fresno, CA, 93720", "city": "Fresno", "state": "CA", "type": "Retail/Consumer Services", "vertical": "Commercial", "sqft": 95027.0, "opex": 125823.8965, "valuation": 2013182.344, "carbon": 234.4179049, "eui": 167.7708354, "image": "CA_6456854_Serpapi.jpg", "lat": 36.840657, "lon": -119.7862647}, {"id": "CA_6456905", "address": "1100 Tharp Road, Yuba City, CA, 95993", "city": "Yuba City", "state": "CA", "type": "Retail/Consumer Services", "vertical": "Commercial", "sqft": 115058.0, "opex": 125726.5738, "valuation": 2011625.1808, "carbon": 225.9608969, "eui": 134.3836468, "image": "CA_6456905_Serpapi.jpg", "lat": 39.1438974, "lon": -121.650522}, {"id": "CA_6348394", "address": "4825 Redwood Drive, Rohnert Park, CA, 94928", "city": "Rohnert Park", "state": "CA", "type": "Retail/Consumer Services", "vertical": "Commercial", "sqft": 104464.0, "opex": 125689.0774, "valuation": 2011025.2384, "carbon": 274.8456863, "eui": 166.9773765, "image": "CA_6348394_Serpapi.jpg", "lat": 38.3653658, "lon": -122.7165493}, {"id": "CA_6570460", "address": "3175 Highland Avenue, Selma, CA, 93662", "city": "Selma", "state": "CA", "type": "Retail/Consumer Services", "vertical": "Commercial", "sqft": 102513.0, "opex": 125663.1993, "valuation": 2010611.1888, "carbon": 227.5652641, "eui": 145.152176, "image": "CA_6570460_GooglePlaces.jpg", "lat": 36.5796345, "lon": -119.6305382}, {"id": "CA_6539947", "address": "4001 Ming Avenue, Bakersfield, CA, 93309", "city": "Bakersfield", "state": "CA", "type": "Retail/Consumer Services", "vertical": "Commercial", "sqft": 103061.0, "opex": 124997.9628, "valuation": 1999967.4048, "carbon": 240.0438654, "eui": 150.9259361, "image": "CA_6539947_streetview.jpg", "lat": 35.3383491, "lon": -119.0487202}, {"id": "CA_6570446", "address": "2650 Main Street, Red Bluff, CA, 96080", "city": "Red Bluff", "state": "CA", "type": "Retail/Consumer Services", "vertical": "Commercial", "sqft": 102513.0, "opex": 123669.4765, "valuation": 1978711.624, "carbon": 266.9302009, "eui": 158.3384927, "image": "CA_6570446_Serpapi.jpg", "lat": 40.1944802, "lon": -122.2386226}, {"id": "CA_6569775", "address": "8700 Rosedale Highway, Bakersfield, CA, 93312", "city": "Bakersfield", "state": "CA", "type": "Retail/Consumer Services", "vertical": "Commercial", "sqft": 115058.0, "opex": 123338.5019, "valuation": 1973416.0304, "carbon": 228.6475173, "eui": 135.3208304, "image": "CA_6569775_Wheree.jpg", "lat": 35.3855904, "lon": -119.0996248}, {"id": "CA_6549517", "address": "750 South Jaye Street, Porterville, CA, 93257", "city": "Porterville", "state": "CA", "type": "Retail/Consumer Services", "vertical": "Commercial", "sqft": 94981.0, "opex": 122881.0124, "valuation": 1966096.1984, "carbon": 239.1069349, "eui": 175.9033428, "image": "CA_6549517_Serpapi.jpg", "lat": 36.0527398, "lon": -119.0231565}, {"id": "CA_6570164", "address": "4700 Gosford Road, Bakersfield, CA, 93313", "city": "Bakersfield", "state": "CA", "type": "Retail/Consumer Services", "vertical": "Commercial", "sqft": 107920.0, "opex": 122870.6932, "valuation": 1965931.0912, "carbon": 231.7857914, "eui": 145.8603354, "image": "CA_6570164_Serpapi.jpg", "lat": 35.3119765, "lon": -119.0899906}, {"id": "CA_6570463", "address": "1000 Groveland Lane, Lincoln, CA, 95648", "city": "Lincoln", "state": "CA", "type": "Retail/Consumer Services", "vertical": "Commercial", "sqft": 102083.0, "opex": 122513.7335, "valuation": 1960219.736, "carbon": 288.3072975, "eui": 152.8986951, "image": "CA_6570463_Serpapi.jpg", "lat": 38.8736131, "lon": -121.3049188}, {"id": "CA_6348347", "address": "340 West Avenue P, Palmdale, CA, 93551", "city": "Palmdale", "state": "CA", "type": "Retail/Consumer Services", "vertical": "Commercial", "sqft": 118360.0, "opex": 122245.6305, "valuation": 1955930.088, "carbon": 280.3447655, "eui": 153.3077421, "image": "CA_6348347_streetview.jpg", "lat": 34.5991568, "lon": -118.1351263}, {"id": "CA_6456975", "address": "2461 Naglee Road, Tracy, CA, 95304", "city": "Tracy", "state": "CA", "type": "Retail/Consumer Services", "vertical": "Commercial", "sqft": 115058.0, "opex": 119450.2264, "valuation": 1911203.6224, "carbon": 248.7292645, "eui": 144.7084528, "image": "CA_6456975_Mapquest.jpg", "lat": 37.7555968, "lon": -121.4666628}, {"id": "CA_6549547", "address": "15975 Perris Boulevard, Moreno Valley, CA, 92551", "city": "Moreno Valley", "state": "CA", "type": "Retail/Consumer Services", "vertical": "Commercial", "sqft": 102513.0, "opex": 117485.1937, "valuation": 1879763.0992, "carbon": 263.1628341, "eui": 166.830044, "image": "CA_6549547_GooglePlaces.jpg", "lat": 33.8897888, "lon": -117.2277432}, {"id": "CA_6456702", "address": "250 Commerce Avenue, Manteca, CA, 95336", "city": "Manteca", "state": "CA", "type": "Retail/Consumer Services", "vertical": "Commercial", "sqft": 107537.0, "opex": 117105.5306, "valuation": 1873688.4896, "carbon": 237.284818, "eui": 148.2776167, "image": "CA_6456702_streetview.jpg", "lat": 37.7944023, "lon": -121.192635}, {"id": "CA_6539982", "address": "1475 East Valley Parkway, Escondido, CA, 92027", "city": "Escondido", "state": "CA", "type": "Retail/Consumer Services", "vertical": "Commercial", "sqft": 115434.0, "opex": 116849.2006, "valuation": 1869587.2096, "carbon": 247.1225601, "eui": 141.9931635, "image": "CA_6539982_streetview.jpg", "lat": 33.1311702, "lon": -117.060583}, {"id": "CA_6549537", "address": "4864 East Kings Canyon Road, Fresno, CA, 93727", "city": "Fresno", "state": "CA", "type": "Retail/Consumer Services", "vertical": "Commercial", "sqft": 94872.0, "opex": 116343.8748, "valuation": 1861501.9968, "carbon": 227.6730727, "eui": 162.0040479, "image": "CA_6549537_MapQuest.jpg", "lat": 36.7337183, "lon": -119.7332773}, {"id": "CA_6538393", "address": "5010 Feather River Drive, Stockton, CA, 95219", "city": "Stockton", "state": "CA", "type": "Retail/Consumer Services", "vertical": "Commercial", "sqft": 105700.0, "opex": 116026.7283, "valuation": 1856427.6528, "carbon": 252.63404, "eui": 159.0137707, "image": "CA_6538393_streetview.jpg", "lat": 37.9867798, "lon": -121.345943}, {"id": "CA_6346638", "address": "2001 Chess Drive, San Mateo, CA, 94404", "city": "San Mateo", "state": "CA", "type": "Retail/Consumer Services", "vertical": "Commercial", "sqft": 105700.0, "opex": 112946.6162, "valuation": 1807145.8592, "carbon": 245.0443307, "eui": 154.3115791, "image": "CA_6346638_Serpapi.jpg", "lat": 37.5637827, "lon": -122.2808072}, {"id": "CA_55525793", "address": "2300 North Park Boulevard, Pittsburg, CA, 94565", "city": "Pittsburg", "state": "CA", "type": "Retail/Consumer Services", "vertical": "Commercial", "sqft": 100665.0, "opex": 112868.3995, "valuation": 1805894.392, "carbon": 238.2945216, "eui": 150.9561694, "image": "CA_55525793_Mapquest.jpg", "lat": 38.0115725, "lon": -121.8590249}, {"id": "CA_55525994", "address": "100 Bicentennial Way, Santa Rosa, CA, 95403", "city": "Santa Rosa", "state": "CA", "type": "Retail/Consumer Services", "vertical": "Commercial", "sqft": 107920.0, "opex": 112793.7137, "valuation": 1804699.4192, "carbon": 232.6529247, "eui": 131.9183872, "image": "CA_55525994_streetview.jpg", "lat": 38.4690221, "lon": -122.719702}, {"id": "CA_5605234", "address": "625 South Placentia Avenue, Fullerton, CA, 92831", "city": "Fullerton", "state": "CA", "type": "Strip/Enclosed Mall", "vertical": "Commercial", "sqft": 289575.0, "opex": 112604.7488, "valuation": 1668218.500740741, "carbon": 27.03053063, "eui": 32.98248043, "image": "CA_5605234_MerloneGeierPartners.jpg", "lat": 33.8660184, "lon": -117.8857184}, {"id": "CA_6554040", "address": "15655 Roy Rogers Drive, Victorville, CA, 92392", "city": "Victorville", "state": "CA", "type": "Retail/Consumer Services", "vertical": "Commercial", "sqft": 102513.0, "opex": 112191.6153, "valuation": 1795065.8448, "carbon": 272.8822661, "eui": 163.1619121, "image": "CA_6554040_Mapquest.jpg", "lat": 34.5186823, "lon": -117.3250525}, {"id": "CA_6568717", "address": "1625 Mountain Avenue, Monrovia, CA, 91016", "city": "Monrovia", "state": "CA", "type": "Retail/Consumer Services", "vertical": "Commercial", "sqft": 127250.0, "opex": 108359.8403, "valuation": 1733757.4448, "carbon": 251.2125369, "eui": 133.6226632, "image": "CA_6568717_GooglePlaces.jpg", "lat": 34.1338593, "lon": -117.9902451}, {"id": "CA_6570149", "address": "1701 East Ocean Avenue, Lompoc, CA, 93436", "city": "Lompoc", "state": "CA", "type": "Retail/Consumer Services", "vertical": "Commercial", "sqft": 102513.0, "opex": 108026.6537, "valuation": 1728426.4592, "carbon": 250.2815874, "eui": 153.7785883, "image": "CA_6570149_streetview.jpg", "lat": 34.6414632, "lon": -120.4377435}, {"id": "CA_6554046", "address": "963 West Badillo Street, Covina, CA, 91722", "city": "Covina", "state": "CA", "type": "Retail/Consumer Services", "vertical": "Commercial", "sqft": 114700.0, "opex": 107344.449, "valuation": 1717511.184, "carbon": 250.1264804, "eui": 141.0920765, "image": "CA_6554046_streetview.jpg", "lat": 34.0880962, "lon": -117.9098876}, {"id": "CA_6553262", "address": "1890 North Davis Road, Salinas, CA, 93907", "city": "Salinas", "state": "CA", "type": "Retail/Consumer Services", "vertical": "Commercial", "sqft": 114700.0, "opex": 107044.2534, "valuation": 1712708.0544, "carbon": 245.4420453, "eui": 135.2791071, "image": "CA_6553262_Serpapi.jpg", "lat": 36.7172859, "lon": -121.6648165}, {"id": "CA_6568738", "address": "3400 West Florida Avenue, Hemet, CA, 92545", "city": "Hemet", "state": "CA", "type": "Retail/Consumer Services", "vertical": "Commercial", "sqft": 109202.0, "opex": 106865.741, "valuation": 1709851.856, "carbon": 236.5316023, "eui": 147.8001533, "image": "CA_6568738_streetview.jpg", "lat": 33.7491378, "lon": -117.007684}, {"id": "CA_6346608", "address": "14603 Ocean Gate Avenue, Lawndale, CA, 90260", "city": "Lawndale", "state": "CA", "type": "Retail/Consumer Services", "vertical": "Commercial", "sqft": 103543.0, "opex": 105696.4, "valuation": 1691142.4, "carbon": 240.7904633, "eui": 157.88019, "image": "CA_6346608_streetview.jpg", "lat": 33.8994908, "lon": -118.3670911}, {"id": "CA_6346601", "address": "12255 Pigeon Pass Road, Moreno Valley, CA, 92557", "city": "Moreno Valley", "state": "CA", "type": "Retail/Consumer Services", "vertical": "Commercial", "sqft": 100220.0, "opex": 105535.0994, "valuation": 1688561.5904, "carbon": 244.3304613, "eui": 157.5275604, "image": "CA_6346601_streetview.jpg", "lat": 33.9429925, "lon": -117.2630189}, {"id": "CA_6455423", "address": "15150 Bear Valley Road, Victorville, CA, 92395", "city": "Victorville", "state": "CA", "type": "Retail/Consumer Services", "vertical": "Commercial", "sqft": 104366.0, "opex": 105468.5651, "valuation": 1687497.0416, "carbon": 266.0873133, "eui": 162.4201828, "image": "CA_6455423_Twitter.jpg", "lat": 34.4730253, "lon": -117.3331843}, {"id": "CA_6568808", "address": "44226 20Th Street West, Lancaster, CA, 93534", "city": "Lancaster", "state": "CA", "type": "Retail/Consumer Services", "vertical": "Commercial", "sqft": 105700.0, "opex": 105378.8167, "valuation": 1686061.0672, "carbon": 251.9709111, "eui": 160.5084432, "image": "CA_6568808_Serpapi.jpg", "lat": 34.6863376, "lon": -118.1642497}, {"id": "CA_6538520", "address": "1320 Eastlake Parkway, Chula Vista, CA, 91915", "city": "Chula Vista", "state": "CA", "type": "Retail/Consumer Services", "vertical": "Commercial", "sqft": 102445.0, "opex": 105204.9675, "valuation": 1683279.48, "carbon": 234.1019843, "eui": 150.6126004, "image": "CA_6538520_Flickr.jpg", "lat": 32.6328651, "lon": -116.9696051}, {"id": "CA_6570265", "address": "38215 47Th Street East, Palmdale, CA, 93552", "city": "Palmdale", "state": "CA", "type": "Retail/Consumer Services", "vertical": "Commercial", "sqft": 103467.0, "opex": 104788.6082, "valuation": 1676617.7312, "carbon": 36.48152178, "eui": 60.13633565, "image": "CA_6570265_streetview.jpg", "lat": 34.5768059, "lon": -118.0484314}, {"id": "CA_6539884", "address": "510 Orange Drive, Vacaville, CA, 95687", "city": "Vacaville", "state": "CA", "type": "Retail/Consumer Services", "vertical": "Commercial", "sqft": 111429.0, "opex": 103704.2007, "valuation": 1659267.2112, "carbon": 247.0797999, "eui": 145.8092, "image": "CA_6539884_streetview.jpg", "lat": 38.374929, "lon": -121.948725}, {"id": "CA_6348448", "address": "11884 Foothill Boulevard, Rancho Cucamonga, CA, 91730", "city": "Rancho Cucamonga", "state": "CA", "type": "Retail/Consumer Services", "vertical": "Commercial", "sqft": 108818.0, "opex": 102665.849, "valuation": 1642653.584, "carbon": 227.3477794, "eui": 142.5502981, "image": "CA_6348448_Serpapi.jpg", "lat": 34.1085812, "lon": -117.5470164}, {"id": "CA_6456895", "address": "21787 Hesperian Boulevard, Hayward, CA, 94541", "city": "Hayward", "state": "CA", "type": "Retail/Consumer Services", "vertical": "Commercial", "sqft": 107920.0, "opex": 101514.8982, "valuation": 1624238.3712, "carbon": 244.8532363, "eui": 148.9663814, "image": "CA_6456895_Serpapi.jpg", "lat": 37.6633507, "lon": -122.1187135}, {"id": "NYC_3006250065", "address": "550 Hamilton Avenue, New York, NY, 11232", "city": "New York", "state": "NY", "type": "Retail/Consumer Services", "vertical": "Commercial", "sqft": 253341.0, "opex": 100934.4902, "valuation": 2018689.804, "carbon": 25.256362, "eui": 32.20220967, "image": "NYC_3006250065_cyclomedia.jpg", "lat": 40.668108, "lon": -73.996348}, {"id": "CA_6348369", "address": "680 Kifer Road, Sunnyvale, CA, 94086", "city": "Sunnyvale", "state": "CA", "type": "Retail/Consumer Services", "vertical": "Commercial", "sqft": 104553.0, "opex": 100879.5473, "valuation": 1614072.7568, "carbon": 240.3881057, "eui": 151.1867737, "image": "CA_6348369_streetview.jpg", "lat": 37.3753222, "lon": -122.0182138}, {"id": "CA_34552796", "address": "860 East Dunne Avenue, Morgan Hill, CA, 95037", "city": "Morgan Hill", "state": "CA", "type": "Retail/Consumer Services", "vertical": "Commercial", "sqft": 103362.0, "opex": 100739.1109, "valuation": 1611825.7744, "carbon": 224.6107425, "eui": 137.5563239, "image": "CA_34552796_Serpapi.jpg", "lat": 37.129171, "lon": -121.6349055}, {"id": "CA_6568713", "address": "3500 South Demaree Street, Visalia, CA, 93277", "city": "Visalia", "state": "CA", "type": "Retail/Consumer Services", "vertical": "Commercial", "sqft": 103665.0, "opex": 100582.4321, "valuation": 1609318.9136, "carbon": 235.7477601, "eui": 153.6385645, "image": "CA_6568713_GooglePlaces.jpg", "lat": 36.2997226, "lon": -119.3295103}, {"id": "CA_6346650", "address": "1175 Admiral Callaghan Lane, Vallejo, CA, 94591", "city": "Vallejo", "state": "CA", "type": "Retail/Consumer Services", "vertical": "Commercial", "sqft": 104080.0, "opex": 100012.6603, "valuation": 1600202.5648, "carbon": 239.6686475, "eui": 165.649684, "image": "CA_6346650_streetview.jpg", "lat": 38.13626, "lon": -122.2173468}, {"id": "SJ_753", "address": "2855 Story Rd, San Jose, CA, 95127", "city": "San Jose", "state": "CA", "type": "Retail/Consumer Services", "vertical": "Commercial", "sqft": 152463.0, "opex": 98990.38246, "valuation": 1649839.7076666667, "carbon": 192.8411719, "eui": 91.49222379, "image": "SJ_753_Thehomedepot.jpg", "lat": 37.3543633, "lon": -121.824448}, {"id": "CA_6545291", "address": "1860 East Main Street, Woodland, CA, 95776", "city": "Woodland", "state": "CA", "type": "Retail/Consumer Services", "vertical": "Commercial", "sqft": 94872.0, "opex": 98893.0707, "valuation": 1582289.1312, "carbon": 215.6723352, "eui": 158.2919315, "image": "CA_6545291_Serpapi.jpg", "lat": 38.675176, "lon": -121.7362882}, {"id": "CA_55524894", "address": "1590 Canyon Del Rey Boulevard, Seaside, CA, 93955", "city": "Seaside", "state": "CA", "type": "Retail/Consumer Services", "vertical": "Commercial", "sqft": 106750.0, "opex": 98309.81474, "valuation": 1572957.03584, "carbon": 254.6509408, "eui": 141.7734364, "image": "CA_55524894_Serpapi.jpg", "lat": 36.609935, "lon": -121.8557273}, {"id": "CA_6538597", "address": "905 El Camino Real, Atascadero, CA, 93422", "city": "Atascadero", "state": "CA", "type": "Retail/Consumer Services", "vertical": "Commercial", "sqft": 105700.0, "opex": 98209.46963, "valuation": 1571351.51408, "carbon": 247.1043849, "eui": 153.6723312, "image": "CA_6538597_LoopNet.jpg", "lat": 35.526462, "lon": -120.7004034}, {"id": "CA_6554061", "address": "1781 East Bayshore Road, East Palo Alto, CA, 94303", "city": "East Palo Alto", "state": "CA", "type": "Retail/Consumer Services", "vertical": "Commercial", "sqft": 105700.0, "opex": 97859.78542, "valuation": 1565756.56672, "carbon": 202.2255787, "eui": 128.2064885, "image": "CA_6554061_AppleMaps.jpg", "lat": 37.4589043, "lon": -122.1354674}, {"id": "CA_6539923", "address": "1625 Sycamore Avenue, Hercules, CA, 94547", "city": "Hercules", "state": "CA", "type": "Retail/Consumer Services", "vertical": "Commercial", "sqft": 94984.0, "opex": 97700.85831, "valuation": 1563213.73296, "carbon": 229.4125277, "eui": 159.0348638, "image": "CA_6539923_Yelp.jpg", "lat": 38.0108744, "lon": -122.2680472}, {"id": "CA_6545443", "address": "355 South Green Valley Road, Watsonville, CA, 95076", "city": "Watsonville", "state": "CA", "type": "Retail/Consumer Services", "vertical": "Commercial", "sqft": 98091.0, "opex": 97039.79811, "valuation": 1552636.76976, "carbon": 250.159851, "eui": 166.0344461, "image": "CA_6545443_streetview.jpg", "lat": 36.9323183, "lon": -121.7775707}, {"id": "CA_6568773", "address": "7100 Warner Avenue, Huntington Beach, CA, 92647", "city": "Huntington Beach", "state": "CA", "type": "Retail/Consumer Services", "vertical": "Commercial", "sqft": 105543.0, "opex": 96709.3791, "valuation": 1547350.0656, "carbon": 235.9677902, "eui": 150.0336026, "image": "CA_6568773_Serpapi.jpg", "lat": 33.714258, "lon": -118.0054995}, {"id": "CA_6568828", "address": "1355 East Ontario Avenue, Corona, CA, 92881", "city": "Corona", "state": "CA", "type": "Retail/Consumer Services", "vertical": "Commercial", "sqft": 105700.0, "opex": 96480.3462, "valuation": 1543685.5392, "carbon": 235.0437231, "eui": 149.2622128, "image": "CA_6568828_Serpapi.jpg", "lat": 33.8490458, "lon": -117.5376605}, {"id": "CA_6568743", "address": "10801 Garden Grove Boulevard, Garden Grove, CA, 92843", "city": "Garden Grove", "state": "CA", "type": "Retail/Consumer Services", "vertical": "Commercial", "sqft": 105688.0, "opex": 96119.71471, "valuation": 1537915.43536, "carbon": 230.3374074, "eui": 146.6904042, "image": "CA_6568743_Serpapi.jpg", "lat": 33.7749129, "lon": -117.9444879}, {"id": "CA_6348196", "address": "2090 Meridian Park Boulevard, Concord, CA, 94520", "city": "Concord", "state": "CA", "type": "Retail/Consumer Services", "vertical": "Commercial", "sqft": 102220.0, "opex": 95212.79218, "valuation": 1523404.67488, "carbon": 223.3809273, "eui": 143.9778957, "image": "CA_6348196_Yelp.jpg", "lat": 37.9756089, "lon": -122.0540919}, {"id": "CA_6554084", "address": "500 South Marengo Avenue, Alhambra, CA, 91803", "city": "Alhambra", "state": "CA", "type": "Retail/Consumer Services", "vertical": "Commercial", "sqft": 102190.0, "opex": 95145.20468, "valuation": 1522323.27488, "carbon": 218.6403557, "eui": 145.0367438, "image": "CA_6554084_Yelp.jpg", "lat": 34.0851019, "lon": -118.1406118}, {"id": "CA_6446513", "address": "20642 Golden Triangle Road, Santa Clarita, CA, 91351", "city": "Santa Clarita", "state": "CA", "type": "Retail/Consumer Services", "vertical": "Commercial", "sqft": 102190.0, "opex": 95120.69935, "valuation": 1521931.1896, "carbon": 218.8929773, "eui": 145.1689004, "image": "CA_6446513_Serpapi.jpg", "lat": 34.4189066, "lon": -118.4971621}, {"id": "CA_6568710", "address": "5000 Hardwick Street, Lakewood, CA, 90712", "city": "Lakewood", "state": "CA", "type": "Retail/Consumer Services", "vertical": "Commercial", "sqft": 102200.0, "opex": 94902.49645, "valuation": 1518439.9432, "carbon": 238.6251507, "eui": 155.9231717, "image": "CA_6568710_streetview.jpg", "lat": 33.8493458, "lon": -118.1349434}, {"id": "CA_6539973", "address": "1551 Froom Ranch Way, San Luis Obispo, CA, 93405", "city": "San Luis Obispo", "state": "CA", "type": "Retail/Consumer Services", "vertical": "Commercial", "sqft": 105700.0, "opex": 94562.44973, "valuation": 1512999.19568, "carbon": 230.0300747, "eui": 142.7383254, "image": "CA_6539973_Serpapi.jpg", "lat": 35.2503207, "lon": -120.6895832}, {"id": "CA_6568735", "address": "43900 Ice House Terrace, Fremont, CA, 94538", "city": "Fremont", "state": "CA", "type": "Retail/Consumer Services", "vertical": "Commercial", "sqft": 107920.0, "opex": 94514.48358, "valuation": 1512231.73728, "carbon": 235.2547654, "eui": 142.5800197, "image": "CA_6568735_GooglePlaces.jpg", "lat": 37.5107921, "lon": -121.9460667}, {"id": "CA_6568853", "address": "1750 East Edinger Avenue, Santa Ana, CA, 92705", "city": "Santa Ana", "state": "CA", "type": "Retail/Consumer Services", "vertical": "Commercial", "sqft": 107920.0, "opex": 94246.28448, "valuation": 1507940.55168, "carbon": 229.8070868, "eui": 142.9136127, "image": "CA_6568853_streetview.jpg", "lat": 33.7253583, "lon": -117.8430483}, {"id": "NYC_4050660622", "address": "131-35 Avery Ave., New York, NY, 11355", "city": "New York", "state": "NY", "type": "Retail/Consumer Services", "vertical": "Commercial", "sqft": 155246.0, "opex": 93534.14195, "valuation": 1870682.839, "carbon": 25.32537978, "eui": 49.6513018, "image": "NYC_4050660622_Wheree.jpg", "lat": 40.752278, "lon": -73.834377}, {"id": "CA_6568847", "address": "9700 Lower Azusa Road, El Monte, CA, 91731", "city": "El Monte", "state": "CA", "type": "Retail/Consumer Services", "vertical": "Commercial", "sqft": 107794.0, "opex": 93001.44756, "valuation": 1488023.16096, "carbon": 228.5117088, "eui": 143.5482325, "image": "CA_6568847_MapQuest.jpg", "lat": 34.0882325, "lon": -118.0542856}, {"id": "CA_6568851", "address": "2500 Las Positas Road, Livermore, CA, 94551", "city": "Livermore", "state": "CA", "type": "Retail/Consumer Services", "vertical": "Commercial", "sqft": 107748.0, "opex": 92800.53664, "valuation": 1484808.58624, "carbon": 212.2380372, "eui": 130.2012412, "image": "CA_6568851_GooglePlaces.jpg", "lat": 37.6988384, "lon": -121.7704776}, {"id": "CA_6570379", "address": "1100 L Street, Barstow, CA, 92311", "city": "Barstow", "state": "CA", "type": "Retail/Consumer Services", "vertical": "Commercial", "sqft": 134324.0, "opex": 92093.1357, "valuation": 1473490.1712, "carbon": 214.340953, "eui": 114.3441697, "image": "CA_6570379_Serpapi.jpg", "lat": 34.8857014, "lon": -117.0597325}, {"id": "CA_6568849", "address": "8850 San Ysidro Avenue, Gilroy, CA, 95020", "city": "Gilroy", "state": "CA", "type": "Retail/Consumer Services", "vertical": "Commercial", "sqft": 105700.0, "opex": 91938.78514, "valuation": 1471020.56224, "carbon": 221.8006157, "eui": 137.7720985, "image": "CA_6568849_GooglePlaces.jpg", "lat": 37.0289144, "lon": -121.5660775}, {"id": "CA_6568829", "address": "6280 Hembree Lane, Windsor, CA, 95492", "city": "Windsor", "state": "CA", "type": "Retail/Consumer Services", "vertical": "Commercial", "sqft": 107920.0, "opex": 91779.14348, "valuation": 1468466.29568, "carbon": 228.9408559, "eui": 138.7174088, "image": "CA_6568829_Serpapi.jpg", "lat": 38.5285126, "lon": -122.7856256}, {"id": "CA_6570242", "address": "8801 South La Cienega Boulevard, Inglewood, CA, 90301", "city": "Inglewood", "state": "CA", "type": "Retail/Consumer Services", "vertical": "Commercial", "sqft": 100365.0, "opex": 90295.13572, "valuation": 1444722.17152, "carbon": 188.9501387, "eui": 125.8285857, "image": "CA_6570242_streetview.jpg", "lat": 33.957412, "lon": -118.3707736}, {"id": "CA_6543798", "address": "2655 Mount Vernon Avenue, Bakersfield, CA, 93306", "city": "Bakersfield", "state": "CA", "type": "Retail/Consumer Services", "vertical": "Commercial", "sqft": 115058.0, "opex": 88303.73748, "valuation": 1412859.79968, "carbon": 132.8722733, "eui": 90.31430583, "image": "CA_6543798_MapQuest.jpg", "lat": 35.3922547, "lon": -118.9639628}, {"id": "CA_55525695", "address": "2600 41St Avenue, Soquel, CA, 95073", "city": "Soquel", "state": "CA", "type": "Retail/Consumer Services", "vertical": "Commercial", "sqft": 96332.0, "opex": 86993.55366, "valuation": 1391896.85856, "carbon": 189.7370608, "eui": 125.0456014, "image": "CA_55525695_Thehomedepot.jpg", "lat": 36.9844979, "lon": -121.9631304}, {"id": "SJ_561", "address": "975 Saratoga Sunnyvale Rd, San Jose, CA, 95129", "city": "San Jose", "state": "CA", "type": "Retail/Consumer Services", "vertical": "Commercial", "sqft": 105744.0, "opex": 86131.60873, "valuation": 1435526.8121666668, "carbon": 204.7448324, "eui": 128.2484138, "image": "SJ_561_GooglePlaces.jpg", "lat": 37.311063, "lon": -122.0337828}, {"id": "NYC_4038860074", "address": "75-11 Woodhaven Blvd, New York, NY, 11385", "city": "New York", "state": "NY", "type": "Retail/Consumer Services", "vertical": "Commercial", "sqft": 121731.0, "opex": 84335.08909, "valuation": 1686701.7817999998, "carbon": 119.8231001, "eui": 86.87757432, "image": "NYC_4038860074_Serpapi.jpg", "lat": 40.708631, "lon": -73.859395}, {"id": "SJ_673", "address": "635 W Capitol Expy, San Jose, CA, 95136", "city": "San Jose", "state": "CA", "type": "Retail/Consumer Services", "vertical": "Commercial", "sqft": 122244.0, "opex": 82414.6348, "valuation": 1373577.2466666668, "carbon": 150.3385261, "eui": 93.05555653, "image": "SJ_673_Serpapi.jpg", "lat": 37.2754931, "lon": -121.8587517}, {"id": "CA_55525993", "address": "12300 La Mirada Boulevard, La Mirada, CA, 90638", "city": "La Mirada", "state": "CA", "type": "Retail/Consumer Services", "vertical": "Commercial", "sqft": 105325.0, "opex": 82331.16893, "valuation": 1317298.70288, "carbon": 231.0021847, "eui": 141.381692, "image": "CA_55525993_Serpapi.jpg", "lat": 33.9184167, "lon": -118.0092767}, {"id": "CA_6346593", "address": "435 West Katella Avenue, Orange, CA, 92867", "city": "Orange", "state": "CA", "type": "Retail/Consumer Services", "vertical": "Commercial", "sqft": 102220.0, "opex": 80630.66353, "valuation": 1290090.61648, "carbon": 202.0587238, "eui": 132.0753311, "image": "CA_6346593_Serpapi.jpg", "lat": 33.8109009, "lon": -117.8566013}, {"id": "CA_6570238", "address": "507 North Mill Street, Tehachapi, CA, 93561", "city": "Tehachapi", "state": "CA", "type": "Retail/Consumer Services", "vertical": "Commercial", "sqft": 102629.0, "opex": 80226.59669, "valuation": 1283625.54704, "carbon": 147.8321217, "eui": 104.0919372, "image": "CA_6570238_streetview.jpg", "lat": 35.138366, "lon": -118.4537297}, {"id": "CA_6346562", "address": "18131 Gale Avenue, City Of Industry, CA, 91748", "city": "City Of Industry", "state": "CA", "type": "Retail/Consumer Services", "vertical": "Commercial", "sqft": 106216.0, "opex": 79936.86868, "valuation": 1278989.89888, "carbon": 209.949292, "eui": 134.9285456, "image": "CA_6346562_Serpapi.jpg", "lat": 33.9960117, "lon": -117.9078736}, {"id": "CA_6348251", "address": "2121 Cadenasso Drive, Fairfield, CA, 94533", "city": "Fairfield", "state": "CA", "type": "Retail/Consumer Services", "vertical": "Commercial", "sqft": 101350.0, "opex": 78445.06169, "valuation": 1255120.98704, "carbon": 123.4977919, "eui": 94.51578994, "image": "CA_6348251_Loopnet.jpg", "lat": 38.2470812, "lon": -122.0700733}, {"id": "CA_6424728", "address": "10001 Fairway Drive, Roseville, CA, 95678", "city": "Roseville", "state": "CA", "type": "Retail/Consumer Services", "vertical": "Commercial", "sqft": 107920.0, "opex": 76973.68583, "valuation": 1231578.97328, "carbon": 70.57156335, "eui": 59.47277287, "image": "CA_6424728_Serpapi.jpg", "lat": 38.7827975, "lon": -121.2742601}, {"id": "CA_6406639", "address": "34249 Monterey Avenue, Rancho Mirage, CA, 92270", "city": "Rancho Mirage", "state": "CA", "type": "Retail/Consumer Services", "vertical": "Commercial", "sqft": 102340.0, "opex": 71360.84671, "valuation": 1141773.54736, "carbon": 46.4183126, "eui": 53.56792863, "image": "CA_6406639_Serpapi.jpg", "lat": 33.7986961, "lon": -116.3893256}, {"id": "CA_6415326", "address": "1177 Great Mall Drive, Milpitas, CA, 95035", "city": "Milpitas", "state": "CA", "type": "Retail/Consumer Services", "vertical": "Commercial", "sqft": 110117.0, "opex": 69902.30116, "valuation": 1118436.81856, "carbon": 132.7349558, "eui": 90.64112842, "image": "CA_6415326_Serpapi.jpg", "lat": 37.4156323, "lon": -121.9012619}, {"id": "LA_999000000378", "address": "5600 W Sunset Blvd, Los Angeles, CA 90028", "city": "Los Angeles", "state": "CA", "type": "Retail/Consumer Services", "vertical": "Commercial", "sqft": 109989.0, "opex": 68983.64643, "valuation": 1199715.5900869565, "carbon": 14.10367598, "eui": 48.8, "image": "LA_999000000378_Google.jpg", "lat": 34.0975845, "lon": -118.3127702}, {"id": "CA_6415349", "address": "5230 Squire Wells Way, Riverbank, CA, 95367", "city": "Riverbank", "state": "CA", "type": "Retail/Consumer Services", "vertical": "Commercial", "sqft": 102513.0, "opex": 67674.96115, "valuation": 1082799.3784, "carbon": 39.25447905, "eui": 51.42176838, "image": "CA_6415349_Serpapi.jpg", "lat": 37.7128178, "lon": -120.9498056}, {"id": "CA_6415354", "address": "690 Riverpoint Court, West Sacramento, CA, 95605", "city": "West Sacramento", "state": "CA", "type": "Retail/Consumer Services", "vertical": "Commercial", "sqft": 102513.0, "opex": 67467.17114, "valuation": 1079474.73824, "carbon": 37.40141471, "eui": 49.86618807, "image": "CA_6415354_streetview.jpg", "lat": 38.590208, "lon": -121.5466341}, {"id": "CHI_119323", "address": "2665 N Halsted St, Chicago, IL, 60614", "city": "Chicago", "state": "IL", "type": "Retail/Consumer Services", "vertical": "Commercial", "sqft": 80069.0, "opex": 65593.76272, "valuation": 1009134.811076923, "carbon": 155.6085163, "eui": 113.6682915, "image": "CHI_119323_Serpapi.jpg", "lat": 41.993818, "lon": -87.793081}, {"id": "DC_5485634", "address": "901 Rhode Island Ave NE, Washington, DC 20018", "city": "Washington", "state": "DC", "type": "Retail/Consumer Services", "vertical": "Commercial", "sqft": 117738.0, "opex": 65542.15319, "valuation": 1191675.5125454543, "carbon": 91.75390078, "eui": 90.8924022, "image": "DC_5485634_mapillary.jpg", "lat": 38.9208488, "lon": -76.99085812}, {"id": "CA_6406668", "address": "4255 Genesee Avenue, San Diego, CA, 92117", "city": "San Diego", "state": "CA", "type": "Retail/Consumer Services", "vertical": "Commercial", "sqft": 98961.0, "opex": 64845.16367, "valuation": 1037522.61872, "carbon": 28.75008771, "eui": 45.31413883, "image": "CA_6406668_Serpapi.jpg", "lat": 32.8229411, "lon": -117.1806994}, {"id": "CA_6432188", "address": "520 U.S. 101, Crescent City, CA, 95531", "city": "Crescent City", "state": "CA", "type": "Retail/Consumer Services", "vertical": "Commercial", "sqft": 94429.0, "opex": 62516.34926, "valuation": 1000261.58816, "carbon": 109.2825782, "eui": 92.90086838, "image": "CA_6432188_PointsWestSurveyingC.jpg", "lat": 41.7631837, "lon": -124.199171}, {"id": "CA_6346633", "address": "1125 Old County Road, San Carlos, CA, 94070", "city": "San Carlos", "state": "CA", "type": "Retail/Consumer Services", "vertical": "Commercial", "sqft": 102220.0, "opex": 61618.27516, "valuation": 985892.40256, "carbon": 57.40233143, "eui": 60.52291826, "image": "CA_6346633_streetview.jpg", "lat": 37.5014027, "lon": -122.249968}, {"id": "CA_6424382", "address": "5600 Sunset Boulevard, Los Angeles, CA, 90028", "city": "Los Angeles", "state": "CA", "type": "Retail/Consumer Services", "vertical": "Commercial", "sqft": 109989.0, "opex": 61560.68271, "valuation": 984970.92336, "carbon": 12.58605433, "eui": 43.55070366, "image": "CA_6424382_Yelp.jpg", "lat": 34.0975845, "lon": -118.3127702}, {"id": "CA_6424447", "address": "79900 California 111, La Quinta, CA, 92253", "city": "La Quinta", "state": "CA", "type": "Retail/Consumer Services", "vertical": "Commercial", "sqft": 105648.0, "opex": 60742.31803, "valuation": 971877.08848, "carbon": 37.63978404, "eui": 49.34222115, "image": "CA_6424447_Wyndham.jpg", "lat": 33.7089166, "lon": -116.2705103}, {"id": "CA_2683486", "address": "42100 Jackson Street, Indio, CA, 92203", "city": "Indio", "state": "CA", "type": "Retail/Consumer Services", "vertical": "Commercial", "sqft": 102867.0, "opex": 60102.62596, "valuation": 961642.01536, "carbon": 18.68407043, "eui": 40.89072686, "image": "CA_2683486_Yelp.jpg", "lat": 33.742506, "lon": -116.2129267}, {"id": "CA_6406630", "address": "845 West Shaw Avenue, Clovis, CA, 93612", "city": "Clovis", "state": "CA", "type": "Retail/Consumer Services", "vertical": "Commercial", "sqft": 103380.0, "opex": 59127.47369, "valuation": 946039.57904, "carbon": 30.05203414, "eui": 43.01026381, "image": "CA_6406630_Serpapi.jpg", "lat": 36.8095341, "lon": -119.7279106}, {"id": "CHI_121774", "address": "1232 W North Ave, Chicago, IL, 60622", "city": "Chicago", "state": "IL", "type": "Retail/Consumer Services", "vertical": "Commercial", "sqft": 167560.0, "opex": 57981.94021, "valuation": 892029.8493846153, "carbon": 209.8502229, "eui": 80.29575352, "image": "CHI_121774_Serpapi.jpg", "lat": 41.965574, "lon": -87.652522}, {"id": "BOS_103609", "address": "5 Allstate Rd, Boston, MA, 02125", "city": "Boston", "state": "MA", "type": "Retail/Consumer Services", "vertical": "Commercial", "sqft": 115901.0, "opex": 57980.72462, "valuation": 1054194.9930909092, "carbon": 49.37291439, "eui": 60.76680788, "image": "BOS_103609_MapQuest.jpg", "lat": 42.3281273, "lon": -71.0637516}, {"id": "CA_6570274", "address": "2980 South Euclid Avenue, Ontario, CA, 91762", "city": "Ontario", "state": "CA", "type": "Retail/Consumer Services", "vertical": "Commercial", "sqft": 102698.0, "opex": 57718.12581, "valuation": 923490.01296, "carbon": 17.94280217, "eui": 39.3346931, "image": "CA_6570274_streetview.jpg", "lat": 34.0204923, "lon": -117.6521831}, {"id": "KC_111100110", "address": "111 E Linwood Ave, Kansas City, MO, 64111", "city": "Kansas City", "state": "MO", "type": "Retail/Consumer Services", "vertical": "Commercial", "sqft": 131260.0, "opex": 56816.65591, "valuation": 811666.5129999999, "carbon": 85.74738115, "eui": 65.0, "image": "KC_111100110_streetview.jpg", "lat": 39.0666457, "lon": -94.5835627}, {"id": "CA_6348237", "address": "324 North Sunrise Avenue, Roseville, CA, 95661", "city": "Roseville", "state": "CA", "type": "Retail/Consumer Services", "vertical": "Commercial", "sqft": 103120.0, "opex": 56007.91172, "valuation": 896126.58752, "carbon": 43.00740156, "eui": 52.5515625, "image": "CA_6348237_Serpapi.jpg", "lat": 38.7532386, "lon": -121.2631731}, {"id": "CA_6424474", "address": "3611 Truxel Road, Sacramento, CA, 95834", "city": "Sacramento", "state": "CA", "type": "Retail/Consumer Services", "vertical": "Commercial", "sqft": 106452.0, "opex": 55830.96922, "valuation": 893295.50752, "carbon": 35.12355812, "eui": 44.91827431, "image": "CA_6424474_streetview.jpg", "lat": 38.6329675, "lon": -121.5061312}, {"id": "CA_6424410", "address": "1735 California 140, Merced, CA, 95341", "city": "Merced", "state": "CA", "type": "Retail/Consumer Services", "vertical": "Commercial", "sqft": 105700.0, "opex": 55550.65509, "valuation": 888810.48144, "carbon": 37.18806355, "eui": 46.84302255, "image": "CA_6424410_Serpapi.jpg", "lat": 37.3041394, "lon": -120.5064644}, {"id": "LA_432940813909", "address": "12975 W Jefferson Blvd, Los Angeles, CA, 90066", "city": "Los Angeles", "state": "CA", "type": "Retail/Consumer Services", "vertical": "Commercial", "sqft": 162788.0, "opex": 55408.01727, "valuation": 963617.6916521738, "carbon": 11.10176282, "eui": 25.68408851, "image": "LA_432940813909_streetview.jpg", "lat": 33.9766512, "lon": -118.4237948}, {"id": "NYC_4129990044", "address": "13220 Merrick Blvd, New York, NY, 11434", "city": "New York", "state": "NY", "type": "Retail/Consumer Services", "vertical": "Commercial", "sqft": 136649.0, "opex": 54605.08561, "valuation": 1092101.7122, "carbon": 111.0906678, "eui": 74.47879458, "image": "NYC_4129990044_MapQuest.jpg", "lat": 40.6769951, "lon": -73.7575307}, {"id": "CA_6549558", "address": "575 North China Lake Boulevard, Ridgecrest, CA, 93555", "city": "Ridgecrest", "state": "CA", "type": "Retail/Consumer Services", "vertical": "Commercial", "sqft": 96164.0, "opex": 54558.46918, "valuation": 872935.50688, "carbon": 87.11063635, "eui": 76.66389947, "image": "CA_6549558_streetview.jpg", "lat": 35.6310213, "lon": -117.6714626}, {"id": "NYC_4001200050", "address": "50-10 Northern Boulevard, New York, NY, 11101", "city": "New York", "state": "NY", "type": "Retail/Consumer Services", "vertical": "Commercial", "sqft": 136026.0, "opex": 51158.13547, "valuation": 1023162.7094, "carbon": 42.56599687, "eui": 45.50599224, "image": "NYC_4001200050_USA.jpg", "lat": 40.753228, "lon": -73.912145}, {"id": "NYC_4026570040", "address": "59-15 Maurice Avenue, New York, NY, 11378", "city": "New York", "state": "NY", "type": "Retail/Consumer Services", "vertical": "Commercial", "sqft": 126690.0, "opex": 49953.44243, "valuation": 999068.8486, "carbon": 10.44797492, "eui": 32.46430973, "image": "NYC_4026570040_Yelp.jpg", "lat": 40.726447, "lon": -73.908428}, {"id": "CA_6570469", "address": "11755 Willow Creek Drive, Auburn, CA, 95603", "city": "Auburn", "state": "CA", "type": "Retail/Consumer Services", "vertical": "Commercial", "sqft": 102693.0, "opex": 49533.86325, "valuation": 792541.812, "carbon": 10.11837181, "eui": 32.1033342, "image": "CA_6570469_Serpapi.jpg", "lat": 38.9385441, "lon": -121.0984329}, {"id": "CA_6406580", "address": "111 Shoreline Parkway, San Rafael, CA, 94901", "city": "San Rafael", "state": "CA", "type": "Retail/Consumer Services", "vertical": "Commercial", "sqft": 102190.0, "opex": 48896.3823, "valuation": 782342.1168, "carbon": 43.91307409, "eui": 52.10345362, "image": "CA_6406580_Serpapi.jpg", "lat": 37.9532944, "lon": -122.4928931}, {"id": "CA_6432178", "address": "2220 South Azusa Avenue, West Covina, CA, 91792", "city": "West Covina", "state": "CA", "type": "Retail/Consumer Services", "vertical": "Commercial", "sqft": 114700.0, "opex": 48549.96244, "valuation": 776799.39904, "carbon": 30.12359301, "eui": 38.45826416, "image": "CA_6432178_Serpapi.jpg", "lat": 34.0366992, "lon": -117.910803}, {"id": "CA_6415341", "address": "600 Placerville Drive, Placerville, CA, 95667", "city": "Placerville", "state": "CA", "type": "Retail/Consumer Services", "vertical": "Commercial", "sqft": 96584.0, "opex": 48304.4379, "valuation": 772871.0064, "carbon": 28.17835315, "eui": 54.81491758, "image": "CA_6415341_Serpapi.jpg", "lat": 38.7311395, "lon": -120.8242102}, {"id": "CA_6424416", "address": "3323 Madison Street, Riverside, CA, 92504", "city": "Riverside", "state": "CA", "type": "Retail/Consumer Services", "vertical": "Commercial", "sqft": 107619.0, "opex": 47912.90187, "valuation": 766606.42992, "carbon": 31.28429143, "eui": 43.48265431, "image": "CA_6424416_Serpapi.jpg", "lat": 33.9359525, "lon": -117.4014892}, {"id": "KC_371104710", "address": "4707 E Bannister Rd, Kansas City, MO, 64137", "city": "Kansas City", "state": "MO", "type": "Retail/Consumer Services", "vertical": "Commercial", "sqft": 131516.0, "opex": 45892.29661, "valuation": 655604.2372857141, "carbon": 69.26039864, "eui": 52.4, "image": "KC_371104710_Serpapi.jpg", "lat": 38.9529957, "lon": -94.5342013}, {"id": "CA_6432190", "address": "1480 East 2Nd Street, Beaumont, CA, 92223", "city": "Beaumont", "state": "CA", "type": "Retail/Consumer Services", "vertical": "Commercial", "sqft": 103441.0, "opex": 45793.96395, "valuation": 732703.4232, "carbon": 35.32219274, "eui": 45.5634404, "image": "", "lat": 33.9253157, "lon": -116.9548488}, {"id": "CA_6265565", "address": "250 South Mountain Avenue, Upland, CA, 91786", "city": "Upland", "state": "CA", "type": "Retail/Consumer Services", "vertical": "Commercial", "sqft": 98064.0, "opex": 45712.24464, "valuation": 731395.91424, "carbon": 64.38907756, "eui": 61.84728135, "image": "CA_6265565_Serpapi.jpg", "lat": 34.091303, "lon": -117.6685095}, {"id": "CA_55524210", "address": "303 Lake Merced Boulevard, Daly City, CA, 94015", "city": "Daly City", "state": "CA", "type": "Retail/Consumer Services", "vertical": "Commercial", "sqft": 99980.0, "opex": 45235.18707, "valuation": 723762.99312, "carbon": 18.27818077, "eui": 32.06172054, "image": "CA_55524210_streetview.jpg", "lat": 37.6988975, "lon": -122.4830816}, {"id": "CA_6424478", "address": "1200 South Flower Street, Burbank, CA, 91502", "city": "Burbank", "state": "CA", "type": "Retail/Consumer Services", "vertical": "Commercial", "sqft": 115130.0, "opex": 45028.94403, "valuation": 720463.10448, "carbon": 33.27956466, "eui": 40.74553731, "image": "CA_6424478_Yelp.jpg", "lat": 34.169753, "lon": -118.29904}, {"id": "NYC_2045040412", "address": "1806 East Gun Hill Road, New York, NY, 10469", "city": "New York", "state": "NY", "type": "Retail/Consumer Services", "vertical": "Commercial", "sqft": 115459.0, "opex": 44954.24456, "valuation": 899084.8912, "carbon": 67.63729595, "eui": 63.76264648, "image": "NYC_2045040412_Yelp.jpg", "lat": 40.863902, "lon": -73.833839}, {"id": "CA_6424718", "address": "9150 West Stockton Boulevard, Elk Grove, CA, 95758", "city": "Elk Grove", "state": "CA", "type": "Retail/Consumer Services", "vertical": "Commercial", "sqft": 107920.0, "opex": 44913.05533, "valuation": 718608.88528, "carbon": 75.09767197, "eui": 68.10656562, "image": "CA_6424718_streetview.jpg", "lat": 38.4249755, "lon": -121.4024146}, {"id": "CA_55525103", "address": "1055 West 21St Street, San Bernardino, CA, 92405", "city": "San Bernardino", "state": "CA", "type": "Retail/Consumer Services", "vertical": "Commercial", "sqft": 126490.0, "opex": 44838.7857, "valuation": 717420.5712, "carbon": 30.16296655, "eui": 36.88897225, "image": "CA_55525103_LoopNet.jpg", "lat": 34.1329099, "lon": -117.3067565}, {"id": "CA_55523202", "address": "2 Colma Boulevard, Colma, CA, 94014", "city": "Colma", "state": "CA", "type": "Retail/Consumer Services", "vertical": "Commercial", "sqft": 99540.0, "opex": 43778.93119, "valuation": 700462.89904, "carbon": 30.65099651, "eui": 42.29751588, "image": "CA_55523202_Serpapi.jpg", "lat": 37.6753551, "lon": -122.4670691}, {"id": "KC_571108510", "address": "8598 N Church Rd, Kansas City, MO, 64157", "city": "Kansas City", "state": "MO", "type": "Retail/Consumer Services", "vertical": "Commercial", "sqft": 120327.0, "opex": 43750.76351, "valuation": 625010.9072857142, "carbon": 66.02841011, "eui": 54.6, "image": "KC_571108510_Serpapi.jpg", "lat": 39.2480379, "lon": -94.4576094}, {"id": "CA_6346570", "address": "695 East Hospitality Lane, San Bernardino, CA, 92408", "city": "San Bernardino", "state": "CA", "type": "Retail/Consumer Services", "vertical": "Commercial", "sqft": 122200.0, "opex": 43422.10615, "valuation": 694753.6984, "carbon": 19.47397723, "eui": 35.27409247, "image": "CA_6346570_streetview.jpg", "lat": 34.06494, "lon": -117.270383}, {"id": "LA_472056737094", "address": "2115 N Gaffey St, San Pedro, CA 90731", "city": "San Pedro", "state": "CA", "type": "Retail/Consumer Services", "vertical": "Commercial", "sqft": 105192.0, "opex": 43027.96098, "valuation": 748312.3648695652, "carbon": 15.0928548, "eui": 30.83946308, "image": "LA_472056737094_GooglePlaces.jpg", "lat": 33.7652064, "lon": -118.2948679}, {"id": "CA_6406672", "address": "2800 Countryside Drive, Turlock, CA, 95380", "city": "Turlock", "state": "CA", "type": "Retail/Consumer Services", "vertical": "Commercial", "sqft": 105700.0, "opex": 42150.46121, "valuation": 674407.37936, "carbon": 25.63552266, "eui": 44.34609463, "image": "CA_6406672_Serpapi.jpg", "lat": 37.5191052, "lon": -120.8773467}, {"id": "CA_6424722", "address": "2675 East Bidwell Street, Folsom, CA, 95630", "city": "Folsom", "state": "CA", "type": "Retail/Consumer Services", "vertical": "Commercial", "sqft": 107741.0, "opex": 42094.33827, "valuation": 673509.41232, "carbon": 24.04094002, "eui": 41.81309359, "image": "CA_6424722_Serpapi.jpg", "lat": 38.6559019, "lon": -121.1282571}, {"id": "CA_21128232", "address": "2881 East Walnut Street, Pasadena, CA, 91107", "city": "Pasadena", "state": "CA", "type": "Retail/Consumer Services", "vertical": "Commercial", "sqft": 113580.0, "opex": 41995.7845, "valuation": 671932.552, "carbon": 10.44625239, "eui": 34.64585897, "image": "CA_21128232_Serpapi.jpg", "lat": 34.1483841, "lon": -118.0910101}, {"id": "CA_55524211", "address": "1037 Arnold Drive, Martinez, CA, 94553", "city": "Martinez", "state": "CA", "type": "Retail/Consumer Services", "vertical": "Commercial", "sqft": 100000.0, "opex": 41885.65303, "valuation": 670170.44848, "carbon": 26.32991367, "eui": 36.668142, "image": "CA_55524211_Serpapi.jpg", "lat": 37.9955341, "lon": -122.1069993}, {"id": "NYC_4043950002", "address": "31-44 125 Street, New York, NY, 11354", "city": "New York", "state": "NY", "type": "Retail/Consumer Services", "vertical": "Commercial", "sqft": 116592.0, "opex": 41809.91154, "valuation": 836198.2308, "carbon": 55.97524961, "eui": 54.26671556, "image": "NYC_4043950002_FlatironNoMadPartner.jpg", "lat": 40.76871, "lon": -73.844022}, {"id": "SJ_638", "address": "2181 Monterey Hwy, San Jose, CA, 95125", "city": "San Jose", "state": "CA", "type": "Retail/Consumer Services", "vertical": "Commercial", "sqft": 117030.0, "opex": 41659.62443, "valuation": 694327.0738333334, "carbon": 24.74368974, "eui": 37.33546876, "image": "SJ_638_Serpapi.jpg", "lat": 37.3078844, "lon": -121.8737388}, {"id": "CA_42115292", "address": "27401 La Paz Road, Laguna Niguel, CA, 92677", "city": "Laguna Niguel", "state": "CA", "type": "Retail/Consumer Services", "vertical": "Commercial", "sqft": 120204.0, "opex": 39487.80243, "valuation": 631804.83888, "carbon": 7.569320485, "eui": 24.62163129, "image": "CA_42115292_Wheree.jpg", "lat": 33.5650143, "lon": -117.7092963}, {"id": "CA_12068888", "address": "3500 Market Place, Monterey Park, CA, 91755", "city": "Monterey Park", "state": "CA", "type": "Retail/Consumer Services", "vertical": "Commercial", "sqft": 106299.0, "opex": 39439.01494, "valuation": 631024.23904, "carbon": 9.810268082, "eui": 34.76517175, "image": "CA_12068888_streetview.jpg", "lat": 34.0372249, "lon": -118.1014686}, {"id": "CA_6876201", "address": "12960 Foothill Boulevard, San Fernando, CA, 91340", "city": "San Fernando", "state": "CA", "type": "Retail/Consumer Services", "vertical": "Commercial", "sqft": 90064.0, "opex": 39170.91992, "valuation": 626734.71872, "carbon": 31.90581833, "eui": 51.04455014, "image": "CA_6876201_Serpapi.jpg", "lat": 34.2940054, "lon": -118.4186835}, {"id": "LA_493663852866", "address": "2055 N Figueroa St, Los Angeles, CA 90065", "city": "Los Angeles", "state": "CA", "type": "Retail/Consumer Services", "vertical": "Commercial", "sqft": 132535.0, "opex": 38986.87104, "valuation": 678032.5398260868, "carbon": 8.11281896, "eui": 27.51958803, "image": "LA_493663852866_GooglePlaces.jpg", "lat": 34.0831063, "lon": -118.2252505}, {"id": "CA_6406724", "address": "1461 Meadowview Road, Sacramento, CA, 95832", "city": "Sacramento", "state": "CA", "type": "Retail/Consumer Services", "vertical": "Commercial", "sqft": 106400.0, "opex": 38765.43175, "valuation": 620246.908, "carbon": 22.48404321, "eui": 39.35704591, "image": "CA_6406724_Serpapi.jpg", "lat": 38.4828805, "lon": -121.5030973}, {"id": "ATL_327", "address": "650 Ponce De Leon Ave NE, Atlanta, GA, 30308", "city": "Atlanta", "state": "GA", "type": "Retail/Consumer Services", "vertical": "Commercial", "sqft": 131534.0, "opex": 38567.02401, "valuation": 571363.3186666666, "carbon": 24.55992071, "eui": 51.2, "image": "ATL_327_TheHomeDepot.jpg", "lat": 33.7763035, "lon": -84.3666912}, {"id": "CA_6424419", "address": "8000 Folsom Boulevard, Sacramento, CA, 95826", "city": "Sacramento", "state": "CA", "type": "Retail/Consumer Services", "vertical": "Commercial", "sqft": 104983.0, "opex": 38473.37606, "valuation": 615574.01696, "carbon": 45.83719669, "eui": 52.61654965, "image": "CA_6424419_Serpapi.jpg", "lat": 38.5488135, "lon": -121.4114313}, {"id": "CHI_118700", "address": "4555 S Western Blvd, Chicago, IL, 60609", "city": "Chicago", "state": "IL", "type": "Retail/Consumer Services", "vertical": "Commercial", "sqft": 103699.0, "opex": 38396.50957, "valuation": 590715.5318461539, "carbon": 138.7977137, "eui": 82.36963354, "image": "CHI_118700_Serpapi.jpg", "lat": 41.780727, "lon": -87.615782}, {"id": "CA_6424705", "address": "5859 Antelope Road, Sacramento, CA, 95842", "city": "Sacramento", "state": "CA", "type": "Retail/Consumer Services", "vertical": "Commercial", "sqft": 109618.0, "opex": 38213.95167, "valuation": 611423.22672, "carbon": 39.18121987, "eui": 50.33665644, "image": "CA_6424705_streetview.jpg", "lat": 38.7049085, "lon": -121.328786}, {"id": "CA_55524213", "address": "16800 Roscoe Boulevard, Los Angeles, CA, 91406", "city": "Los Angeles", "state": "CA", "type": "Retail/Consumer Services", "vertical": "Commercial", "sqft": 107920.0, "opex": 38068.1252, "valuation": 609090.0032, "carbon": 22.69153045, "eui": 37.80746468, "image": "CA_55524213_Serpapi.jpg", "lat": 34.2197381, "lon": -118.4993982}, {"id": "KC_541108940", "address": "8900 NW Skyview Ave, Kansas City, MO, 64154", "city": "Kansas City", "state": "MO", "type": "Retail/Consumer Services", "vertical": "Commercial", "sqft": 137516.0, "opex": 37546.32491, "valuation": 536376.0701428571, "carbon": 55.06823687, "eui": 42.3, "image": "KC_541108940_streetview.jpg", "lat": 39.2559895, "lon": -94.6523001}, {"id": "CA_55525992", "address": "24451 Crenshaw Blvd, Torrance, CA, 90505", "city": "Torrance", "state": "CA", "type": "Retail/Consumer Services", "vertical": "Commercial", "sqft": 121156.0, "opex": 37201.36493, "valuation": 595221.83888, "carbon": 28.67296765, "eui": 35.26227361, "image": "CA_55525992_streetview.jpg", "lat": 33.8031534, "lon": -118.3306705}, {"id": "CA_6424670", "address": "20021 Lake Forest Drive, Lake Forest, CA, 92630", "city": "Lake Forest", "state": "CA", "type": "Retail/Consumer Services", "vertical": "Commercial", "sqft": 107920.0, "opex": 36817.33447, "valuation": 589077.35152, "carbon": 24.60020372, "eui": 39.19547879, "image": "CA_6424670_Serpapi.jpg", "lat": 33.6712505, "lon": -117.6623687}, {"id": "ORL_144005", "address": "4403 Millenia Plaza Way, Orlando, FL 32839", "city": "Orlando", "state": "FL", "type": "Retail/Consumer Services", "vertical": "Commercial", "sqft": 115710.0, "opex": 36604.05974, "valuation": 563139.3806153846, "carbon": 45.71685041, "eui": 38.3, "image": "ORL_144005_Mapquest.jpg", "lat": 28.56970914, "lon": -81.35633825}, {"id": "CA_55523201", "address": "2435 Lafayette Street, Santa Clara, CA, 95050", "city": "Santa Clara", "state": "CA", "type": "Retail/Consumer Services", "vertical": "Commercial", "sqft": 95700.0, "opex": 36175.31973, "valuation": 578805.11568, "carbon": 32.67116343, "eui": 43.30298519, "image": "CA_55523201_streetview.jpg", "lat": 37.3653579, "lon": -121.9486665}, {"id": "CA_55525895", "address": "19101 Magnolia Street, Huntington Beach, CA, 92646", "city": "Huntington Beach", "state": "CA", "type": "Retail/Consumer Services", "vertical": "Commercial", "sqft": 100577.0, "opex": 35853.02363, "valuation": 573648.37808, "carbon": 21.15807432, "eui": 33.71062623, "image": "CA_55525895_streetview.jpg", "lat": 33.6852012, "lon": -117.9730418}, {"id": "CA_55525694", "address": "5401 Thornton Avenue, Newark, CA, 94560", "city": "Newark", "state": "CA", "type": "Retail/Consumer Services", "vertical": "Commercial", "sqft": 92057.0, "opex": 35843.19984, "valuation": 573491.19744, "carbon": 21.20595392, "eui": 34.29978687, "image": "CA_55525694_Yelp.jpg", "lat": 37.5442962, "lon": -122.0267403}, {"id": "LA_426951900571", "address": "7870 Van Nuys Blvd, Panorama City, CA 91402", "city": "Panorama City", "state": "CA", "type": "Retail/Consumer Services", "vertical": "Commercial", "sqft": 129711.0, "opex": 35589.38295, "valuation": 618945.7904347826, "carbon": 10.82880946, "eui": 23.20323643, "image": "LA_426951900571_Serpapi.jpg", "lat": 34.213793, "lon": -118.4456989}, {"id": "CA_55525106", "address": "2455 East Imperial Highway, Brea, CA, 92821", "city": "Brea", "state": "CA", "type": "Retail/Consumer Services", "vertical": "Commercial", "sqft": 111586.0, "opex": 34524.75065, "valuation": 552396.0104, "carbon": 23.16644081, "eui": 32.79630418, "image": "CA_55525106_streetview.jpg", "lat": 33.9133361, "lon": -117.8690544}, {"id": "CA_6424372", "address": "1550 West Valley Parkway, Escondido, CA, 92029", "city": "Escondido", "state": "CA", "type": "Retail/Consumer Services", "vertical": "Commercial", "sqft": 102170.0, "opex": 34213.50566, "valuation": 547416.09056, "carbon": 16.26113431, "eui": 33.50698661, "image": "CA_6424372_GooglePlaces.jpg", "lat": 33.1108632, "lon": -117.1060686}, {"id": "CA_6424743", "address": "1415 East Hatch Road, Modesto, CA, 95351", "city": "Modesto", "state": "CA", "type": "Retail/Consumer Services", "vertical": "Commercial", "sqft": 102513.0, "opex": 34064.35712, "valuation": 545029.71392, "carbon": 29.79852133, "eui": 42.50646747, "image": "CA_6424743_Serpapi.jpg", "lat": 37.610563, "lon": -120.9702105}, {"id": "LA_467206817929", "address": "1830 W Slauson Ave, Los Angeles, CA 90047", "city": "Los Angeles", "state": "CA", "type": "Retail/Consumer Services", "vertical": "Commercial", "sqft": 131848.0, "opex": 34031.42634, "valuation": 591850.8928695652, "carbon": 6.017556115, "eui": 20.51858125, "image": "LA_467206817929_GooglePlaces.jpg", "lat": 33.987511, "lon": -118.3113088}, {"id": "CA_6348457", "address": "4641 Florin Road, Sacramento, CA, 95823", "city": "Sacramento", "state": "CA", "type": "Retail/Consumer Services", "vertical": "Commercial", "sqft": 100845.0, "opex": 33428.17497, "valuation": 534850.79952, "carbon": 36.85044772, "eui": 49.86915199, "image": "CA_6348457_streetview.jpg", "lat": 38.4976372, "lon": -121.4525577}, {"id": "CA_6433554", "address": "2756 Sunrise Boulevard, Rancho Cordova, CA, 95742", "city": "Rancho Cordova", "state": "CA", "type": "Retail/Consumer Services", "vertical": "Commercial", "sqft": 101830.0, "opex": 32609.97014, "valuation": 521759.52224, "carbon": 16.45244556, "eui": 34.30803512, "image": "CA_6433554_streetview.jpg", "lat": 38.6006352, "lon": -121.2681803}, {"id": "PDX_1S2E04A-1508-B5", "address": "9900 SE Washington St, Portland, OR, 97216", "city": "Portland", "state": "OR", "type": "Retail/Consumer Services", "vertical": "Commercial", "sqft": 113760.986, "opex": 32213.43333, "valuation": 460191.9047142857, "carbon": 49.74495029, "eui": 64.5, "image": "", "lat": 45.5155902, "lon": -122.5601058}, {"id": "SJ_587", "address": "1855 Hillsdale Ave, San Jose, CA, 95124", "city": "San Jose", "state": "CA", "type": "Retail/Consumer Services", "vertical": "Commercial", "sqft": 110310.0, "opex": 32164.88375, "valuation": 536081.3958333334, "carbon": 20.39272617, "eui": 35.78834274, "image": "SJ_587_streetview.jpg", "lat": 37.2633429, "lon": -121.9213552}, {"id": "CA_6415312", "address": "32020 Temecula Parkway, Temecula, CA, 92592", "city": "Temecula", "state": "CA", "type": "Retail/Consumer Services", "vertical": "Commercial", "sqft": 105700.0, "opex": 31003.10919, "valuation": 496049.74704, "carbon": 15.75908543, "eui": 30.52650047, "image": "CA_6415312_Yelp.jpg", "lat": 33.4829615, "lon": -117.0987144}, {"id": "NYC_5029220020", "address": "545 Targee St., New York, NY, 10304", "city": "New York", "state": "NY", "type": "Retail/Consumer Services", "vertical": "Commercial", "sqft": 78894.0, "opex": 30908.45473, "valuation": 618169.0946, "carbon": 39.15047046, "eui": 59.55476842, "image": "NYC_5029220020_streetview.jpg", "lat": 40.613642, "lon": -74.084815}, {"id": "PHL_96674", "address": "2539 Castor Avenue, Philadelphia, PA, 19134", "city": "Philadelphia", "state": "PA", "type": "Retail/Consumer Services", "vertical": "Commercial", "sqft": 118181.0, "opex": 30832.01661, "valuation": 474338.71707692306, "carbon": 71.82103859, "eui": 65.17119266, "image": "PHL_96674_GooglePlaces.jpg", "lat": 39.99238898, "lon": -75.0911708}, {"id": "CA_6424466", "address": "575 Cochran Street, Simi Valley, CA, 93065", "city": "Simi Valley", "state": "CA", "type": "Retail/Consumer Services", "vertical": "Commercial", "sqft": 105600.0, "opex": 30098.91409, "valuation": 481582.62544, "carbon": 19.88939757, "eui": 37.16905553, "image": "CA_6424466_Serpapi.jpg", "lat": 34.2810502, "lon": -118.787109}, {"id": "CA_6415318", "address": "6400 Alondra Boulevard, Paramount, CA, 90723", "city": "Paramount", "state": "CA", "type": "Retail/Consumer Services", "vertical": "Commercial", "sqft": 115025.0, "opex": 28890.39933, "valuation": 462246.38928, "carbon": 18.22260573, "eui": 34.35880901, "image": "CA_6415318_Serpapi.jpg", "lat": 33.8876782, "lon": -118.185587}, {"id": "CA_6424667", "address": "3200 Puente Avenue, Baldwin Park, CA, 91706", "city": "Baldwin Park", "state": "CA", "type": "Retail/Consumer Services", "vertical": "Commercial", "sqft": 107920.0, "opex": 28404.01955, "valuation": 454464.3128, "carbon": 17.13256543, "eui": 35.16498045, "image": "CA_6424667_MapQuest.jpg", "lat": 34.0725473, "lon": -117.9577587}, {"id": "PHL_96950", "address": "815 Hendrix Street, Philadelphia, PA, 19116", "city": "Philadelphia", "state": "PA", "type": "Retail/Consumer Services", "vertical": "Commercial", "sqft": 97022.0, "opex": 28241.03586, "valuation": 434477.4747692307, "carbon": 59.39428039, "eui": 60.00483058, "image": "PHL_96950_streetview.jpg", "lat": 40.1192799, "lon": -75.01534618}, {"id": "CA_6406645", "address": "25100 Madison Avenue, Murrieta, CA, 92562", "city": "Murrieta", "state": "CA", "type": "Retail/Consumer Services", "vertical": "Commercial", "sqft": 102650.0, "opex": 27534.63267, "valuation": 440554.12272, "carbon": 10.10767123, "eui": 25.20914329, "image": "CA_6406645_streetview.jpg", "lat": 33.5565514, "lon": -117.1974622}, {"id": "SEA_3026049093", "address": "11616 Aurora Ave N, Seattle, WA, 98133", "city": "Seattle", "state": "WA", "type": "Retail/Consumer Services", "vertical": "Commercial", "sqft": 101830.0, "opex": 26806.4084, "valuation": 446773.4733333333, "carbon": 29.45111429, "eui": 68.7278798, "image": "SEA_3026049093_Yelp.jpg", "lat": 47.71392, "lon": -122.34364}, {"id": "CA_6424422", "address": "24332 El Toro Road, Laguna Hills, CA, 92637", "city": "Laguna Hills", "state": "CA", "type": "Retail/Consumer Services", "vertical": "Commercial", "sqft": 105700.0, "opex": 24302.39176, "valuation": 388838.26816, "carbon": 11.3385721, "eui": 25.47676244, "image": "CA_6424422_Serpapi.jpg", "lat": 33.6066683, "lon": -117.7305565}, {"id": "CA_6424712", "address": "110 East Sepulveda Boulevard, Carson, CA, 90745", "city": "Carson", "state": "CA", "type": "Retail/Consumer Services", "vertical": "Commercial", "sqft": 107748.0, "opex": 24274.30437, "valuation": 388388.86992, "carbon": 15.09293483, "eui": 30.58464433, "image": "CA_6424712_Serpapi.jpg", "lat": 33.8062493, "lon": -118.2744059}, {"id": "PDX_1N2E15AC-300-B1", "address": "11633 NE Glenn Widing Dr, Portland, OR, 97220", "city": "Portland", "state": "OR", "type": "Retail/Consumer Services", "vertical": "Commercial", "sqft": 101784.1038, "opex": 23708.49717, "valuation": 338692.81671428564, "carbon": 42.18353268, "eui": 62.0, "image": "", "lat": 45.5715993, "lon": -122.5454446}, {"id": "CA_6424649", "address": "91 Colma Boulevard, Colma, CA, 94014", "city": "Colma", "state": "CA", "type": "Retail/Consumer Services", "vertical": "Commercial", "sqft": 81366.0, "opex": 23464.02566, "valuation": 375424.41056, "carbon": 26.11061841, "eui": 50.77760686, "image": "CA_6424649_Reitnotes.jpg", "lat": 37.6784016, "lon": -122.4651011}, {"id": "CA_6424655", "address": "600 South Harbor Boulevard, La Habra, CA, 90631", "city": "La Habra", "state": "CA", "type": "Retail/Consumer Services", "vertical": "Commercial", "sqft": 107920.0, "opex": 23436.22919, "valuation": 374979.66704, "carbon": 17.26049107, "eui": 33.72577978, "image": "CA_6424655_Loopnet.jpg", "lat": 33.9261695, "lon": -117.9320399}, {"id": "ATL_403", "address": "3885 Jonesboro Rd SE, Atlanta, GA, 30354", "city": "Atlanta", "state": "GA", "type": "Retail/Consumer Services", "vertical": "Commercial", "sqft": 107328.0, "opex": 22091.58719, "valuation": 327282.77318518516, "carbon": 12.66248174, "eui": 42.9, "image": "ATL_403_Serpapi.jpg", "lat": 33.6488477, "lon": -84.365373}, {"id": "ATL_629", "address": "1032 Research Center Atlanta Dr SW, Atlanta, GA, 30331", "city": "Atlanta", "state": "GA", "type": "Retail/Consumer Services", "vertical": "Commercial", "sqft": 131689.0, "opex": 21967.64908, "valuation": 325446.653037037, "carbon": 11.34331219, "eui": 34.3, "image": "ATL_629_MapQuest.jpg", "lat": 33.7273079, "lon": -84.5040297}, {"id": "CA_6424455", "address": "2120 South Bradley Road, Santa Maria, CA, 93455", "city": "Santa Maria", "state": "CA", "type": "Retail/Consumer Services", "vertical": "Commercial", "sqft": 105700.0, "opex": 20905.5874, "valuation": 334489.3984, "carbon": 12.41252794, "eui": 25.15768874, "image": "CA_6424455_Serpapi.jpg", "lat": 34.9220227, "lon": -120.4190184}, {"id": "CA_6406717", "address": "3040 Slauson Avenue, Huntington Park, CA, 90255", "city": "Huntington Park", "state": "CA", "type": "Retail/Consumer Services", "vertical": "Commercial", "sqft": 107920.0, "opex": 20552.752, "valuation": 328844.032, "carbon": 12.22370207, "eui": 27.26743853, "image": "CA_6406717_TheHomeDepot.jpg", "lat": 33.9878428, "lon": -118.2148328}, {"id": "PDX_2N1E33-100-B3", "address": "1555 N Tomahawk Island Dr, Portland, OR, 97217", "city": "Portland", "state": "OR", "type": "Retail/Consumer Services", "vertical": "Commercial", "sqft": 106535.4299, "opex": 19994.5705, "valuation": 285636.72142857144, "carbon": 34.66212078, "eui": 60.1, "image": "", "lat": 45.6135034, "lon": -122.6826941}, {"id": "PDX_2N1E33-100-B10", "address": "1555 N Tomahawk Island Dr, Portland, OR, 97217", "city": "Portland", "state": "OR", "type": "Strip/Enclosed Mall", "vertical": "Commercial", "sqft": 104356.8386, "opex": 18368.92476, "valuation": 272132.21866666665, "carbon": 11.87445392, "eui": 38.9, "image": "", "lat": 45.6135034, "lon": -122.6826941}, {"id": "PHL_96261", "address": "1651 Christopher Columbus Blvd, Philadelphia, PA, 19148", "city": "Philadelphia", "state": "PA", "type": "Retail/Consumer Services", "vertical": "Commercial", "sqft": 135560.0, "opex": 17414.53285, "valuation": 267915.88999999996, "carbon": 36.9852016, "eui": 42.32431499, "image": "PHL_96261_streetview.jpg", "lat": 39.92568299, "lon": -75.14307766}, {"id": "SEA_7985400295", "address": "7345 Delridge Way SW, Seattle, WA, 98106", "city": "Seattle", "state": "WA", "type": "Retail/Consumer Services", "vertical": "Commercial", "sqft": 94713.0, "opex": 16484.35498, "valuation": 274739.24966666667, "carbon": 14.80717936, "eui": 50.59193564, "image": "SEA_7985400295_streetview.jpg", "lat": 47.53655, "lon": -122.36377}, {"id": "CA_59803193", "address": "10060 Mills Station Road, Sacramento, CA, 95827", "city": "Sacramento", "state": "CA", "type": "Retail/Consumer Services", "vertical": "Commercial", "sqft": 117294.0, "opex": 11114.5352, "valuation": 177832.5632, "carbon": 11.0462546, "eui": 19.94570424, "image": "CA_59803193_streetview.jpg", "lat": 38.579743, "lon": -121.311007}, {"id": "CA_6432163", "address": "12131 Beach Boulevard, Stanton, CA, 90680", "city": "Stanton", "state": "CA", "type": "Retail/Consumer Services", "vertical": "Commercial", "sqft": 115577.0, "opex": 7748.115038, "valuation": 123969.840608, "carbon": 5.048891305, "eui": 11.0801186, "image": "CA_6432163_streetview.jpg", "lat": 33.7865877, "lon": -117.9939052}, {"id": "LA_474458774565", "address": "740 W 182Nd St, Gardena, CA 90248", "city": "Gardena", "state": "CA", "type": "Retail/Consumer Services", "vertical": "Commercial", "sqft": 135000.0, "opex": 6213.485319, "valuation": 108060.61424347828, "carbon": 2.035273917, "eui": 5.611577037, "image": "LA_474458774565_Serpapi.jpg", "lat": 33.8684975, "lon": -118.2866469}, {"id": "CA_55524208", "address": "740 West 182Nd Street, Gardena, CA, 90248", "city": "Gardena", "state": "CA", "type": "Retail/Consumer Services", "vertical": "Commercial", "sqft": 135000.0, "opex": 6213.485319, "valuation": 99415.765104, "carbon": 2.035273917, "eui": 5.611577037, "image": "CA_55524208_Serpapi.jpg", "lat": 33.8684975, "lon": -118.2866469}, {"id": "PDX_2N1E33-100-B6", "address": "1555 N Tomahawk Island Dr, Portland, OR, 97217", "city": "Portland", "state": "OR", "type": "Strip/Enclosed Mall", "vertical": "Commercial", "sqft": 30000.87686, "opex": 4130.0756, "valuation": 61186.305185185185, "carbon": 3.123337955, "eui": 40.8, "image": "", "lat": 45.6135034, "lon": -122.6826941}]