[{"id": "CA_3188579", "address": "5770 Freeport Boulevard, Sacramento, CA, 95822", "city": "Sacramento", "state": "CA", "type": "Office", "vertical": "Commercial", "sqft": 104971.0, "opex": 162049.8283, "valuation": 2160664.3773333333, "carbon": 116.6847412, "eui": 64.20244609, "image": "CA_3188579_streetview.jpg", "lat": 38.5216336, "lon": -121.4990158}, {"id": "CA_36208861", "address": "3636 American River Drive, Sacramento, CA, 95864", "city": "Sacramento", "state": "CA", "type": "Office", "vertical": "Commercial", "sqft": 119341.0, "opex": 107005.5115, "valuation": 1426740.153333333, "carbon": 58.91032424, "eui": 56.06687271, "image": "", "lat": 38.5702523, "lon": -121.3771145}, {"id": "CA_21009431", "address": "601 Sequoia Pacific Boulevard, Sacramento, CA, 95811", "city": "Sacramento", "state": "CA", "type": "Office", "vertical": "Commercial", "sqft": 108000.0, "opex": 53472.33295, "valuation": 712964.4393333334, "carbon": 93.63730225, "eui": 53.6871569, "image": "CA_21009431_Serpapi.jpg", "lat": 38.5998963, "lon": -121.4959941}, {"id": "CA_21375378", "address": "10391 Peter A Mccuen Blvd, Sacramento, CA, 95827", "city": "Sacramento", "state": "CA", "type": "Office", "vertical": "Commercial", "sqft": 184000.0, "opex": 19190.52682, "valuation": 0.0, "carbon": 32.78952761, "eui": 45.28730109, "image": "CA_21375378_streetview.jpg", "lat": 38.5692026, "lon": -121.3035274}, {"id": "CA_27510500", "address": "2450 Florin Road, Sacramento, CA, 95822", "city": "Sacramento", "state": "CA", "type": "Office", "vertical": "Commercial", "sqft": 52252.0, "opex": 15795.94086, "valuation": 0.0, "carbon": 18.62651492, "eui": 62.80554348, "image": "CA_27510500_streetview.jpg", "lat": 38.4950212, "lon": -121.481055}]