[{"id": "CA_11908548", "address": "2400 East 4Th Street, National City, CA, 91950", "city": "National City", "state": "CA", "type": "Hospital/Clinic", "vertical": "Healthcare", "sqft": 221000.0, "opex": 188421.2484, "valuation": 0.0, "carbon": 371.0568247, "eui": 401.7850084, "image": "CA_11908548_streetview.jpg", "lat": 32.6851132, "lon": -117.0828852}, {"id": "CA_11908771", "address": "1100 Butte Street, Redding, CA, 96001", "city": "Redding", "state": "CA", "type": "Hospital/Clinic", "vertical": "Healthcare", "sqft": 233000.0, "opex": 173080.9317, "valuation": 0.0, "carbon": 269.5570297, "eui": 310.4073867, "image": "CA_11908771_streetview.jpg", "lat": 40.5855541, "lon": -122.3877573}, {"id": "CA_26940463", "address": "21080 Ca-1, Huntington Beach, CA, 92648", "city": "Huntington Beach", "state": "CA", "type": "Hotel", "vertical": "Commercial", "sqft": 195060.0, "opex": 168239.9344, "valuation": 2102999.1799999997, "carbon": 131.0880959, "eui": 131.5324574, "image": "CA_26940463_streetview.jpg", "lat": 33.6540089, "lon": -117.9958044}, {"id": "CA_12422105", "address": "3300 East Guasti Road, Ontario, CA, 91761", "city": "Ontario", "state": "CA", "type": "Medical Office/Lab", "vertical": "Healthcare", "sqft": 65281.0, "opex": 59542.08187, "valuation": 793894.4249333334, "carbon": 73.34789457, "eui": 82.34553199, "image": "CA_12422105_streetview.jpg", "lat": 34.064276, "lon": -117.5782568}, {"id": "CA_36100198", "address": "2143 East Convention Center Way, Ontario, CA, 91764", "city": "Ontario", "state": "CA", "type": "Office", "vertical": "Commercial", "sqft": 53906.0, "opex": 53836.68968, "valuation": 717822.5290666667, "carbon": 62.75307395, "eui": 67.96124832, "image": "CA_36100198_streetview.jpg", "lat": 34.0667044, "lon": -117.6032021}, {"id": "CA_11907151", "address": "5451 Walnut Avenue, Chino, CA, 91710", "city": "Chino", "state": "CA", "type": "Hospital/Clinic", "vertical": "Healthcare", "sqft": 111078.0, "opex": 48259.67707, "valuation": 0.0, "carbon": 162.6612725, "eui": 366.824681, "image": "CA_11907151_cvmccom.jpg", "lat": 34.0255159, "lon": -117.6860029}, {"id": "CA_35593718", "address": "3480 East Guasti Road, Ontario, CA, 91761", "city": "Ontario", "state": "CA", "type": "Office", "vertical": "Commercial", "sqft": 79455.0, "opex": 42921.82771, "valuation": 572291.0361333333, "carbon": 80.3355541, "eui": 58.04473601, "image": "CA_35593718_streetview.jpg", "lat": 34.0645152, "lon": -117.576503}, {"id": "CA_11907300", "address": "12555 Garden Grove Boulevard, Garden Grove, CA, 92843", "city": "Garden Grove", "state": "CA", "type": "Medical Office/Lab", "vertical": "Healthcare", "sqft": 57487.0, "opex": 40118.48233, "valuation": 534913.0977333334, "carbon": 64.54308589, "eui": 80.27615513, "image": "CA_11907300_gardengrovehospitalc.jpg", "lat": 33.774997, "lon": -117.9138304}, {"id": "PHL_246535", "address": "5800 Ridge Ave, Philadelphia, PA, 19128", "city": "Philadelphia", "state": "PA", "type": "Hospital/Clinic", "vertical": "Healthcare", "sqft": 220718.0, "opex": 37640.40739, "valuation": 0.0, "carbon": 32.8094484, "eui": 267.0396843, "image": "PHL_246535_Serpapi.jpg", "lat": 40.02915402, "lon": -75.21202622}, {"id": "CA_11907196", "address": "16850 Bear Valley Road, Victorville, CA, 92395", "city": "Victorville", "state": "CA", "type": "Hospital/Clinic", "vertical": "Healthcare", "sqft": 122140.0, "opex": 34792.00628, "valuation": 0.0, "carbon": 42.85644477, "eui": 210.8480743, "image": "CA_11907196_streetview.jpg", "lat": 34.4722857, "lon": -117.2980128}, {"id": "CA_11908611", "address": "5000 San Bernardino Street, Montclair, CA, 91763", "city": "Montclair", "state": "CA", "type": "Hospital/Clinic", "vertical": "Healthcare", "sqft": 74857.0, "opex": 20116.85163, "valuation": 0.0, "carbon": 84.12755229, "eui": 357.7063388, "image": "CA_11908611_Serpapi.jpg", "lat": 34.0787364, "lon": -117.6960075}]