[{"id": "CA_37597693", "address": "5521 Alton Parkway, Irvine, CA, 92618", "city": "Irvine", "state": "CA", "type": "Retail/Consumer Services", "vertical": "Commercial", "sqft": 118572.0, "opex": 207646.3525, "valuation": 3322341.64, "carbon": 80.03074195, "eui": 93.4660435, "image": "CA_37597693_Serpapi.jpg", "lat": 33.6703614, "lon": -117.7867194}, {"id": "CA_37597394", "address": "7660 El Camino Real, Carlsbad, CA, 92009", "city": "Carlsbad", "state": "CA", "type": "Retail/Consumer Services", "vertical": "Commercial", "sqft": 50689.0, "opex": 169807.616, "valuation": 2716921.856, "carbon": 147.413718, "eui": 237.7222727, "image": "CA_37597394_streetview.jpg", "lat": 33.0873499, "lon": -117.2670605}, {"id": "CA_37595699", "address": "3305 State Street, Santa Barbara, CA, 93105", "city": "Santa Barbara", "state": "CA", "type": "Retail/Consumer Services", "vertical": "Commercial", "sqft": 78034.0, "opex": 140000.9764, "valuation": 2240015.6224, "carbon": 40.56322793, "eui": 75.54650966, "image": "CA_37595699_Serpapi.jpg", "lat": 34.439052, "lon": -119.7350935}, {"id": "CA_37594494", "address": "2707 Via De La Valle, Del Mar, CA, 92014", "city": "Del Mar", "state": "CA", "type": "Grocery/Supercenter", "vertical": "Commercial", "sqft": 75480.0, "opex": 44368.92109, "valuation": 739482.0181666667, "carbon": 30.75349541, "eui": 135.7566777, "image": "CA_37594494_streetview.jpg", "lat": 32.9788941, "lon": -117.2489571}, {"id": "LA_441852879574", "address": "4720 Laurel Canyon Blvd, Valley Village, CA 91607", "city": "Valley Village", "state": "CA", "type": "Grocery/Supercenter", "vertical": "Commercial", "sqft": 28360.0, "opex": 28804.36768, "valuation": 480072.79466666665, "carbon": 8.494172731, "eui": 392.4, "image": "LA_441852879574_streetview.jpg", "lat": 34.156417, "lon": -118.39602}]