[{"id": "CA_59190192", "address": "4650 W Sunset Blvd, Los Angeles, CA, 90027", "city": "Los Angeles", "state": "CA", "type": "Hospital/Clinic", "vertical": "Healthcare", "sqft": 1226164.0, "opex": 613820.6499, "valuation": 0.0, "carbon": 1172.847429, "eui": 304.4096473, "image": "CA_59190192_streetview.jpg", "lat": 34.0975416, "lon": -118.2912946}, {"id": "CA_6023355", "address": "4546 Sunset Boulevard, Los Angeles, CA, 90027", "city": "Los Angeles", "state": "CA", "type": "Office", "vertical": "Commercial", "sqft": 235484.0, "opex": 284302.1969, "valuation": 3790695.9586666664, "carbon": 76.11375465, "eui": 54.18417854, "image": "CA_6023355_streetview.jpg", "lat": 34.0979739, "lon": -118.2887565}, {"id": "LA_473563857933", "address": "4650 Sunset Blvd, Los Angeles, CA 90027", "city": "Los Angeles", "state": "CA", "type": "Hospital/Clinic", "vertical": "Healthcare", "sqft": 756397.0, "opex": 228742.1841, "valuation": 0.0, "carbon": 75.00723439, "eui": 268.8, "image": "LA_473563857933_streetview.jpg", "lat": 34.097451, "lon": -118.2898877}, {"id": "SEA_660001255", "address": "1915 Terry Ave, Seattle, WA, 98101", "city": "Seattle", "state": "WA", "type": "Office", "vertical": "Commercial", "sqft": 274362.0, "opex": 58729.03296, "valuation": 783053.7728, "carbon": 42.31173076, "eui": 30.03174638, "image": "SEA_660001255_streetview.jpg", "lat": 47.61628, "lon": -122.33391}, {"id": "LA_474244858121", "address": "4550 W Sunset Blvd, Los Angeles, CA 90027", "city": "Los Angeles", "state": "CA", "type": "Hospital/Clinic", "vertical": "Healthcare", "sqft": 235484.0, "opex": 52181.10412, "valuation": 719739.3671724139, "carbon": 11.48588833, "eui": 54.2, "image": "LA_474244858121_streetview.jpg", "lat": 34.097535, "lon": -118.29008}, {"id": "LA_473554858304", "address": "4661 W Sunset Blvd, Los Angeles, CA 90027", "city": "Los Angeles", "state": "CA", "type": "Hospital/Clinic", "vertical": "Healthcare", "sqft": 156709.0, "opex": 45562.29025, "valuation": 628445.3827586207, "carbon": 8.652455456, "eui": 93.0, "image": "LA_473554858304_streetview.jpg", "lat": 34.0983257, "lon": -118.2910075}, {"id": "LA_473817857752", "address": "4616 De Longpre Ave, Los Angeles, CA 90027", "city": "Los Angeles", "state": "CA", "type": "Hospital/Clinic", "vertical": "Healthcare", "sqft": 99114.0, "opex": 12244.67684, "valuation": 0.0, "carbon": 3.528609257, "eui": 63.38267651, "image": "", "lat": 34.096845, "lon": -118.2901627}, {"id": "LA_475240857669", "address": "4400 W Sunset Blvd, Los Angeles, CA 90027", "city": "Los Angeles", "state": "CA", "type": "Hospital/Clinic", "vertical": "Healthcare", "sqft": 41440.0, "opex": 6734.493738, "valuation": 92889.5688, "carbon": 1.482368845, "eui": 46.4, "image": "LA_475240857669_Www.jpg", "lat": 34.0788066, "lon": -118.2683992}]