[{"id": "NYC_1014820020", "address": "535 E. 70Th St, New York, NY, 10021", "city": "New York", "state": "NY", "type": "Hospital/Clinic", "vertical": "Healthcare", "sqft": 644696.0, "opex": 386413.5369, "valuation": 0.0, "carbon": 506.2969504, "eui": 233.5865865, "image": "NYC_1014820020_Linkedin.jpg", "lat": 40.765211, "lon": -73.953886}, {"id": "NYC_1014830023", "address": "541 E 71St Street, New York, NY, 10021", "city": "New York", "state": "NY", "type": "Medical Office/Lab", "vertical": "Healthcare", "sqft": 78589.0, "opex": 337849.7845, "valuation": 4504663.793333334, "carbon": 389.7654271, "eui": 287.430148, "image": "NYC_1014830023_GooglePlaces.jpg", "lat": 40.765735, "lon": -73.9532}, {"id": "NYC_1014700016", "address": "429 E 75Th Street, New York, NY, 10021", "city": "New York", "state": "NY", "type": "Medical Office/Lab", "vertical": "Healthcare", "sqft": 30073.0, "opex": 132088.2975, "valuation": 1761177.2999999998, "carbon": 142.1535949, "eui": 294.1886243, "image": "NYC_1014700016_cyclomedia.jpg", "lat": 40.76943, "lon": -73.953782}, {"id": "NYC_1014830033", "address": "525 East 71St St, New York, NY, 10021", "city": "New York", "state": "NY", "type": "Hospital/Clinic", "vertical": "Healthcare", "sqft": 164806.0, "opex": 92167.68567, "valuation": 0.0, "carbon": 81.63243221, "eui": 71.28571715, "image": "NYC_1014830033_cyclomedia.jpg", "lat": 40.765963, "lon": -73.953741}, {"id": "NYC_1014840014", "address": "521 E 72nd St, New York, NY, 10021", "city": "New York", "state": "NY", "type": "Hospital/Clinic", "vertical": "Healthcare", "sqft": 109185.0, "opex": 28878.97407, "valuation": 0.0, "carbon": 54.24450382, "eui": 40.22456748, "image": "NYC_1014840014_AWS.jpg", "lat": 40.7665314, "lon": -73.9523445}, {"id": "NYC_1014847501", "address": "510 East 73Rd St, New York, NY, 10021", "city": "New York", "state": "NY", "type": "Hospital/Clinic", "vertical": "Healthcare", "sqft": 537491.0, "opex": 6861.792307, "valuation": 0.0, "carbon": 3.038170684, "eui": 10.36651721, "image": "NYC_1014847501_Issuu.jpg", "lat": 40.767198, "lon": -73.952491}, {"id": "NYC_1014850046", "address": "504 E 74Th St, New York, NY, 10021", "city": "New York", "state": "NY", "type": "Hospital/Clinic", "vertical": "Healthcare", "sqft": 34375.0, "opex": 5026.648721, "valuation": 71809.26744285713, "carbon": 7.946735947, "eui": 27.48161455, "image": "NYC_1014850046_cyclomedia.jpg", "lat": 40.767991, "lon": -73.952382}]