[{"id": "CA_27491572", "address": "15442 Newport Avenue, Tustin, CA, 92780", "city": "Tustin", "state": "CA", "type": "Office", "vertical": "Commercial", "sqft": 106512.0, "opex": 203322.228, "valuation": 2710963.04, "carbon": 84.10178046, "eui": 82.6275946, "image": "CA_27491572_streetview.jpg", "lat": 33.7200899, "lon": -117.835264}, {"id": "CA_27462033", "address": "15222 Del Amo Avenue, Tustin, CA, 92780", "city": "Tustin", "state": "CA", "type": "Office", "vertical": "Commercial", "sqft": 63094.0, "opex": 96145.74489, "valuation": 1281943.2652, "carbon": 39.76952451, "eui": 70.04057766, "image": "CA_27462033_streetview.jpg", "lat": 33.7222364, "lon": -117.833066}, {"id": "CA_35904913", "address": "4204 Riverwalk Parkway, Riverside, CA, 92505", "city": "Riverside", "state": "CA", "type": "Office", "vertical": "Commercial", "sqft": 96821.0, "opex": 81755.43896, "valuation": 1090072.5194666667, "carbon": 27.91537739, "eui": 44.02401118, "image": "CA_35904913_SchoolsFirstFCU.jpg", "lat": 33.9017208, "lon": -117.49592}, {"id": "CA_35904934", "address": "4210 Riverwalk Parkway, Riverside, CA, 92505", "city": "Riverside", "state": "CA", "type": "Office", "vertical": "Commercial", "sqft": 97122.0, "opex": 70721.18686, "valuation": 942949.1581333334, "carbon": 24.14773433, "eui": 37.9642166, "image": "CA_35904934_streetview.jpg", "lat": 33.902107, "lon": -117.4951438}, {"id": "CA_6392804", "address": "1485 Response Road, Sacramento, CA, 95815", "city": "Sacramento", "state": "CA", "type": "Office", "vertical": "Commercial", "sqft": 59120.0, "opex": 38818.59756, "valuation": 517581.3008, "carbon": 41.52528424, "eui": 52.16738363, "image": "CA_6392804_streetview.jpg", "lat": 38.5982518, "lon": -121.4371364}]