[{"id": "SEA_1991201295", "address": "300 8Th Ave N, Seattle, WA, 98109", "city": "Seattle", "state": "WA", "type": "Office", "vertical": "Commercial", "sqft": 201294.0, "opex": 491355.4337, "valuation": 6551405.782666666, "carbon": 98.95620324, "eui": 53.73966437, "image": "", "lat": 47.62131, "lon": -122.34075}, {"id": "SEA_2249500265", "address": "1101 Dexter Ave N, Seattle, WA, 98109", "city": "Seattle", "state": "WA", "type": "Office", "vertical": "Commercial", "sqft": 345992.0, "opex": 243091.948, "valuation": 3241225.9733333336, "carbon": 201.4549224, "eui": 65.12733531, "image": "SEA_2249500265_streetview.jpg", "lat": 47.62906, "lon": -122.34259}, {"id": "CA_4179410", "address": "8484 Wilshire Boulevard, Beverly Hills, CA, 90211", "city": "Beverly Hills", "state": "CA", "type": "Office", "vertical": "Commercial", "sqft": 267771.0, "opex": 94341.41187, "valuation": 1257885.4916, "carbon": 75.04405731, "eui": 26.41528073, "image": "CA_4179410_Alamy.jpg", "lat": 34.0646096, "lon": -118.3756465}, {"id": "CA_3884190", "address": "10 Hacker Way, Menlo Park, CA, 94025", "city": "Menlo Park", "state": "CA", "type": "Office", "vertical": "Commercial", "sqft": 113425.0, "opex": 75019.86263, "valuation": 1000264.8350666668, "carbon": 56.06095481, "eui": 48.18576063, "image": "CA_3884190_streetview.jpg", "lat": 37.4835791, "lon": -122.1500939}, {"id": "SEA_1991201150", "address": "333 8Th Ave N, Seattle, WA, 98109", "city": "Seattle", "state": "WA", "type": "Office", "vertical": "Commercial", "sqft": 199787.0, "opex": 45245.53436, "valuation": 603273.7914666666, "carbon": 52.25697937, "eui": 27.39128172, "image": "SEA_1991201150_GooglePlaces.jpg", "lat": 47.62155, "lon": -122.34144}, {"id": "CA_6069489", "address": "200 Jefferson Dr, Menlo Park, CA, 94025", "city": "Menlo Park", "state": "CA", "type": "Office", "vertical": "Commercial", "sqft": 69245.0, "opex": 36796.44988, "valuation": 490619.33173333335, "carbon": 17.79014163, "eui": 34.88417366, "image": "CA_6069489_streetview.jpg", "lat": 37.4797996, "lon": -122.1689457}]