[{"id": "SD_223", "address": "450 B Street, San Diego, CA 92101", "city": "San Diego", "state": "CA", "type": "Office", "vertical": "Commercial", "sqft": 309947.0, "opex": 119975.7964, "valuation": 1599677.2853333335, "carbon": 24.21130136, "eui": 17.48227632, "image": "SD_223_energystar.jpg", "lat": 32.7185734, "lon": -117.160698}, {"id": "SD_186", "address": "6059 Cornerstone Court, San Diego, CA 92121", "city": "San Diego", "state": "CA", "type": "Office", "vertical": "Commercial", "sqft": 51690.0, "opex": 73606.11348, "valuation": 981414.8464, "carbon": 18.81220938, "eui": 48.8, "image": "SD_186_Serpapi.jpg", "lat": 32.89635029, "lon": -117.1899991}, {"id": "CA_2247079", "address": "12121 Scripps Summit Drive, San Diego, CA, 92131", "city": "San Diego", "state": "CA", "type": "Office", "vertical": "Commercial", "sqft": 112990.0, "opex": 61668.81969, "valuation": 822250.9292, "carbon": 11.8921267, "eui": 26.39681585, "image": "CA_2247079_energystar.jpg", "lat": 32.9400489, "lon": -117.1013803}, {"id": "CA_4361805", "address": "9920 Pacific Heights Boulevard, San Diego, CA, 92121", "city": "San Diego", "state": "CA", "type": "Office", "vertical": "Commercial", "sqft": 128209.0, "opex": 54313.27786, "valuation": 724177.0381333334, "carbon": 10.96050352, "eui": 20.30611614, "image": "CA_4361805_streetview.jpg", "lat": 32.9000853, "lon": -117.1903839}, {"id": "CA_6787614", "address": "9740 Scranton Road, San Diego, CA, 92121", "city": "San Diego", "state": "CA", "type": "Office", "vertical": "Commercial", "sqft": 60692.0, "opex": 29979.4922, "valuation": 399726.5626666667, "carbon": 5.781202258, "eui": 26.81806393, "image": "CA_6787614_streetview.jpg", "lat": 32.8972731, "lon": -117.2033957}, {"id": "CA_6787579", "address": "9710 Scranton Road, San Diego, CA, 92121", "city": "San Diego", "state": "CA", "type": "Office", "vertical": "Commercial", "sqft": 60704.0, "opex": 21847.95908, "valuation": 291306.1210666667, "carbon": 4.756854374, "eui": 22.0619174, "image": "CA_6787579_streetview.jpg", "lat": 32.8967542, "lon": -117.2033498}]