[{"id": "CHI_101508", "address": "5500 N. Saint Louis Avenue, Chicago, IL, 60625", "city": "Chicago", "state": "IL", "type": "Higher Ed", "vertical": "Education", "sqft": 1258489.0, "opex": 703349.2897, "valuation": 0.0, "carbon": 4582.59347, "eui": 113.1843456, "image": "CHI_101508_streetview.jpg", "lat": 41.98039877, "lon": -87.72026611}, {"id": "BOS_108167", "address": "815 Columbus Ave, Boston, MA, 02120", "city": "Boston", "state": "MA", "type": "Higher Ed", "vertical": "Education", "sqft": 362109.0, "opex": 406175.4652, "valuation": 0.0, "carbon": 419.921092, "eui": 93.90254288, "image": "BOS_108167_Islandfacades.jpg", "lat": 42.3371295, "lon": -71.0871628}, {"id": "BOS_104775", "address": "1155-1175 Tremont St, Boston, MA, 02120", "city": "Boston", "state": "MA", "type": "Higher Ed", "vertical": "Education", "sqft": 487506.0, "opex": 299794.5213, "valuation": 0.0, "carbon": 410.053727, "eui": 67.17854816, "image": "", "lat": 42.3349669, "lon": -71.0891936}, {"id": "BOS_104762", "address": "805 Columbus Ave, Boston, MA, 02118", "city": "Boston", "state": "MA", "type": "Higher Ed", "vertical": "Education", "sqft": 246097.0, "opex": 230577.3747, "valuation": 0.0, "carbon": 273.674695, "eui": 89.22444686, "image": "BOS_104762_Serpapi.jpg", "lat": 42.3377049, "lon": -71.0870109}, {"id": "BOS_104770", "address": "716-728 Columbus Ave, Boston, MA, 02120", "city": "Boston", "state": "MA", "type": "Higher Ed", "vertical": "Education", "sqft": 124214.0, "opex": 77730.18315, "valuation": 0.0, "carbon": 138.8255737, "eui": 80.7851305, "image": "BOS_104770_Thehuntingtonnews.jpg", "lat": 42.3376775, "lon": -71.0852898}, {"id": "BOS_100113", "address": "300 Massachusetts Ave, Boston, MA, 02115", "city": "Boston", "state": "MA", "type": "Office", "vertical": "Commercial", "sqft": 102863.0, "opex": 72681.59659, "valuation": 1038308.5227142856, "carbon": 18.27463152, "eui": 28.90500666, "image": "BOS_100113_streetview.jpg", "lat": 42.3432417, "lon": -71.0852932}, {"id": "BOS_104774", "address": "1135 Tremont St, Boston, MA, 02120", "city": "Boston", "state": "MA", "type": "Higher Ed", "vertical": "Education", "sqft": 164666.0, "opex": 65491.87339, "valuation": 0.0, "carbon": 90.62378784, "eui": 51.32553654, "image": "BOS_104774_Northeasternuniversi.jpg", "lat": 42.3355726, "lon": -71.0882077}, {"id": "BOS_104761", "address": "775-795 Columbus Ave, Boston, MA, 02118", "city": "Boston", "state": "MA", "type": "Higher Ed", "vertical": "Education", "sqft": 41598.0, "opex": 44036.44502, "valuation": 0.0, "carbon": 37.52361506, "eui": 94.33508823, "image": "BOS_104761_Serpapi.jpg", "lat": 42.338194, "lon": -71.0864423}, {"id": "BOS_104771", "address": "700 Columbus Ave, Boston, MA, 02120", "city": "Boston", "state": "MA", "type": "Higher Ed", "vertical": "Education", "sqft": 122719.0, "opex": 43711.57969, "valuation": 0.0, "carbon": 79.55331887, "eui": 54.72493012, "image": "", "lat": 42.3378873, "lon": -71.0845968}, {"id": "BOS_104702", "address": "125-133 Hemenway St, Boston, MA, 02115", "city": "Boston", "state": "MA", "type": "Higher Ed", "vertical": "Education", "sqft": 59225.0, "opex": 32602.55143, "valuation": 0.0, "carbon": 85.28162436, "eui": 93.77785901, "image": "BOS_104702_TheArchitectsNewspap.jpg", "lat": 42.342505, "lon": -71.090661}, {"id": "BOS_104776", "address": "76 Atherton St, Boston, MA, 02130", "city": "Boston", "state": "MA", "type": "Higher Ed", "vertical": "Education", "sqft": 140197.0, "opex": 29579.4928, "valuation": 0.0, "carbon": 97.17975819, "eui": 43.73391656, "image": "", "lat": 42.3185232, "lon": -71.1021898}, {"id": "BOS_104707", "address": "106-122 Saint Stephen St, Boston, MA, 02115", "city": "Boston", "state": "MA", "type": "Higher Ed", "vertical": "Education", "sqft": 70220.0, "opex": 26927.52059, "valuation": 0.0, "carbon": 84.83235866, "eui": 79.12277271, "image": "BOS_104707_Serpapi.jpg", "lat": 42.3411246, "lon": -71.0887936}, {"id": "BOS_104760", "address": "696 Columbus Ave, Boston, MA, 02120", "city": "Boston", "state": "MA", "type": "Higher Ed", "vertical": "Education", "sqft": 76325.0, "opex": 23939.31257, "valuation": 0.0, "carbon": 42.67285729, "eui": 50.17539862, "image": "BOS_104760_Payette.jpg", "lat": 42.3383029, "lon": -71.084264}, {"id": "BOS_104767", "address": "780-788 Columbus Ave, Boston, MA, 02120", "city": "Boston", "state": "MA", "type": "Higher Ed", "vertical": "Education", "sqft": 40273.0, "opex": 20728.85662, "valuation": 0.0, "carbon": 40.23747031, "eui": 78.60148735, "image": "BOS_104767_Serpapi.jpg", "lat": 42.336806, "lon": -71.0868281}, {"id": "BOS_104706", "address": "337-339 Huntington Ave, Boston, MA, 02115", "city": "Boston", "state": "MA", "type": "Higher Ed", "vertical": "Education", "sqft": 50023.0, "opex": 19504.49697, "valuation": 0.0, "carbon": 57.4615553, "eui": 76.36127381, "image": "", "lat": 42.3406872, "lon": -71.0887477}, {"id": "BOS_104768", "address": "10 Coventry St, Boston, MA, 02120", "city": "Boston", "state": "MA", "type": "Higher Ed", "vertical": "Education", "sqft": 69739.0, "opex": 18583.52065, "valuation": 0.0, "carbon": 25.82155427, "eui": 38.40409957, "image": "BOS_104768_Serpapi.jpg", "lat": 42.336938, "lon": -71.0859401}, {"id": "BOS_104717", "address": "454-460 Huntington Ave, Boston, MA, 02115", "city": "Boston", "state": "MA", "type": "Higher Ed", "vertical": "Education", "sqft": 51715.0, "opex": 14346.5585, "valuation": 0.0, "carbon": 34.33462208, "eui": 54.46154694, "image": "", "lat": 42.3383388, "lon": -71.092961}, {"id": "BOS_104708", "address": "319 Huntington Ave, Boston, MA, 02115", "city": "Boston", "state": "MA", "type": "Higher Ed", "vertical": "Education", "sqft": 31320.0, "opex": 11073.94345, "valuation": 0.0, "carbon": 36.88570723, "eui": 80.69564496, "image": "", "lat": 42.341017, "lon": -71.0879111}, {"id": "BOS_104711", "address": "96 Fenway, Boston, MA, 02115", "city": "Boston", "state": "MA", "type": "Higher Ed", "vertical": "Education", "sqft": 28024.0, "opex": 8477.411927, "valuation": 0.0, "carbon": 16.07656921, "eui": 53.39495076, "image": "BOS_104711_Thehuntingtonnews.jpg", "lat": 42.3418845, "lon": -71.0912677}, {"id": "BOS_104712", "address": "90 Fenway, Boston, MA, 02115", "city": "Boston", "state": "MA", "type": "Higher Ed", "vertical": "Education", "sqft": 30229.0, "opex": 7683.805054, "valuation": 0.0, "carbon": 18.38457596, "eui": 52.81260379, "image": "BOS_104712_Theprincetonreview.jpg", "lat": 42.3421069, "lon": -71.0911703}, {"id": "BOS_107639", "address": "464 HUNTINGTON AV, Boston, MA, 02115", "city": "Boston", "state": "MA", "type": "Higher Ed", "vertical": "Education", "sqft": 29591.0, "opex": 5626.052505, "valuation": 0.0, "carbon": 17.94597535, "eui": 59.55431043, "image": "BOS_107639_Yelp.jpg", "lat": 42.3382784, "lon": -71.0934552}, {"id": "BOS_104715", "address": "407 Huntington Ave, Boston, MA, 02115", "city": "Boston", "state": "MA", "type": "Higher Ed", "vertical": "Education", "sqft": 29921.0, "opex": 5531.978398, "valuation": 0.0, "carbon": 14.56364059, "eui": 43.50081214, "image": "", "lat": 42.3396269, "lon": -71.0914683}, {"id": "BOS_104710", "address": "102-104 Fenway, Boston, MA, 02115", "city": "Boston", "state": "MA", "type": "Higher Ed", "vertical": "Education", "sqft": 25902.0, "opex": 4828.569644, "valuation": 0.0, "carbon": 13.99014593, "eui": 47.65357501, "image": "BOS_104710_Serpapi.jpg", "lat": 42.3416877, "lon": -71.0914212}]