[{"id": "SEA_7666206900", "address": "505 1St Ave S, Seattle, WA, 98104", "city": "Seattle", "state": "WA", "type": "Office", "vertical": "Commercial", "sqft": 285914.0, "opex": 175101.1177, "valuation": 2334681.5693333335, "carbon": 118.7425206, "eui": 54.8710976, "image": "SEA_7666206900_streetview.jpg", "lat": 47.59767, "lon": -122.33467}, {"id": "CA_15973693", "address": "906 G Street, Sacramento, CA, 95814", "city": "Sacramento", "state": "CA", "type": "Office", "vertical": "Commercial", "sqft": 53046.0, "opex": 60109.58587, "valuation": 801461.1449333334, "carbon": 15.88987408, "eui": 44.7516701, "image": "CA_15973693_Cushman.jpg", "lat": 38.5834352, "lon": -121.4928799}, {"id": "CA_6348574", "address": "4510 East Pacific Coast Highway, Long Beach, CA, 90804", "city": "Long Beach", "state": "CA", "type": "Office", "vertical": "Commercial", "sqft": 79764.0, "opex": 45610.45258, "valuation": 608139.3677333334, "carbon": 35.71362487, "eui": 41.51211949, "image": "CA_6348574_streetview.jpg", "lat": 33.7874106, "lon": -118.1408861}, {"id": "CA_1638185", "address": "2501 Cherry Avenue, Signal Hill, CA, 90755", "city": "Signal Hill", "state": "CA", "type": "Office", "vertical": "Commercial", "sqft": 108863.0, "opex": 9245.325081, "valuation": 123271.00108000002, "carbon": 9.858589979, "eui": 8.683331343, "image": "CA_1638185_streetview.jpg", "lat": 33.8029625, "lon": -118.1682549}, {"id": "BOS_105993", "address": "12-16 Sturtevant St, Boston, MA, 02122", "city": "Boston", "state": "MA", "type": "Retail/Consumer Services", "vertical": "Commercial", "sqft": 34410.0, "opex": 4705.95352, "valuation": 85562.79127272728, "carbon": 4.162095523, "eui": 22.61665214, "image": "BOS_105993_Serpapi.jpg", "lat": 42.2997758, "lon": -71.0556054}, {"id": "PDX_1S2E03BB-700-B1", "address": "10560 SE Washington St, Portland, OR, 97216", "city": "Portland", "state": "OR", "type": "Office", "vertical": "Commercial", "sqft": 33940.96186, "opex": 1010.889035, "valuation": 11892.812176470588, "carbon": 1.753398651, "eui": 8.6, "image": "", "lat": 45.5176836, "lon": -122.5543438}]