[{"id": "CAM_1387", "address": "100 Binney St, Cambridge, MA 02142", "city": "Cambridge", "state": "MA", "type": "Office", "vertical": "Commercial", "sqft": 430305.0, "opex": 2613253.389, "valuation": 37332191.27142857, "carbon": 4719.017018, "eui": 287.6369673, "image": "CAM_1387_Serpapi.jpg", "lat": 42.3651, "lon": -71.0809}, {"id": "NYC_1012617501", "address": "1166 Avenue Of The Americas, New York, NY, 10036", "city": "New York", "state": "NY", "type": "Office", "vertical": "Commercial", "sqft": 1556174.0, "opex": 1805018.982, "valuation": 25785985.457142856, "carbon": 2257.718912, "eui": 83.79598927, "image": "NYC_1012617501_streetview.jpg", "lat": 40.757004, "lon": -73.982526}, {"id": "BOS_106330", "address": "125-145 High St, Boston, MA, 02110", "city": "Boston", "state": "MA", "type": "Office", "vertical": "Commercial", "sqft": 1511250.0, "opex": 1651151.504, "valuation": 23587878.628571425, "carbon": 940.0554884, "eui": 48.69374299, "image": "BOS_106330_Serpapi.jpg", "lat": 42.355296, "lon": -71.0531051}, {"id": "DC_5492063", "address": "601 F St NW, Washington, DC, 20004", "city": "Washington", "state": "DC", "type": "Entertainment Venue", "vertical": "Commercial", "sqft": 1323690.0, "opex": 1477266.676, "valuation": 19696889.013333336, "carbon": 434.1770702, "eui": 50.3826642, "image": "DC_5492063_Flickr.jpg", "lat": 38.89794021, "lon": -77.02095465}, {"id": "SD_313", "address": "7007 Friars Road, San Diego, CA 92108", "city": "San Diego", "state": "CA", "type": "Strip/Enclosed Mall", "vertical": "Commercial", "sqft": 1691755.0, "opex": 873466.1716, "valuation": 11646215.621333336, "carbon": 351.6376676, "eui": 37.4700044, "image": "SD_313_En.jpg", "lat": 32.76946163, "lon": -117.168214}, {"id": "CA_2551224", "address": "4867 Sunset Boulevard, Los Angeles, CA, 90027", "city": "Los Angeles", "state": "CA", "type": "Hospital/Clinic", "vertical": "Healthcare", "sqft": 1573092.0, "opex": 597335.364, "valuation": 0.0, "carbon": 1743.971739, "eui": 316.8204862, "image": "CA_2551224_LAConservancy.jpg", "lat": 34.0987615, "lon": -118.2933358}, {"id": "CAM_1117", "address": "50 Binney St, Cambridge, MA 02142", "city": "Cambridge", "state": "MA", "type": "Mixed Use", "vertical": "Commercial", "sqft": 532739.0, "opex": 542122.3032, "valuation": 7744604.33142857, "carbon": 533.0897812, "eui": 172.8447645, "image": "CAM_1117_streetview.jpg", "lat": 42.3649, "lon": -71.0791}, {"id": "NYC_1009627502", "address": "430-450 East 29Th St, New York, NY, 10016", "city": "New York", "state": "NY", "type": "Medical Office/Lab", "vertical": "Healthcare", "sqft": 858469.0, "opex": 503679.6773, "valuation": 0.0, "carbon": 976.9561199, "eui": 220.2842832, "image": "NYC_1009627502_Nycedc.jpg", "lat": 40.740048, "lon": -73.974368}, {"id": "CAM_1371", "address": "300 Tech Square, 300 Technology Square, Cambridge, MA 02139", "city": "Cambridge", "state": "MA", "type": "Mixed Use", "vertical": "Commercial", "sqft": 175609.0, "opex": 438031.796, "valuation": 6257597.085714284, "carbon": 402.6517381, "eui": 329.5881754, "image": "CAM_1371_streetview.jpg", "lat": 42.3634, "lon": -71.0916}, {"id": "CAM_1077", "address": "215 First St, Cambridge, MA 02142", "city": "Cambridge", "state": "MA", "type": "Mixed Use", "vertical": "Commercial", "sqft": 366723.0, "opex": 400567.2235, "valuation": 5722388.907142857, "carbon": 296.0170871, "eui": 141.661571, "image": "CAM_1077_Flickr.jpg", "lat": 42.3643, "lon": -71.0793}, {"id": "CAM_1378", "address": "One Kendall Sq, Cambridge, MA 02139", "city": "Cambridge", "state": "MA", "type": "Office", "vertical": "Commercial", "sqft": 126031.0, "opex": 370870.5682, "valuation": 5298150.974285713, "carbon": 198.3492513, "eui": 100.4602026, "image": "CAM_1378_streetview.jpg", "lat": 42.3666, "lon": -71.091}, {"id": "CAM_1583", "address": "50 Hampshire St, Cambridge, MA 02139", "city": "Cambridge", "state": "MA", "type": "Office", "vertical": "Commercial", "sqft": 202023.0, "opex": 336856.6732, "valuation": 4812238.188571428, "carbon": 409.8330334, "eui": 93.80082169, "image": "CAM_1583_streetview.jpg", "lat": 42.3666, "lon": -71.0929}, {"id": "CAM_1005", "address": "225 Binney St, Cambridge, MA 02142", "city": "Cambridge", "state": "MA", "type": "Office", "vertical": "Commercial", "sqft": 327325.0, "opex": 308878.9805, "valuation": 4412556.864285714, "carbon": 261.9244384, "eui": 46.52657573, "image": "CAM_1005_Sgh.jpg", "lat": 42.3664, "lon": -71.0851}, {"id": "CHI_101920", "address": "400-410 N Michigan Avenue, Chicago, IL, 60611", "city": "Chicago", "state": "IL", "type": "Office", "vertical": "Commercial", "sqft": 661275.0, "opex": 304755.1507, "valuation": 3809439.38375, "carbon": 1223.664732, "eui": 63.97916956, "image": "CHI_101920_En.jpg", "lat": 41.8898333, "lon": -87.6248109}, {"id": "CA_5994", "address": "651 Gateway Boulevard, South San Francisco, CA, 94080", "city": "South San Francisco", "state": "CA", "type": "Office", "vertical": "Commercial", "sqft": 279532.0, "opex": 271830.015, "valuation": 3624400.2, "carbon": 281.9324346, "eui": 57.61708413, "image": "CA_5994_Reitnotes.jpg", "lat": 37.6593573, "lon": -122.3996242}, {"id": "BOS_100627", "address": "157 Berkeley St, Boston, MA, 02116", "city": "Boston", "state": "MA", "type": "Office", "vertical": "Commercial", "sqft": 757241.0, "opex": 271399.6077, "valuation": 3877137.2528571426, "carbon": 258.9386757, "eui": 35.10347287, "image": "BOS_100627_streetview.jpg", "lat": 42.3493341, "lon": -71.0715975}, {"id": "CAM_1121", "address": "11 Hurley St, Cambridge, MA 02141", "city": "Cambridge", "state": "MA", "type": "Office", "vertical": "Commercial", "sqft": 59783.0, "opex": 254445.0455, "valuation": 3634929.2214285713, "carbon": 195.7976746, "eui": 174.9454444, "image": "CAM_1121_streetview.jpg", "lat": 42.3684, "lon": -71.0786}, {"id": "CAM_1126", "address": "One Kendall Square, Cambridge, MA 02139", "city": "Cambridge", "state": "MA", "type": "Mixed Use", "vertical": "Commercial", "sqft": 140058.0, "opex": 242563.3516, "valuation": 3465190.7371428567, "carbon": 231.3395526, "eui": 232.2505783, "image": "CAM_1126_GooglePlaces.jpg", "lat": 42.3673, "lon": -71.0902}, {"id": "PHL_144029", "address": "5501 Old York Rd, Philadelphia, PA, 19141", "city": "Philadelphia", "state": "PA", "type": "Hospital/Clinic", "vertical": "Healthcare", "sqft": 1275430.983, "opex": 241583.5437, "valuation": 0.0, "carbon": 711.7393725, "eui": 200.8, "image": "PHL_144029_places.jpg", "lat": 40.03693579, "lon": -75.14463469}, {"id": "CA_5993", "address": "601 Gateway Boulevard, South San Francisco, CA, 94080", "city": "South San Francisco", "state": "CA", "type": "Office", "vertical": "Commercial", "sqft": 215767.0, "opex": 221409.8235, "valuation": 2952130.98, "carbon": 61.77916149, "eui": 35.4832751, "image": "CA_5993_energystar.jpg", "lat": 37.6581494, "lon": -122.3994058}, {"id": "CA_1345361", "address": "611 Gateway Boulevard, South San Francisco, CA, 94080", "city": "South San Francisco", "state": "CA", "type": "Office", "vertical": "Commercial", "sqft": 288524.0, "opex": 208223.5387, "valuation": 2776313.8493333333, "carbon": 217.4290831, "eui": 46.38224837, "image": "CA_1345361_energystar.jpg", "lat": 37.6586897, "lon": -122.4001359}, {"id": "SJ_491", "address": "300 Santana Row, San Jose, CA, 95128", "city": "San Jose", "state": "CA", "type": "Office", "vertical": "Commercial", "sqft": 79203.0, "opex": 207873.1999, "valuation": 2771642.6653333334, "carbon": 261.2591579, "eui": 152.6278459, "image": "SJ_491_streetview.jpg", "lat": 37.322815, "lon": -121.9473999}, {"id": "CAM_1372", "address": "400 Technology Square, 400 Technology Square, Cambridge, MA 02139", "city": "Cambridge", "state": "MA", "type": "Medical Office/Lab", "vertical": "Healthcare", "sqft": 212123.0, "opex": 186524.3542, "valuation": 0.0, "carbon": 253.9273943, "eui": 302.0657359, "image": "CAM_1372_streetview.jpg", "lat": 42.364, "lon": -71.0919}, {"id": "CA_10857768", "address": "9605 Scranton Road, San Diego, CA, 92121", "city": "San Diego", "state": "CA", "type": "Office", "vertical": "Commercial", "sqft": 161247.0, "opex": 175563.2507, "valuation": 2340843.342666667, "carbon": 44.87035756, "eui": 47.42697698, "image": "CA_10857768_streetview.jpg", "lat": 32.8957688, "lon": -117.202339}, {"id": "SF_87090182024", "address": "1500 Owens St, San Francisco, CA, 94158", "city": "San Francisco", "state": "CA", "type": "Hospital/Clinic", "vertical": "Healthcare", "sqft": 167930.0, "opex": 173880.8571, "valuation": 0.0, "carbon": 338.4848506, "eui": 180.4869378, "image": "SF_87090182024_streetview.jpg", "lat": 37.76884056, "lon": -122.3957693}, {"id": "SD_278", "address": "10996 Torreyana Rd, San Diego, CA, 92121", "city": "San Diego", "state": "CA", "type": "Office", "vertical": "Commercial", "sqft": 84504.0, "opex": 172970.3884, "valuation": 2306271.8453333336, "carbon": 48.61989985, "eui": 65.9, "image": "SD_278_streetview.jpg", "lat": 32.9043727, "lon": -117.2390722}, {"id": "CAM_1842", "address": "303 Binney St, Cambridge, MA 02142", "city": "Cambridge", "state": "MA", "type": "Medical Office/Lab", "vertical": "Healthcare", "sqft": 480000.0, "opex": 136427.8982, "valuation": 0.0, "carbon": 78.37565495, "eui": 114.9352679, "image": "CAM_1842_Serpapi.jpg", "lat": 42.3675, "lon": -71.0885}, {"id": "LA_488821842335", "address": "310 N North Main St, Los Angeles, CA 90012", "city": "Los Angeles", "state": "CA", "type": "Retail/Consumer Services", "vertical": "Commercial", "sqft": 636021.0, "opex": 127839.6319, "valuation": 2223297.946086956, "carbon": 26.60228332, "eui": 19.0, "image": "LA_488821842335_Serpapi.jpg", "lat": 34.0605648, "lon": -118.2358255}, {"id": "CAM_1017", "address": "610 Main St, Cambridge, MA 02139", "city": "Cambridge", "state": "MA", "type": "Medical Office/Lab", "vertical": "Healthcare", "sqft": 278738.0, "opex": 113177.9405, "valuation": 0.0, "carbon": 151.283086, "eui": 205.0728397, "image": "CAM_1017_Bulfinch.jpg", "lat": 42.3626, "lon": -71.0942}, {"id": "SEA_4088802655", "address": "188 E Blaine St, Seattle, WA, 98102", "city": "Seattle", "state": "WA", "type": "Mixed Use", "vertical": "Commercial", "sqft": 187802.0, "opex": 110102.0304, "valuation": 1572886.1485714284, "carbon": 139.1189616, "eui": 196.9268751, "image": "SEA_4088802655_Serpapi.jpg", "lat": 47.63506, "lon": -122.32614}, {"id": "CAM_1763", "address": "64 Sidney St, Cambridge, MA 02139", "city": "Cambridge", "state": "MA", "type": "Medical Office/Lab", "vertical": "Healthcare", "sqft": 126000.0, "opex": 97244.66922, "valuation": 0.0, "carbon": 83.14545196, "eui": 265.9002508, "image": "CAM_1763_streetview.jpg", "lat": 42.3609, "lon": -71.1013}, {"id": "NYC_1013160012", "address": "219 E 42nd St, New York, NY, 10017", "city": "New York", "state": "NY", "type": "Office", "vertical": "Commercial", "sqft": 300000.0, "opex": 96249.32833, "valuation": 1374990.4047142856, "carbon": 207.574454, "eui": 67.27362033, "image": "NYC_1013160012_cyclomedia.jpg", "lat": 40.7506479, "lon": -73.9730371}, {"id": "CA_6414721", "address": "269 East Grand Avenue, South San Francisco, CA, 94080", "city": "South San Francisco", "state": "CA", "type": "Office", "vertical": "Commercial", "sqft": 107250.0, "opex": 75006.62108, "valuation": 1000088.2810666668, "carbon": 102.0077679, "eui": 50.67185367, "image": "CA_6414721_streetview.jpg", "lat": 37.6537529, "lon": -122.3949582}, {"id": "CA_6687020", "address": "681 Gateway Boulevard, South San Francisco, CA, 94080", "city": "South San Francisco", "state": "CA", "type": "Medical Office/Lab", "vertical": "Healthcare", "sqft": 126971.0, "opex": 70933.05796, "valuation": 0.0, "carbon": 108.5154316, "eui": 337.4945228, "image": "CA_6687020_streetview.jpg", "lat": 37.6591446, "lon": -122.3988969}, {"id": "SEA_1988201380", "address": "400 Dexter Ave N, Seattle, WA, 98109", "city": "Seattle", "state": "WA", "type": "Medical Office/Lab", "vertical": "Healthcare", "sqft": 293826.0, "opex": 68426.98197, "valuation": 0.0, "carbon": 97.46388133, "eui": 191.8786629, "image": "SEA_1988201380_Geekwire.jpg", "lat": 47.62231, "lon": -122.34194}, {"id": "CAM_1125", "address": "399 Binney St, Cambridge, MA 02141", "city": "Cambridge", "state": "MA", "type": "Medical Office/Lab", "vertical": "Healthcare", "sqft": 165194.0, "opex": 66034.61924, "valuation": 0.0, "carbon": 71.06943094, "eui": 192.2333983, "image": "CAM_1125_streetview.jpg", "lat": 42.3679, "lon": -71.0904}, {"id": "SF_39400032024", "address": "409 Illinois St, San Francisco, CA, 94158", "city": "San Francisco", "state": "CA", "type": "Medical Office/Lab", "vertical": "Healthcare", "sqft": 367565.0, "opex": 61751.12391, "valuation": 0.0, "carbon": 130.2105631, "eui": 161.3444409, "image": "SF_39400032024_streetview.jpg", "lat": 37.76624506, "lon": -122.3873563}, {"id": "CA_1562857", "address": "1947 Center Street, Berkeley, CA, 94704", "city": "Berkeley", "state": "CA", "type": "Office", "vertical": "Commercial", "sqft": 98800.0, "opex": 55684.47983, "valuation": 742459.7310666667, "carbon": 14.17521796, "eui": 27.92555082, "image": "CA_1562857_streetview.jpg", "lat": 37.870181, "lon": -122.2713703}, {"id": "SF_87210322024", "address": "455 Mission Bay Blvd South, San Francisco, CA, 94158", "city": "San Francisco", "state": "CA", "type": "Medical Office/Lab", "vertical": "Healthcare", "sqft": 219588.0, "opex": 55549.72962, "valuation": 0.0, "carbon": 123.358999, "eui": 216.9737059, "image": "SF_87210322024_streetview.jpg", "lat": 37.77044362, "lon": -122.3885088}, {"id": "CA_19506096", "address": "1075 California Boulevard, Napa, CA, 94559", "city": "Napa", "state": "CA", "type": "Hotel", "vertical": "Commercial", "sqft": 138500.0, "opex": 51245.77807, "valuation": 640572.225875, "carbon": 20.20559503, "eui": 63.62376379, "image": "CA_19506096_GooglePlaces.jpg", "lat": 38.3006317, "lon": -122.3018046}, {"id": "SF_87090072024", "address": "1700 Owens St, San Francisco, CA, 94158", "city": "San Francisco", "state": "CA", "type": "Medical Office/Lab", "vertical": "Healthcare", "sqft": 171427.0, "opex": 49517.78749, "valuation": 0.0, "carbon": 99.48743292, "eui": 248.5652266, "image": "SF_87090072024_streetview.jpg", "lat": 37.76697922, "lon": -122.3936664}, {"id": "DC_5474439", "address": "1100 Alabama Ave SE, Washington, DC, 20032", "city": "Washington", "state": "DC", "type": "Hospital/Clinic", "vertical": "Healthcare", "sqft": 1772314.0, "opex": 47505.10178, "valuation": 0.0, "carbon": 87.4643241, "eui": 23.99046385, "image": "DC_5474439_Serpapi.jpg", "lat": 38.84826586, "lon": -76.98840517}, {"id": "CA_3522604", "address": "11682 El Camino Real, San Diego, CA, 92130", "city": "San Diego", "state": "CA", "type": "Office", "vertical": "Commercial", "sqft": 77071.0, "opex": 46336.78327, "valuation": 617823.7769333334, "carbon": 10.10689043, "eui": 31.14880832, "image": "CA_3522604_energystar.jpg", "lat": 32.9289053, "lon": -117.2385378}, {"id": "CA_21327246", "address": "2600 Sand Dunes Drive, Monterey, CA, 93940", "city": "Monterey", "state": "CA", "type": "Hotel", "vertical": "Commercial", "sqft": 130267.0, "opex": 38527.13348, "valuation": 481589.1685, "carbon": 19.58148484, "eui": 67.66126076, "image": "CA_21327246_Serpapi.jpg", "lat": 36.6111324, "lon": -121.8589741}, {"id": "SD_155", "address": "3366 N. Torrey Pines Court, La Jolla, CA 92037", "city": "La Jolla", "state": "CA", "type": "Office", "vertical": "Commercial", "sqft": 45900.0, "opex": 38026.81687, "valuation": 507024.2249333334, "carbon": 9.952098588, "eui": 36.6, "image": "SD_155_mapillary.jpg", "lat": 32.89352555, "lon": -117.2416303}, {"id": "CA_14757333", "address": "2700 Ygnacio Valley Road, Walnut Creek, CA, 94598", "city": "Walnut Creek", "state": "CA", "type": "Medical Office/Lab", "vertical": "Healthcare", "sqft": 107446.0, "opex": 34201.7389, "valuation": 456023.1853333333, "carbon": 41.36755977, "eui": 44.68004069, "image": "CA_14757333_streetview.jpg", "lat": 37.9263034, "lon": -122.0192796}, {"id": "CA_54587192", "address": "3175 Bowers Avenue, Santa Clara, CA, 95054", "city": "Santa Clara", "state": "CA", "type": "Higher Ed", "vertical": "Education", "sqft": 106072.0, "opex": 34033.103, "valuation": 0.0, "carbon": 26.18908584, "eui": 33.59584886, "image": "CA_54587192_Serpapi.jpg", "lat": 37.3796975, "lon": -121.9765484}, {"id": "BOS_100419", "address": "5 Necco St, Boston, MA, 02210", "city": "Boston", "state": "MA", "type": "Office", "vertical": "Commercial", "sqft": 95400.0, "opex": 33973.14029, "valuation": 485330.5755714286, "carbon": 32.67720986, "eui": 37.19554717, "image": "BOS_100419_Serpapi.jpg", "lat": 42.3494627, "lon": -71.0512225}, {"id": "NYC_4002870011", "address": "30-02 48Th Avenue, New York, NY, 11101", "city": "New York", "state": "NY", "type": "Medical Office/Lab", "vertical": "Healthcare", "sqft": 141885.0, "opex": 30825.05802, "valuation": 0.0, "carbon": 54.62176355, "eui": 150.0112767, "image": "NYC_4002870011_Serpapi.jpg", "lat": 40.741426, "lon": -73.937833}, {"id": "SEA_2249000285", "address": "700 Dexter Ave N, Seattle, WA, 98109", "city": "Seattle", "state": "WA", "type": "Medical Office/Lab", "vertical": "Healthcare", "sqft": 522805.0, "opex": 30502.61164, "valuation": 0.0, "carbon": 30.48074542, "eui": 59.22510305, "image": "SEA_2249000285_Serpapi.jpg", "lat": 47.62566, "lon": -122.34181}, {"id": "CA_6687149", "address": "901 Gateway Boulevard, South San Francisco, CA, 94080", "city": "South San Francisco", "state": "CA", "type": "Medical Office/Lab", "vertical": "Healthcare", "sqft": 110428.0, "opex": 27357.35934, "valuation": 0.0, "carbon": 56.35658909, "eui": 200.4237943, "image": "CA_6687149_streetview.jpg", "lat": 37.6614165, "lon": -122.3975692}, {"id": "SF_39400042024", "address": "499 Illinois St, San Francisco, CA, 94158", "city": "San Francisco", "state": "CA", "type": "Medical Office/Lab", "vertical": "Healthcare", "sqft": 332927.0, "opex": 26401.35651, "valuation": 0.0, "carbon": 47.32587607, "eui": 100.3997347, "image": "SF_39400042024_streetview.jpg", "lat": 37.76624506, "lon": -122.3873563}, {"id": "SEA_4088802666", "address": "199 E Blaine St, Seattle, WA, 98102", "city": "Seattle", "state": "WA", "type": "Medical Office/Lab", "vertical": "Healthcare", "sqft": 116191.0, "opex": 23078.57114, "valuation": 0.0, "carbon": 29.99933286, "eui": 181.9546609, "image": "SEA_4088802666_streetview.jpg", "lat": 47.63465, "lon": -122.32592}, {"id": "CAM_1119", "address": "161 Third St, Cambridge, MA 02141", "city": "Cambridge", "state": "MA", "type": "Office", "vertical": "Commercial", "sqft": 46356.0, "opex": 20598.41141, "valuation": 294263.0201428571, "carbon": 6.146189834, "eui": 23.06334671, "image": "CAM_1119_streetview.jpg", "lat": 42.3656, "lon": -71.0783}, {"id": "CA_6414718", "address": "259 East Grand Avenue, South San Francisco, CA, 94080", "city": "South San Francisco", "state": "CA", "type": "Medical Office/Lab", "vertical": "Healthcare", "sqft": 170618.0, "opex": 20065.26431, "valuation": 0.0, "carbon": 35.04313413, "eui": 118.1067149, "image": "CA_6414718_streetview.jpg", "lat": 37.654553, "lon": -122.3947812}, {"id": "SD_277", "address": "3033 Science Park Road, San Diego, CA 92121", "city": "San Diego", "state": "CA", "type": "Medical Office/Lab", "vertical": "Healthcare", "sqft": 97955.0, "opex": 15027.41454, "valuation": 0.0, "carbon": 1.811035897, "eui": 78.03626665, "image": "SD_277_GooglePlaces.jpg", "lat": 32.9016709, "lon": -117.2404435}, {"id": "SEA_1992200045", "address": "410 W Harrison St, Seattle, WA, 98119", "city": "Seattle", "state": "WA", "type": "Medical Office/Lab", "vertical": "Healthcare", "sqft": 34416.0, "opex": 10249.75187, "valuation": 0.0, "carbon": 19.52446349, "eui": 262.9523477, "image": "SEA_1992200045_Serpapi.jpg", "lat": 47.6224, "lon": -122.36248}, {"id": "BOS_100417", "address": "79-96 Thirteenth St, Boston, MA, 02129", "city": "Boston", "state": "MA", "type": "Medical Office/Lab", "vertical": "Healthcare", "sqft": 25309.0, "opex": 2901.906813, "valuation": 0.0, "carbon": 4.484167078, "eui": 82.59736062, "image": "BOS_100417_streetview.jpg", "lat": 42.3784138, "lon": -71.0526346}]