[{"id": "BOS_100268", "address": "188 Geneva Ave, Boston, MA, 02121", "city": "Boston", "state": "MA", "type": "PreK-12", "vertical": "Education", "sqft": 40920.0, "opex": 26182.11412, "valuation": 0.0, "carbon": 50.49828222, "eui": 91.38122678, "image": "BOS_100268_streetview.jpg", "lat": 42.3054686, "lon": -71.0756805}, {"id": "NYC_4161200006", "address": "216 Beach 87Th Street, New York, NY, 11693", "city": "New York", "state": "NY", "type": "PreK-12", "vertical": "Education", "sqft": 27597.0, "opex": 11968.28202, "valuation": 0.0, "carbon": 5.933923753, "eui": 44.23223901, "image": "NYC_4161200006_Serpapi.jpg", "lat": 40.588045, "lon": -73.812206}, {"id": "NYC_2029620029", "address": "1424 Boston Road, New York, NY, 10456", "city": "New York", "state": "NY", "type": "PreK-12", "vertical": "Education", "sqft": 28964.0, "opex": 7363.39953, "valuation": 0.0, "carbon": 13.18158547, "eui": 51.32179948, "image": "NYC_2029620029_cyclomedia.jpg", "lat": 40.833145, "lon": -73.897115}, {"id": "DC_5484714", "address": "3240 Stanton Rd SE, Washington, DC 20020", "city": "Washington", "state": "DC", "type": "PreK-12", "vertical": "Education", "sqft": 77500.0, "opex": 6522.894451, "valuation": 0.0, "carbon": 3.418824288, "eui": 12.1902263, "image": "DC_5484714_Serpapi.jpg", "lat": 38.84927537, "lon": -76.9806473}, {"id": "NYC_2030440024", "address": "1997 Bathgate Ave, New York, NY, 10457", "city": "New York", "state": "NY", "type": "PreK-12", "vertical": "Education", "sqft": 26317.0, "opex": 5838.0632, "valuation": 0.0, "carbon": 2.677269172, "eui": 27.1782764, "image": "NYC_2030440024_cyclomedia.jpg", "lat": 40.848824, "lon": -73.896075}]