[{"id": "BOS_101332", "address": "888 Boylston St, Boston, MA, 02199", "city": "Boston", "state": "MA", "type": "Office", "vertical": "Commercial", "sqft": 375763.0, "opex": 303167.4181, "valuation": 4330963.1157142855, "carbon": 245.7148239, "eui": 49.35856697, "image": "BOS_101332_Reitnotes.jpg", "lat": 42.3479913, "lon": -71.0829597}, {"id": "CA_21715277", "address": "3248 Lionshead Avenue, Carlsbad, CA, 92010", "city": "Carlsbad", "state": "CA", "type": "Retail/Consumer Services", "vertical": "Commercial", "sqft": 55573.0, "opex": 70655.63834, "valuation": 1130490.21344, "carbon": 13.54685427, "eui": 51.70476093, "image": "CA_21715277_Yelp.jpg", "lat": 33.133063, "lon": -117.2341804}, {"id": "CA_16098145", "address": "899 Francisco Street, Los Angeles, CA, 90015", "city": "Los Angeles", "state": "CA", "type": "Retail/Consumer Services", "vertical": "Commercial", "sqft": 289108.0, "opex": 57028.5655, "valuation": 814693.7928571427, "carbon": 11.56380076, "eui": 42.9390232, "image": "CA_16098145_ABCNews.jpg", "lat": 34.047385, "lon": -118.2646764}, {"id": "SJ_142", "address": "2711 N 1St St, San Jose, CA, 95134", "city": "San Jose", "state": "CA", "type": "Office", "vertical": "Commercial", "sqft": 76568.0, "opex": 16395.29463, "valuation": 218603.9284, "carbon": 30.6424305, "eui": 33.91155225, "image": "SJ_142_streetview.jpg", "lat": 37.389126, "lon": -121.9306013}, {"id": "SF_07190012024", "address": "945 Van Ness Ave, San Francisco, CA, 94109", "city": "San Francisco", "state": "CA", "type": "Retail/Consumer Services", "vertical": "Commercial", "sqft": 87610.0, "opex": 9751.148991, "valuation": 156018.383856, "carbon": 1.704484639, "eui": 16.57665398, "image": "SF_07190012024_streetview.jpg", "lat": 37.78443719, "lon": -122.4216619}, {"id": "CA_14472489", "address": "999 Van Ness Avenue, San Francisco, CA, 94109", "city": "San Francisco", "state": "CA", "type": "Retail/Consumer Services", "vertical": "Commercial", "sqft": 87610.0, "opex": 9750.743072, "valuation": 156011.889152, "carbon": 1.704413686, "eui": 16.57665378, "image": "CA_14472489_streetview.jpg", "lat": 37.7844959, "lon": -122.4216311}, {"id": "SEA_1983200005", "address": "425 Westlake Ave N, Seattle, WA, 98109", "city": "Seattle", "state": "WA", "type": "Mixed Use", "vertical": "Commercial", "sqft": 25920.0, "opex": 1405.743459, "valuation": 20082.049414285713, "carbon": 1.605226457, "eui": 36.25756173, "image": "SEA_1983200005_Mercerislandarchitec.jpg", "lat": 47.62296, "lon": -122.33884}]