[{"id": "NYC_1000477501", "address": "120 Broadway, New York, NY, 10271", "city": "New York", "state": "NY", "type": "Office", "vertical": "Commercial", "sqft": 1910503.0, "opex": 1145053.129, "valuation": 16357901.84285714, "carbon": 1703.092599, "eui": 46.5141536, "image": "NYC_1000477501_GooglePlaces.jpg", "lat": 40.708546, "lon": -74.011041}, {"id": "CHI_103759", "address": "547 W. Jackson Blvd., Chicago, IL, 60661", "city": "Chicago", "state": "IL", "type": "Office", "vertical": "Commercial", "sqft": 347691.0, "opex": 271011.9741, "valuation": 3387649.67625, "carbon": 879.0451725, "eui": 80.4041685, "image": "CHI_103759_streetview.jpg", "lat": 41.892518, "lon": -87.618502}, {"id": "NYC_1008660003", "address": "391-395 Fifth Avenue, New York, NY, 10016", "city": "New York", "state": "NY", "type": "Office", "vertical": "Commercial", "sqft": 35600.0, "opex": 37025.49657, "valuation": 528935.6652857143, "carbon": 12.57596308, "eui": 85.37547753, "image": "NYC_1008660003_streetview.jpg", "lat": 40.749857, "lon": -73.983513}, {"id": "NYC_1012600066", "address": "62 West 45Th Street, New York, NY, 10036", "city": "New York", "state": "NY", "type": "Office", "vertical": "Commercial", "sqft": 44063.0, "opex": 36690.16348, "valuation": 524145.19257142855, "carbon": 56.40861255, "eui": 81.83138461, "image": "NYC_1012600066_cyclomedia.jpg", "lat": 40.756202, "lon": -73.981386}, {"id": "DC_5497699", "address": "1701 K St NW, Washington, DC 20006", "city": "Washington", "state": "DC", "type": "Office", "vertical": "Commercial", "sqft": 71985.0, "opex": 29226.70799, "valuation": 417524.3998571428, "carbon": 50.36314864, "eui": 56.30335418, "image": "DC_5497699_streetview.jpg", "lat": 38.90280431, "lon": -77.03878375}]