[{"id": "LA_425720903647", "address": "8333 Van Nuys Blvd, Panorama City, CA 91402", "city": "Panorama City", "state": "CA", "type": "Retail/Consumer Services", "vertical": "Commercial", "sqft": 142082.0, "opex": 164034.4206, "valuation": 2852772.532173913, "carbon": 64.00387622, "eui": 72.3625688, "image": "LA_425720903647_Serpapi.jpg", "lat": 34.2226303, "lon": -118.4496591}, {"id": "LA_372684891293", "address": "6433 Fallbrook Ave, West Hills, CA 91307", "city": "West Hills", "state": "CA", "type": "Retail/Consumer Services", "vertical": "Commercial", "sqft": 139665.0, "opex": 148333.6402, "valuation": 2579715.4817391303, "carbon": 51.64146197, "eui": 69.36333727, "image": "LA_372684891293_streetview.jpg", "lat": 34.1881934, "lon": -118.6247368}, {"id": "LA_470358770331", "address": "19503 Normandie Ave, Torrance, CA, 90501", "city": "Torrance", "state": "CA", "type": "Retail/Consumer Services", "vertical": "Commercial", "sqft": 144828.0, "opex": 126124.4064, "valuation": 2193467.9373913044, "carbon": 41.55883815, "eui": 57.5, "image": "LA_470358770331_streetview.jpg", "lat": 33.8570235, "lon": -118.3004315}, {"id": "LA_390479923875", "address": "19821 Rinaldi St, Los Angeles, CA, 91326", "city": "Los Angeles", "state": "CA", "type": "Grocery/Supercenter", "vertical": "Commercial", "sqft": 129567.0, "opex": 53102.25383, "valuation": 923517.4579130434, "carbon": 10.61241155, "eui": 61.0315991, "image": "LA_390479923875_streetview.jpg", "lat": 34.2776231, "lon": -118.5668491}, {"id": "LA_483208840364", "address": "811 W 7Th St, Los Angeles, CA 90017", "city": "Los Angeles", "state": "CA", "type": "Office", "vertical": "Commercial", "sqft": 111390.0, "opex": 52977.35652, "valuation": 730722.1588965518, "carbon": 13.57843197, "eui": 31.57698357, "image": "LA_483208840364_En.jpg", "lat": 34.0490854, "lon": -118.259013}, {"id": "LA_448669846810", "address": "580 S San Vicente Blvd, Los Angeles, CA 90048", "city": "Los Angeles", "state": "CA", "type": "Residential Care Facility", "vertical": "Healthcare", "sqft": 44268.0, "opex": 8202.959913, "valuation": 0.0, "carbon": 3.008911614, "eui": 159.4, "image": "LA_448669846810_Serpapi.jpg", "lat": 34.0663913, "lon": -118.372996}, {"id": "LA_426047908014", "address": "14526 Nordhoff St, Los Angeles, CA, 91402", "city": "Los Angeles", "state": "CA", "type": "Grocery/Supercenter", "vertical": "Commercial", "sqft": 31126.0, "opex": 6490.695285, "valuation": 108178.25475, "carbon": 0.574419289, "eui": 153.9, "image": "LA_426047908014_streetview.jpg", "lat": 34.2346703, "lon": -118.4490287}]