[{"id": "CHI_103698", "address": "22 West Washington Street, Chicago, IL, 60602", "city": "Chicago", "state": "IL", "type": "Office", "vertical": "Commercial", "sqft": 471436.0, "opex": 687074.7939, "valuation": 8588434.92375, "carbon": 1013.816292, "eui": 85.69332777, "image": "CHI_103698_W.jpg", "lat": 41.890378, "lon": -87.767632}, {"id": "NYC_2024430100", "address": "260 East 161 St., New York, NY, 10451", "city": "New York", "state": "NY", "type": "Office", "vertical": "Commercial", "sqft": 266042.0, "opex": 377207.1786, "valuation": 5388673.9799999995, "carbon": 474.8530124, "eui": 102.1299855, "image": "NYC_2024430100_streetview.jpg", "lat": 40.825685, "lon": -73.918814}, {"id": "DC_5478659", "address": "1100 13th St NW, Washington, DC 20005", "city": "Washington", "state": "DC", "type": "Office", "vertical": "Commercial", "sqft": 281138.0, "opex": 334353.4389, "valuation": 4776477.698571429, "carbon": 131.3023152, "eui": 62.91702612, "image": "DC_5478659_buildingurl.jpg", "lat": 38.90421357, "lon": -77.03001416}, {"id": "CHI_250001", "address": "120 North Lasalle Street, Chicago, IL, 60602", "city": "Chicago", "state": "IL", "type": "Office", "vertical": "Commercial", "sqft": 482395.0, "opex": 329015.1076, "valuation": 4112688.845, "carbon": 449.3630888, "eui": 43.52015409, "image": "CHI_250001_Jahnstudio.jpg", "lat": 41.829833, "lon": -87.607062}, {"id": "SF_3744002-A2024", "address": "345 Spear St, San Francisco, CA, 94105", "city": "San Francisco", "state": "CA", "type": "Office", "vertical": "Commercial", "sqft": 578104.0, "opex": 297898.0408, "valuation": 3971973.8773333337, "carbon": 395.1994818, "eui": 49.02021365, "image": "", "lat": 37.7898033, "lon": -122.3897574}, {"id": "CA_2903451", "address": "100 West Walnut Street, Pasadena, CA, 91124", "city": "Pasadena", "state": "CA", "type": "Office", "vertical": "Commercial", "sqft": 408590.0, "opex": 237328.1354, "valuation": 3164375.1386666666, "carbon": 243.4626789, "eui": 44.48978729, "image": "CA_2903451_streetview.jpg", "lat": 34.1487598, "lon": -118.1527709}, {"id": "SEA_659000305", "address": "720 Olive Way, Seattle, WA, 98101", "city": "Seattle", "state": "WA", "type": "Office", "vertical": "Commercial", "sqft": 293737.0, "opex": 235672.2073, "valuation": 3142296.0973333335, "carbon": 6.263967576, "eui": 53.15066199, "image": "SEA_659000305_Cbre.jpg", "lat": 47.61418, "lon": -122.33485}, {"id": "DC_5477599", "address": "501 9th St NW, Washington, DC 20004", "city": "Washington", "state": "DC", "type": "Office", "vertical": "Commercial", "sqft": 348069.0, "opex": 195638.4681, "valuation": 2794835.258571428, "carbon": 143.8217833, "eui": 41.38818312, "image": "DC_5477599_streetview.jpg", "lat": 38.89641108, "lon": -77.023704}, {"id": "CHI_101679", "address": "8600 West Bryn Mawr Ave, Chicago, IL, 60631", "city": "Chicago", "state": "IL", "type": "Office", "vertical": "Commercial", "sqft": 417395.0, "opex": 193692.3054, "valuation": 2421153.8175, "carbon": 304.7273206, "eui": 53.47816284, "image": "CHI_101679_Wha.jpg", "lat": 41.968904, "lon": -87.676283}, {"id": "CA_3177195", "address": "North Pasadena Avenue, Pasadena, CA, 91103", "city": "Pasadena", "state": "CA", "type": "Office", "vertical": "Commercial", "sqft": 288213.0, "opex": 183775.4292, "valuation": 2450339.0560000003, "carbon": 176.2728368, "eui": 45.68549104, "image": "", "lat": 34.1520438, "lon": -118.1574345}, {"id": "CHI_158431", "address": "600 N. Michigan Ave, Chicago, IL, 60611", "city": "Chicago", "state": "IL", "type": "Entertainment Venue", "vertical": "Commercial", "sqft": 55435.0, "opex": 142630.689, "valuation": 1782883.6125, "carbon": 171.8516676, "eui": 144.9950418, "image": "", "lat": 41.995368, "lon": -87.684756}, {"id": "CA_3177451", "address": "75 North Fair Oaks Avenue, Pasadena, CA, 91103", "city": "Pasadena", "state": "CA", "type": "Office", "vertical": "Commercial", "sqft": 293109.0, "opex": 116765.4263, "valuation": 1556872.3506666669, "carbon": 103.0098826, "eui": 35.30900337, "image": "CA_3177451_streetview.jpg", "lat": 34.1469956, "lon": -118.1507683}, {"id": "SEA_942000810", "address": "600 4Th Ave, Seattle, WA, 98104", "city": "Seattle", "state": "WA", "type": "Office", "vertical": "Commercial", "sqft": 168870.0, "opex": 116463.6236, "valuation": 1552848.3146666668, "carbon": 150.6972416, "eui": 78.64785338, "image": "SEA_942000810_Bohlincywinskijackso.jpg", "lat": 47.60377, "lon": -122.32971}, {"id": "BOS_103958", "address": "18-32 Tremont St, Boston, MA, 02108", "city": "Boston", "state": "MA", "type": "Office", "vertical": "Commercial", "sqft": 210669.0, "opex": 109995.946, "valuation": 1571370.6571428569, "carbon": 263.9980714, "eui": 49.92672771, "image": "BOS_103958_streetview.jpg", "lat": 42.3586339, "lon": -71.0596474}, {"id": "SF_02360192024", "address": "150 California St, San Francisco, CA, 94111", "city": "San Francisco", "state": "CA", "type": "Office", "vertical": "Commercial", "sqft": 249252.0, "opex": 87205.67851, "valuation": 1162742.3801333334, "carbon": 139.3864713, "eui": 42.17922022, "image": "SF_02360192024_energystar.jpg", "lat": 37.7936734, "lon": -122.3984635}, {"id": "SF_39570042024", "address": "350 Rhode Island St - South, San Francisco, CA, 94103", "city": "San Francisco", "state": "CA", "type": "Office", "vertical": "Commercial", "sqft": 143472.0, "opex": 50799.97866, "valuation": 677333.0488, "carbon": 65.26105427, "eui": 38.01613092, "image": "SF_39570042024_streetview.jpg", "lat": 37.76538838, "lon": -122.4031111}, {"id": "CAM_1698", "address": "125 Cambridgepark Dr, Cambridge, MA 02140", "city": "Cambridge", "state": "MA", "type": "Medical Office/Lab", "vertical": "Healthcare", "sqft": 184935.0, "opex": 33268.25736, "valuation": 0.0, "carbon": 32.21708306, "eui": 72.15307649, "image": "CAM_1698_streetview.jpg", "lat": 42.3952, "lon": -71.1458}, {"id": "CA_5023295", "address": "12070 Telegraph Road, Santa Fe Springs, CA, 90670", "city": "Santa Fe Springs", "state": "CA", "type": "Office", "vertical": "Commercial", "sqft": 53501.0, "opex": 25626.27567, "valuation": 341683.6756, "carbon": 31.61144558, "eui": 45.55084137, "image": "CA_5023295_streetview.jpg", "lat": 33.9425372, "lon": -118.0761004}, {"id": "CA_1923143", "address": "1800 Bridge Parkway, Redwood City, CA, 94065", "city": "Redwood City", "state": "CA", "type": "Office", "vertical": "Commercial", "sqft": 50472.0, "opex": 25342.11577, "valuation": 337894.87693333335, "carbon": 30.16452889, "eui": 50.52000378, "image": "CA_1923143_streetview.jpg", "lat": 37.5372099, "lon": -122.2582547}, {"id": "CA_1923139", "address": "2600 Bridge Parkway, Redwood City, CA, 94065", "city": "Redwood City", "state": "CA", "type": "Medical Office/Lab", "vertical": "Healthcare", "sqft": 51817.0, "opex": 2190.638366, "valuation": 0.0, "carbon": 3.613813286, "eui": 42.29738157, "image": "CA_1923139_streetview.jpg", "lat": 37.5390774, "lon": -122.2572798}, {"id": "CA_1923149", "address": "3000 Bridge Parkway, Redwood City, CA, 94065", "city": "Redwood City", "state": "CA", "type": "Medical Office/Lab", "vertical": "Healthcare", "sqft": 51817.0, "opex": 567.5474907, "valuation": 0.0, "carbon": 0.491837775, "eui": 10.83828094, "image": "CA_1923149_Serpapi.jpg", "lat": 37.5393105, "lon": -122.2559406}]