[{"id": "DC_5479632", "address": "2914 V St NE, Washington, DC 20018", "city": "Washington", "state": "DC", "type": "Grocery/Supercenter", "vertical": "Commercial", "sqft": 43152.0, "opex": 436479.9917, "valuation": 7590956.377391304, "carbon": 8.765707855, "eui": 40.70950355, "image": "DC_5479632_streetview.jpg", "lat": 38.91923187, "lon": -76.96681141}, {"id": "NYC_4121230001", "address": "151-02 132Nd Ave., New York, NY, 11413", "city": "New York", "state": "NY", "type": "Office", "vertical": "Commercial", "sqft": 69144.0, "opex": 36372.56767, "valuation": 519608.1095714285, "carbon": 43.63030267, "eui": 52.36548797, "image": "NYC_4121230001_cyclomedia.jpg", "lat": 40.671038, "lon": -73.785852}, {"id": "CA_19427846", "address": "8911 Aviation Boulevard, Inglewood, CA, 90301", "city": "Inglewood", "state": "CA", "type": "Office", "vertical": "Commercial", "sqft": 130239.0, "opex": 19907.15116, "valuation": 265428.68213333335, "carbon": 11.77280914, "eui": 13.56726292, "image": "CA_19427846_Reitnotes.jpg", "lat": 33.9560093, "lon": -118.3775284}, {"id": "LA_447823801674", "address": "5431 W 104Th St, Los Angeles, CA 90045", "city": "Los Angeles", "state": "CA", "type": "Office", "vertical": "Commercial", "sqft": 41656.0, "opex": 10112.57065, "valuation": 139483.7331034483, "carbon": 2.331768054, "eui": 22.2, "image": "LA_447823801674_streetview.jpg", "lat": 33.9424887, "lon": -118.3751393}, {"id": "SEA_3573700195", "address": "4930 3Rd Ave S, Seattle, WA, 98134", "city": "Seattle", "state": "WA", "type": "Retail/Consumer Services", "vertical": "Commercial", "sqft": 37247.0, "opex": 3977.159937, "valuation": 66285.99895, "carbon": 8.495279664, "eui": 47.69844551, "image": "", "lat": 47.55772, "lon": -122.33017}, {"id": "DC_5484834", "address": "3300 V St NE, Washington, DC, 20018", "city": "Washington", "state": "DC", "type": "Hospital/Clinic", "vertical": "Healthcare", "sqft": 50000.0, "opex": 1130.919707, "valuation": 0.0, "carbon": 3.878283896, "eui": 31.52158938, "image": "DC_5484834_buildingurl.jpg", "lat": 38.9190324, "lon": -76.95946989}]