[{"id": "NYC_2024930001", "address": "One East 161St Street, New York, NY, 10451", "city": "New York", "state": "NY", "type": "Entertainment Venue", "vertical": "Commercial", "sqft": 1300000.0, "opex": 3270785.497, "valuation": 43610473.29333334, "carbon": 2919.78847, "eui": 106.7331911, "image": "NYC_2024930001_Serpapi.jpg", "lat": 40.8295741, "lon": -73.9264477}, {"id": "NYC_2031200020", "address": "2300 Southern Blvd, New York, NY, 10460", "city": "New York", "state": "NY", "type": "Office", "vertical": "Commercial", "sqft": 641893.0, "opex": 879139.2914, "valuation": 12559132.734285712, "carbon": 7597.836369, "eui": 570.066218, "image": "NYC_2031200020_GooglePlaces.jpg", "lat": 40.850543, "lon": -73.882456}, {"id": "NYC_2059000001", "address": "3701 Jerome Ave, New York, NY, 10467", "city": "New York", "state": "NY", "type": "Office", "vertical": "Commercial", "sqft": 457900.0, "opex": 654932.1215, "valuation": 0.0, "carbon": 1471.051917, "eui": 415.3783608, "image": "NYC_2059000001_NewYorkYIMBY.jpg", "lat": 40.887018, "lon": -73.878095}, {"id": "NYC_1015870001", "address": "1750 York Ave, New York, NY, 10128", "city": "New York", "state": "NY", "type": "Gym", "vertical": "Commercial", "sqft": 97960.0, "opex": 198571.1693, "valuation": 2836730.99, "carbon": 343.1431459, "eui": 242.4561515, "image": "NYC_1015870001_AsphaltGreen.jpg", "lat": 40.779378, "lon": -73.944604}, {"id": "NYC_3086980001", "address": "610 Surf Ave, New York, NY, 11224", "city": "New York", "state": "NY", "type": "Hospital/Clinic", "vertical": "Healthcare", "sqft": 196505.0, "opex": 147882.2001, "valuation": 0.0, "carbon": 136.1391733, "eui": 242.9638666, "image": "NYC_3086980001_cyclomedia.jpg", "lat": 40.575205, "lon": -73.97594}, {"id": "NYC_3021110015", "address": "30 Lafayette Ave, New York, NY, 11217", "city": "New York", "state": "NY", "type": "Entertainment Venue", "vertical": "Commercial", "sqft": 107229.0, "opex": 122855.8005, "valuation": 1535697.50625, "carbon": 162.8453673, "eui": 95.45871732, "image": "NYC_3021110015_H.jpg", "lat": 40.686866, "lon": -73.977738}, {"id": "NYC_4020180500", "address": "Flushing Meadows Corona Park, New York, NY, 11368", "city": "New York", "state": "NY", "type": "Office", "vertical": "Commercial", "sqft": 61000.0, "opex": 113228.9041, "valuation": 1617555.7728571426, "carbon": 146.5417742, "eui": 153.483882, "image": "NYC_4020180500_BKSKArchitects.jpg", "lat": 40.742377, "lon": -73.842157}, {"id": "NYC_5003140070", "address": "614 Broadway, New York, NY, 10310", "city": "New York", "state": "NY", "type": "Office", "vertical": "Commercial", "sqft": 67025.0, "opex": 69049.20676, "valuation": 986417.2394285712, "carbon": 122.7466468, "eui": 133.0154077, "image": "NYC_5003140070_cyclomedia.jpg", "lat": 40.625592, "lon": -74.114611}, {"id": "NYC_1021060001", "address": "2275 Amsterdam Ave, New York, NY, 10032", "city": "New York", "state": "NY", "type": "Gym", "vertical": "Commercial", "sqft": 29857.0, "opex": 46639.91285, "valuation": 666284.4692857142, "carbon": 65.06479566, "eui": 169.8929196, "image": "NYC_1021060001_Wikipediathefreeency.jpg", "lat": 40.843344, "lon": -73.934369}, {"id": "NYC_1007220057", "address": "430 West 25Th St, New York, NY, 10001", "city": "New York", "state": "NY", "type": "Gym", "vertical": "Commercial", "sqft": 54000.0, "opex": 45379.84364, "valuation": 648283.4805714285, "carbon": 74.79000339, "eui": 114.8060352, "image": "NYC_1007220057_Wikipediathefreeency.jpg", "lat": 40.748291, "lon": -74.001649}, {"id": "NYC_1013460032", "address": "348 East 54Th St, New York, NY, 10022", "city": "New York", "state": "NY", "type": "Gym", "vertical": "Commercial", "sqft": 25243.0, "opex": 37844.43669, "valuation": 540634.8098571429, "carbon": 38.47583232, "eui": 184.6923147, "image": "NYC_1013460032_MapQuest.jpg", "lat": 40.756882, "lon": -73.965536}, {"id": "NYC_4020770050", "address": "93-29 Queens Blvd, New York, NY, 11374", "city": "New York", "state": "NY", "type": "Gym", "vertical": "Commercial", "sqft": 65280.0, "opex": 35157.02534, "valuation": 502243.2191428571, "carbon": 9.272907369, "eui": 34.62516085, "image": "NYC_4020770050_cyclomedia.jpg", "lat": 40.73147, "lon": -73.866044}, {"id": "NYC_4051070200", "address": "43-50 Main St, New York, NY, 11355", "city": "New York", "state": "NY", "type": "Office", "vertical": "Commercial", "sqft": 48677.0, "opex": 30131.46899, "valuation": 430449.557, "carbon": 33.14334538, "eui": 84.73672165, "image": "NYC_4051070200_enwikipediaorg.jpg", "lat": 40.751508, "lon": -73.826092}, {"id": "NYC_3013530001", "address": "1251 Prospect Pl, New York, NY, 11213", "city": "New York", "state": "NY", "type": "Gym", "vertical": "Commercial", "sqft": 42171.0, "opex": 29812.7269, "valuation": 425896.09857142856, "carbon": 38.79073023, "eui": 92.55545991, "image": "NYC_3013530001_Yelp.jpg", "lat": 40.673488, "lon": -73.9348}, {"id": "NYC_2029410001", "address": "East 173Rd St At Fulton Ave, New York, NY, 10457", "city": "New York", "state": "NY", "type": "Entertainment Venue", "vertical": "Commercial", "sqft": 25000.0, "opex": 26545.98283, "valuation": 353946.4377333334, "carbon": 52.22194003, "eui": 108.496196, "image": "NYC_2029410001_LivingNewDeal.jpg", "lat": 40.8401352, "lon": -73.8971044}, {"id": "NYC_1011510015", "address": "232 West 60Th St, New York, NY, 10019", "city": "New York", "state": "NY", "type": "Gym", "vertical": "Commercial", "sqft": 33720.0, "opex": 26050.65449, "valuation": 372152.207, "carbon": 69.60197387, "eui": 145.1831732, "image": "NYC_1011510015_ManhattanSideways.jpg", "lat": 40.771727, "lon": -73.988786}, {"id": "NYC_1017300055", "address": "35 West 134Th St, New York, NY, 10037", "city": "New York", "state": "NY", "type": "Gym", "vertical": "Commercial", "sqft": 40560.0, "opex": 22743.63642, "valuation": 324909.09171428566, "carbon": 29.10398449, "eui": 105.1452835, "image": "NYC_1017300055_MapQuest.jpg", "lat": 40.81265, "lon": -73.93949}, {"id": "NYC_3005820001", "address": "155 Bay St, New York, NY, 11231", "city": "New York", "state": "NY", "type": "Gym", "vertical": "Commercial", "sqft": 27069.0, "opex": 22660.12873, "valuation": 323716.1247142857, "carbon": 63.22204766, "eui": 156.7179504, "image": "NYC_3005820001_Yelp.jpg", "lat": 40.671937, "lon": -74.003515}, {"id": "NYC_4017220012", "address": "33-16 108Th St, New York, NY, 11368", "city": "New York", "state": "NY", "type": "Gym", "vertical": "Commercial", "sqft": 25650.0, "opex": 20852.50577, "valuation": 297892.9395714285, "carbon": 42.53993158, "eui": 125.5646472, "image": "NYC_4017220012_6sqft.jpg", "lat": 40.757429, "lon": -73.860938}, {"id": "NYC_2059370440", "address": "675 West 252Nd St, New York, NY, 10471", "city": "New York", "state": "NY", "type": "Office", "vertical": "Commercial", "sqft": 81411.0, "opex": 10881.65002, "valuation": 155452.14314285712, "carbon": 25.11530007, "eui": 32.4004987, "image": "NYC_2059370440_streetview.jpg", "lat": 40.900127, "lon": -73.911202}, {"id": "NYC_3038680002", "address": "1555 Linden Blvd, New York, NY, 11212", "city": "New York", "state": "NY", "type": "Gym", "vertical": "Commercial", "sqft": 72000.0, "opex": 9305.603109, "valuation": 132937.18727142856, "carbon": 12.04372014, "eui": 19.72618472, "image": "NYC_3038680002_NewYorkYIMBY.jpg", "lat": 40.655471, "lon": -73.902853}, {"id": "NYC_1005820050", "address": "3 Clarkson St, New York, NY, 10014", "city": "New York", "state": "NY", "type": "Gym", "vertical": "Commercial", "sqft": 35429.0, "opex": 8023.552083, "valuation": 114622.1726142857, "carbon": 26.35638868, "eui": 67.92308279, "image": "NYC_1005820050_GreenwichVillageSoci.jpg", "lat": 40.729379, "lon": -74.005737}]