[{"id": "NYC_1000220013", "address": "26 Broadway, New York, NY 10004", "city": "New York", "state": "NY", "type": "Office", "vertical": "Commercial", "sqft": 200000.0, "opex": 387283.4371, "valuation": 5532620.529999999, "carbon": 591.2214323, "eui": 343.37408, "image": "NYC_1000220013_AWS.jpg", "lat": 40.7052022, "lon": -74.0131655}, {"id": "NYC_1000210004", "address": "65 Broadway, New York, NY 10006", "city": "New York", "state": "NY", "type": "Office", "vertical": "Commercial", "sqft": 335184.0, "opex": 338365.1163, "valuation": 4833787.375714285, "carbon": 895.7071446, "eui": 108.7274703, "image": "NYC_1000210004_AWS.jpg", "lat": 40.7073811, "lon": -74.0125505}, {"id": "NYC_1008130050", "address": "1384 Broadway, New York, NY, 10018", "city": "New York", "state": "NY", "type": "Office", "vertical": "Commercial", "sqft": 204034.0, "opex": 124416.1602, "valuation": 1777373.717142857, "carbon": 153.3524324, "eui": 60.7715915, "image": "NYC_1008130050_AWS.jpg", "lat": 40.7525798, "lon": -73.9869841}, {"id": "LA_484260840436", "address": "611 W 6Th St, Los Angeles, CA 90017", "city": "Los Angeles", "state": "CA", "type": "Office", "vertical": "Commercial", "sqft": 856039.0, "opex": 86467.55759, "valuation": 1192655.9667586207, "carbon": 19.29090222, "eui": 8.11739839, "image": "LA_484260840436_GooglePlaces.jpg", "lat": 34.0498806, "lon": -118.2549713}, {"id": "NYC_1008660003", "address": "391-395 Fifth Avenue, New York, NY, 10016", "city": "New York", "state": "NY", "type": "Office", "vertical": "Commercial", "sqft": 35600.0, "opex": 37025.49657, "valuation": 528935.6652857143, "carbon": 12.57596308, "eui": 85.37547753, "image": "NYC_1008660003_streetview.jpg", "lat": 40.749857, "lon": -73.983513}, {"id": "NYC_1008320006", "address": "866 Avenue Of The Americas, New York, NY, 10001", "city": "New York", "state": "NY", "type": "Office", "vertical": "Commercial", "sqft": 33000.0, "opex": 34814.10797, "valuation": 497344.3995714285, "carbon": 18.61524244, "eui": 72.47942121, "image": "NYC_1008320006_cyclomedia.jpg", "lat": 40.747689, "lon": -73.989306}, {"id": "NYC_1009980008", "address": "149 West 45 Street, New York, NY, 10036", "city": "New York", "state": "NY", "type": "Entertainment Venue", "vertical": "Commercial", "sqft": 27922.0, "opex": 24552.34839, "valuation": 306904.35487499996, "carbon": 21.3078086, "eui": 67.41560776, "image": "NYC_1009980008_cyclomedia.jpg", "lat": 40.757369, "lon": -73.984096}, {"id": "NYC_1007870070", "address": "252 West 38 Street, New York, NY, 10018", "city": "New York", "state": "NY", "type": "Office", "vertical": "Commercial", "sqft": 66073.0, "opex": 19958.0831, "valuation": 285115.4728571428, "carbon": 45.93987484, "eui": 48.80473416, "image": "NYC_1007870070_cyclomedia.jpg", "lat": 40.7540622, "lon": -73.9906553}, {"id": "NYC_1007870020", "address": "241 W 37th St, New York, NY 10018", "city": "New York", "state": "NY", "type": "Office", "vertical": "Commercial", "sqft": 93948.0, "opex": 12349.10312, "valuation": 176415.75885714285, "carbon": 18.21322611, "eui": 39.07305105, "image": "NYC_1007870020_cyclomedia.jpg", "lat": 40.7538706, "lon": -73.9909457}]