[{"id": "CHI_134783", "address": "37 S. Wabash Avenue, Chicago, IL, 60606", "city": "Chicago", "state": "IL", "type": "Higher Ed", "vertical": "Education", "sqft": 227736.0, "opex": 103278.5312, "valuation": 0.0, "carbon": 507.6946925, "eui": 90.97523194, "image": "CHI_134783_streetview.jpg", "lat": 41.775441, "lon": -87.609321}, {"id": "CHI_101784", "address": "430 S. Michigan Ave, Chicago, IL, 60605", "city": "Chicago", "state": "IL", "type": "Higher Ed", "vertical": "Education", "sqft": 598474.0, "opex": 97943.90327, "valuation": 0.0, "carbon": 435.7996214, "eui": 38.15305841, "image": "CHI_101784_streetview.jpg", "lat": 41.860089, "lon": -87.628636}, {"id": "CHI_101569", "address": "401 S. State St., Chicago, IL, 60605", "city": "Chicago", "state": "IL", "type": "Higher Ed", "vertical": "Education", "sqft": 517424.0, "opex": 93381.17545, "valuation": 0.0, "carbon": 374.9891229, "eui": 39.68129064, "image": "CHI_101569_streetview.jpg", "lat": 41.87632131, "lon": -87.62720278}, {"id": "CHI_251929", "address": "600 S Michigan, Chicago, IL, 60605", "city": "Chicago", "state": "IL", "type": "Higher Ed", "vertical": "Education", "sqft": 175129.0, "opex": 72945.62774, "valuation": 0.0, "carbon": 316.0217172, "eui": 81.30701032, "image": "CHI_251929_streetview.jpg", "lat": 41.853078, "lon": -87.622384}, {"id": "CHI_158429", "address": "623 S Wabash, Chicago, IL, 60605", "city": "Chicago", "state": "IL", "type": "Higher Ed", "vertical": "Education", "sqft": 206130.0, "opex": 51577.77829, "valuation": 0.0, "carbon": 203.0369547, "eui": 54.25794077, "image": "CHI_158429_Columbiacollegechica.jpg", "lat": 41.964287, "lon": -87.662223}, {"id": "CHI_161150", "address": "1104 S Wabash, Chicago, IL, 60605", "city": "Chicago", "state": "IL", "type": "Higher Ed", "vertical": "Education", "sqft": 166094.0, "opex": 49630.34482, "valuation": 0.0, "carbon": 216.3668144, "eui": 61.74082676, "image": "CHI_161150_Librarycolumbiacolle.jpg", "lat": 41.945101, "lon": -87.641602}, {"id": "CHI_103617", "address": "33 E Congress, Chicago, IL, 60605", "city": "Chicago", "state": "IL", "type": "Higher Ed", "vertical": "Education", "sqft": 153876.0, "opex": 48875.01605, "valuation": 0.0, "carbon": 202.9371546, "eui": 63.80975896, "image": "CHI_103617_streetview.jpg", "lat": 41.858657, "lon": -87.676597}, {"id": "CHI_161145", "address": "624 S Michigan, Chicago, IL, 60605", "city": "Chicago", "state": "IL", "type": "Higher Ed", "vertical": "Education", "sqft": 161155.0, "opex": 48441.51057, "valuation": 0.0, "carbon": 303.0776875, "eui": 73.92599057, "image": "CHI_161145_Columbiacollegechica.jpg", "lat": 41.8735711, "lon": -87.6246153}, {"id": "CHI_161103", "address": "618 S. Michigan, Chicago, IL, 60605", "city": "Chicago", "state": "IL", "type": "Higher Ed", "vertical": "Education", "sqft": 91447.0, "opex": 36066.57602, "valuation": 0.0, "carbon": 155.7767244, "eui": 81.13617921, "image": "CHI_161103_streetview.jpg", "lat": 41.971143, "lon": -87.709627}, {"id": "CHI_256781", "address": "754 S Wabash, Chicago, IL, 60605", "city": "Chicago", "state": "IL", "type": "Higher Ed", "vertical": "Education", "sqft": 122256.0, "opex": 27181.99174, "valuation": 0.0, "carbon": 98.05713391, "eui": 49.31225206, "image": "CHI_256781_Columbiacollegechica.jpg", "lat": 41.893793, "lon": -87.702298}, {"id": "CHI_251945", "address": "916 S Wabash, Chicago, IL, 60605", "city": "Chicago", "state": "IL", "type": "Higher Ed", "vertical": "Education", "sqft": 66358.0, "opex": 27054.42153, "valuation": 0.0, "carbon": 81.0560936, "eui": 68.85818372, "image": "CHI_251945_Serpapi.jpg", "lat": 41.888301, "lon": -87.629407}, {"id": "CHI_161147", "address": "72 E 11th St, Chicago, IL, 60605", "city": "Chicago", "state": "IL", "type": "Higher Ed", "vertical": "Education", "sqft": 66796.0, "opex": 26099.55912, "valuation": 0.0, "carbon": 148.8422498, "eui": 90.87894408, "image": "CHI_161147_Columbiacollegechica.jpg", "lat": 41.899822, "lon": -87.628699}]