[{"id": "CHI_101846", "address": "200 West Adams St., Chicago, IL, 60606", "city": "Chicago", "state": "IL", "type": "Office", "vertical": "Commercial", "sqft": 789024.0, "opex": 307357.0566, "valuation": 3841963.2075, "carbon": 399.5393915, "eui": 29.16776975, "image": "CHI_101846_streetview.jpg", "lat": 41.894063, "lon": -87.621396}, {"id": "CA_6418809", "address": "7910 Frost Street, San Diego, CA, 92123", "city": "San Diego", "state": "CA", "type": "Medical Office/Lab", "vertical": "Healthcare", "sqft": 149923.0, "opex": 264138.5203, "valuation": 3521846.9373333333, "carbon": 192.8083219, "eui": 93.82763345, "image": "CA_6418809_streetview.jpg", "lat": 32.8007408, "lon": -117.1542325}, {"id": "CAM_1602", "address": "330 Mt Auburn St, Cambridge, MA 02138", "city": "Cambridge", "state": "MA", "type": "Hospital/Clinic", "vertical": "Healthcare", "sqft": 652524.0, "opex": 242158.1739, "valuation": 0.0, "carbon": 451.7673909, "eui": 259.3941296, "image": "CAM_1602_Wikipedia.jpg", "lat": 42.3744, "lon": -71.1325}, {"id": "DC_5485379", "address": "3301 New Mexico Ave NW, Washington, DC, 20016", "city": "Washington", "state": "DC", "type": "Medical Office/Lab", "vertical": "Healthcare", "sqft": 135136.0, "opex": 161224.7388, "valuation": 2149663.184, "carbon": 277.6051412, "eui": 121.9179766, "image": "DC_5485379_Transwestern.jpg", "lat": 38.93364619, "lon": -77.08511638}, {"id": "LA_442361814214", "address": "6825 Park Ter, Los Angeles, CA 90045", "city": "Los Angeles", "state": "CA", "type": "Medical Office/Lab", "vertical": "Healthcare", "sqft": 90607.0, "opex": 140295.1699, "valuation": 1870602.2653333335, "carbon": 43.59570996, "eui": 168.3, "image": "LA_442361814214_Parkchirp.jpg", "lat": 33.97699, "lon": -118.3934271}, {"id": "CA_9945924", "address": "26732 Crown Valley Parkway, Mission Viejo, CA, 92691", "city": "Mission Viejo", "state": "CA", "type": "Medical Office/Lab", "vertical": "Healthcare", "sqft": 119595.0, "opex": 111200.1366, "valuation": 1482668.488, "carbon": 52.48699751, "eui": 53.91026132, "image": "CA_9945924_GooglePlaces.jpg", "lat": 33.5625644, "lon": -117.6651645}, {"id": "CA_5965848", "address": "39141 Civic Center Drive, Fremont, CA, 94538", "city": "Fremont", "state": "CA", "type": "Medical Office/Lab", "vertical": "Healthcare", "sqft": 110679.0, "opex": 95533.2475, "valuation": 1273776.6333333333, "carbon": 113.5964016, "eui": 74.28915187, "image": "CA_5965848_CBRE.jpg", "lat": 37.5540761, "lon": -121.9767535}, {"id": "CA_1050855", "address": "6801 Park Terrace, Los Angeles, CA, 90045", "city": "Los Angeles", "state": "CA", "type": "Medical Office/Lab", "vertical": "Healthcare", "sqft": 90607.0, "opex": 93179.44446, "valuation": 1242392.5928, "carbon": 27.58430372, "eui": 97.37854124, "image": "CA_1050855_streetview.jpg", "lat": 33.9776742, "lon": -118.3930995}, {"id": "CA_21541409", "address": "901 Campus Drive, Daly City, CA, 94015", "city": "Daly City", "state": "CA", "type": "Medical Office/Lab", "vertical": "Healthcare", "sqft": 76507.0, "opex": 86233.55869, "valuation": 1149780.7825333334, "carbon": 109.7525188, "eui": 108.3624762, "image": "CA_21541409_streetview.jpg", "lat": 37.6651868, "lon": -122.4756483}, {"id": "CA_14243120", "address": "23961 Calle De La Magdalena, Laguna Hills, CA, 92653", "city": "Laguna Hills", "state": "CA", "type": "Medical Office/Lab", "vertical": "Healthcare", "sqft": 135904.0, "opex": 85734.01875, "valuation": 1143120.25, "carbon": 50.66731778, "eui": 51.28830523, "image": "CA_14243120_LoopNet.jpg", "lat": 33.6102035, "lon": -117.7096891}, {"id": "CA_9475305", "address": "23521 Paseo De Valencia, Laguna Hills, CA, 92653", "city": "Laguna Hills", "state": "CA", "type": "Medical Office/Lab", "vertical": "Healthcare", "sqft": 86986.0, "opex": 80433.91761, "valuation": 1072452.2348000002, "carbon": 58.27835015, "eui": 62.54332128, "image": "CA_9475305_LoopNet.jpg", "lat": 33.6113733, "lon": -117.7116333}, {"id": "SEA_6108450000", "address": "1229 Madison St, Seattle, WA, 98104", "city": "Seattle", "state": "WA", "type": "Medical Office/Lab", "vertical": "Healthcare", "sqft": 215923.0, "opex": 78705.34903, "valuation": 1049404.653733333, "carbon": 102.753812, "eui": 71.68064542, "image": "SEA_6108450000_streetview.jpg", "lat": 47.61002, "lon": -122.32222}, {"id": "CA_5969069", "address": "3300 Webster Street, Oakland, CA, 94609", "city": "Oakland", "state": "CA", "type": "Medical Office/Lab", "vertical": "Healthcare", "sqft": 101214.0, "opex": 76739.25433, "valuation": 1023190.0577333332, "carbon": 71.98715145, "eui": 80.40645533, "image": "CA_5969069_streetview.jpg", "lat": 37.82124, "lon": -122.2620692}, {"id": "CHI_102286", "address": "3000 N Halsted Street, Chicago, IL, 60657", "city": "Chicago", "state": "IL", "type": "Medical Office/Lab", "vertical": "Healthcare", "sqft": 142955.0, "opex": 73809.92174, "valuation": 984132.2898666668, "carbon": 158.0102656, "eui": 77.12750376, "image": "CHI_102286_GooglePlaces.jpg", "lat": 41.9366754, "lon": -87.6494503}, {"id": "SEA_1145000310", "address": "4245 Roosevelt Way NE, Seattle, WA, 98105", "city": "Seattle", "state": "WA", "type": "Hospital/Clinic", "vertical": "Healthcare", "sqft": 95995.0, "opex": 69919.55395, "valuation": 0.0, "carbon": 79.2513461, "eui": 134.9232356, "image": "SEA_1145000310_places.jpg", "lat": 47.65884, "lon": -122.3183}, {"id": "CA_1750754", "address": "8635 West 3Rd Street, Los Angeles, CA, 90048", "city": "Los Angeles", "state": "CA", "type": "Medical Office/Lab", "vertical": "Healthcare", "sqft": 172688.0, "opex": 64925.30248, "valuation": 865670.6997333333, "carbon": 15.48827701, "eui": 41.36165483, "image": "CA_1750754_streetview.jpg", "lat": 34.0737401, "lon": -118.3808045}, {"id": "LA_400197902994", "address": "18350 Roscoe Blvd, Los Angeles, CA, 91325", "city": "Los Angeles", "state": "CA", "type": "Medical Office/Lab", "vertical": "Healthcare", "sqft": 67965.0, "opex": 60881.22312, "valuation": 811749.6416000001, "carbon": 17.72396789, "eui": 64.35487383, "image": "LA_400197902994_streetview.jpg", "lat": 34.2203434, "lon": -118.5341007}, {"id": "LA_425121895597", "address": "14624 Sherman Way, Los Angeles, CA, 91405", "city": "Los Angeles", "state": "CA", "type": "Medical Office/Lab", "vertical": "Healthcare", "sqft": 52588.0, "opex": 54003.23088, "valuation": 720043.0784000001, "carbon": 16.85716628, "eui": 67.86952537, "image": "LA_425121895597_streetview.jpg", "lat": 34.2003625, "lon": -118.4516073}, {"id": "CHI_101872", "address": "100 North La Salle Street, Chicago, IL, 60602", "city": "Chicago", "state": "IL", "type": "Office", "vertical": "Commercial", "sqft": 151768.0, "opex": 53729.02002, "valuation": 671612.75025, "carbon": 93.34476231, "eui": 37.4297491, "image": "CHI_101872_streetview.jpg", "lat": 41.936448, "lon": -87.649291}, {"id": "CA_25971863", "address": "50 North La Cienega Boulevard, Beverly Hills, CA, 90211", "city": "Beverly Hills", "state": "CA", "type": "Medical Office/Lab", "vertical": "Healthcare", "sqft": 78434.0, "opex": 47463.12727, "valuation": 632841.6969333333, "carbon": 79.97954803, "eui": 97.59220872, "image": "CA_25971863_streetview.jpg", "lat": 34.0669383, "lon": -118.375914}, {"id": "LA_425149895723", "address": "14600 Sherman Way, Los Angeles, CA, 91405", "city": "Los Angeles", "state": "CA", "type": "Medical Office/Lab", "vertical": "Healthcare", "sqft": 50671.0, "opex": 44591.37211, "valuation": 594551.6281333333, "carbon": 12.98160593, "eui": 63.22295001, "image": "LA_425149895723_streetview.jpg", "lat": 34.2007359, "lon": -118.4514653}, {"id": "DEN_5533", "address": "850 E. Harvard Ave., Denver, CO, 80210", "city": "Denver", "state": "CO", "type": "Medical Office/Lab", "vertical": "Healthcare", "sqft": 82652.0, "opex": 43845.1093, "valuation": 584601.4573333333, "carbon": 176.8244755, "eui": 104.7556732, "image": "DEN_5533_Cbre.jpg", "lat": 39.6703298, "lon": -104.9777961}, {"id": "SEA_8725990000", "address": "1221 Madison St, Seattle, WA, 98104", "city": "Seattle", "state": "WA", "type": "Hospital/Clinic", "vertical": "Healthcare", "sqft": 225982.0, "opex": 41530.31419, "valuation": 0.0, "carbon": 73.41814095, "eui": 107.8331195, "image": "SEA_8725990000_streetview.jpg", "lat": 47.60979, "lon": -122.32298}, {"id": "CA_8766590", "address": "50 Alessandro Place, Pasadena, CA, 91105", "city": "Pasadena", "state": "CA", "type": "Medical Office/Lab", "vertical": "Healthcare", "sqft": 62903.0, "opex": 40045.32735, "valuation": 533937.698, "carbon": 46.73577347, "eui": 68.95938553, "image": "CA_8766590_streetview.jpg", "lat": 34.130781, "lon": -118.1515367}, {"id": "LA_399095903011", "address": "18546 Roscoe Blvd, Los Angeles, CA, 91324", "city": "Los Angeles", "state": "CA", "type": "Medical Office/Lab", "vertical": "Healthcare", "sqft": 41454.0, "opex": 37691.23736, "valuation": 502549.83146666666, "carbon": 10.37840283, "eui": 75.3, "image": "LA_399095903011_streetview.jpg", "lat": 34.2203427, "lon": -118.5376747}, {"id": "DC_5482735", "address": "2141 K St NW, Washington, DC 20037", "city": "Washington", "state": "DC", "type": "Medical Office/Lab", "vertical": "Healthcare", "sqft": 100778.0, "opex": 37651.48756, "valuation": 502019.83413333335, "carbon": 55.85755894, "eui": 62.66256078, "image": "DC_5482735_streetview.jpg", "lat": 38.90292159, "lon": -77.04802761}, {"id": "CA_20939939", "address": "625 34Th Street, Bakersfield, CA, 93301", "city": "Bakersfield", "state": "CA", "type": "Medical Office/Lab", "vertical": "Healthcare", "sqft": 83760.0, "opex": 36302.8998, "valuation": 484038.664, "carbon": 17.28173952, "eui": 42.74278295, "image": "CA_20939939_streetview.jpg", "lat": 35.3901195, "lon": -119.0088905}, {"id": "DEN_5553", "address": "950 E. Harvard Ave., Denver, CO, 80210", "city": "Denver", "state": "CO", "type": "Medical Office/Lab", "vertical": "Healthcare", "sqft": 96896.0, "opex": 35463.39596, "valuation": 472845.2794666667, "carbon": 126.8690636, "eui": 76.57651399, "image": "DEN_5553_Loopnet.jpg", "lat": 39.6705306, "lon": -104.9764395}, {"id": "CA_8766582", "address": "50 Bellefontaine Street, Pasadena, CA, 91105", "city": "Pasadena", "state": "CA", "type": "Medical Office/Lab", "vertical": "Healthcare", "sqft": 52731.0, "opex": 29803.38419, "valuation": 397378.4558666667, "carbon": 35.90494458, "eui": 62.32469094, "image": "CA_8766582_GooglePlaces.jpg", "lat": 34.1313817, "lon": -118.1517523}, {"id": "SD_364", "address": "7920 Frost Street, San Diego, CA 92123", "city": "San Diego", "state": "CA", "type": "Medical Office/Lab", "vertical": "Healthcare", "sqft": 26411.0, "opex": 29195.63958, "valuation": 389275.1944, "carbon": 8.181041231, "eui": 54.4, "image": "SD_364_GooglePlaces.jpg", "lat": 32.80047843, "lon": -117.1552178}, {"id": "CA_15845671", "address": "24022 Calle De La Plata, Laguna Hills, CA, 92653", "city": "Laguna Hills", "state": "CA", "type": "Hospital/Clinic", "vertical": "Healthcare", "sqft": 57573.0, "opex": 14742.26136, "valuation": 0.0, "carbon": 7.582935276, "eui": 82.913447, "image": "CA_15845671_UCIHealth.jpg", "lat": 33.6102308, "lon": -117.7108543}, {"id": "CA_1050849", "address": "11160 Warner Avenue, Fountain Valley, CA, 92708", "city": "Fountain Valley", "state": "CA", "type": "Hospital/Clinic", "vertical": "Healthcare", "sqft": 64004.0, "opex": 8154.231983, "valuation": 0.0, "carbon": 8.843837892, "eui": 74.83711074, "image": "CA_1050849_UCIHealth.jpg", "lat": 33.7155306, "lon": -117.9343282}]