[{"id": "NYC_4002450009", "address": "32-02 Skillman Avenue, New York, NY, 11101", "city": "New York", "state": "NY", "type": "Office", "vertical": "Commercial", "sqft": 301000.0, "opex": 128018.4081, "valuation": 1828834.4014285712, "carbon": 152.9205149, "eui": 42.6291608, "image": "NYC_4002450009_streetview.jpg", "lat": 40.746317, "lon": -73.933097}, {"id": "NYC_1007980041", "address": "116 West 23Rd Street, New York, NY, 10011", "city": "New York", "state": "NY", "type": "Retail/Consumer Services", "vertical": "Commercial", "sqft": 180000.0, "opex": 127577.6345, "valuation": 2551552.69, "carbon": 76.21362543, "eui": 56.33496611, "image": "NYC_1007980041_Serpapi.jpg", "lat": 40.743218, "lon": -73.993562}, {"id": "NYC_1008280035", "address": "218 5th Ave, New York, NY, 10001", "city": "New York", "state": "NY", "type": "Office", "vertical": "Commercial", "sqft": 150888.0, "opex": 64869.16686, "valuation": 926702.3837142856, "carbon": 125.1584728, "eui": 77.9142397, "image": "NYC_1008280035_AWS.jpg", "lat": 40.7437168, "lon": -73.9884073}, {"id": "NYC_1005040043", "address": "166 6Th Avenue, New York, NY, 10013", "city": "New York", "state": "NY", "type": "Retail/Consumer Services", "vertical": "Commercial", "sqft": 39658.0, "opex": 45481.41918, "valuation": 649734.5597142857, "carbon": 17.2078627, "eui": 312.8181552, "image": "NYC_1005040043_cyclomedia.jpg", "lat": 40.725575, "lon": -74.003994}, {"id": "NYC_1007990028", "address": "119 W 23rd St, New York, NY 10011", "city": "New York", "state": "NY", "type": "Office", "vertical": "Commercial", "sqft": 98800.0, "opex": 33163.71099, "valuation": 473767.2998571428, "carbon": 30.61490902, "eui": 75.29963563, "image": "NYC_1007990028_AWS.jpg", "lat": 40.7434978, "lon": -73.9934297}, {"id": "NYC_1004860011", "address": "84 Wooster St, New York, NY 10012", "city": "New York", "state": "NY", "type": "Office", "vertical": "Commercial", "sqft": 65972.0, "opex": 19080.55863, "valuation": 272579.409, "carbon": 23.67917047, "eui": 52.44376402, "image": "NYC_1004860011_AWS.jpg", "lat": 40.7238137, "lon": -74.0011378}, {"id": "NYC_1007990021", "address": "135 West 23Rd Street, New York, NY, 10011", "city": "New York", "state": "NY", "type": "Residential Care Facility", "vertical": "Healthcare", "sqft": 159606.0, "opex": 18355.36662, "valuation": 0.0, "carbon": 30.85340792, "eui": 82.43788705, "image": "NYC_1007990021_streetview.jpg", "lat": 40.743386, "lon": -73.993916}]