[{"id": "NYC_4113580001", "address": "133-40 79Th Street, New York, NY, 11414", "city": "New York", "state": "NY", "type": "Retail/Consumer Services", "vertical": "Commercial", "sqft": 140184.0, "opex": 121257.9957, "valuation": 2425159.914, "carbon": 157.5299699, "eui": 90.4281316, "image": "NYC_4113580001_streetview.jpg", "lat": 40.671837, "lon": -73.856675}, {"id": "BOS_101322", "address": "543-547 Boylston St, Boston, MA, 02116", "city": "Boston", "state": "MA", "type": "Office", "vertical": "Commercial", "sqft": 97790.0, "opex": 107479.7861, "valuation": 1535425.5157142854, "carbon": 119.0467475, "eui": 78.22300849, "image": "", "lat": 42.3507954, "lon": -71.0758526}, {"id": "NYC_1013110058", "address": "130 East 57Th St, New York, NY, 10022", "city": "New York", "state": "NY", "type": "Hotel", "vertical": "Commercial", "sqft": 111084.0, "opex": 70077.77184, "valuation": 1001111.0262857142, "carbon": 35.73825941, "eui": 82.90772298, "image": "NYC_1013110058_streetview.jpg", "lat": 40.761069, "lon": -73.969487}, {"id": "NYC_1007630034", "address": "601 8Th Avenue, New York, NY, 10018", "city": "New York", "state": "NY", "type": "Retail/Consumer Services", "vertical": "Commercial", "sqft": 30763.0, "opex": 53121.12896, "valuation": 1062422.5792, "carbon": 60.51169648, "eui": 153.5547996, "image": "NYC_1007630034_cyclomedia.jpg", "lat": 40.755514, "lon": -73.991056}, {"id": "NYC_2027430006", "address": "1030 Southern Boulevard, New York, NY, 10459", "city": "New York", "state": "NY", "type": "Retail/Consumer Services", "vertical": "Commercial", "sqft": 32100.0, "opex": 23084.22673, "valuation": 461684.5346, "carbon": 19.70020446, "eui": 72.01883489, "image": "NYC_2027430006_Serpapi.jpg", "lat": 40.823885, "lon": -73.891851}]