[{"id": "PHL_95528", "address": "100 Packer Ave/25 E Pattison Ave, Philadelphia, PA, 19148", "city": "Philadelphia", "state": "PA", "type": "Medical Office/Lab", "vertical": "Healthcare", "sqft": 80064.0, "opex": 172538.0623, "valuation": 0.0, "carbon": 366.6133324, "eui": 904.2776804, "image": "PHL_95528_Serpapi.jpg", "lat": 39.9066982, "lon": -75.151751}, {"id": "PHL_97310", "address": "9001 State Rd, Philadelphia, PA 19136", "city": "Philadelphia", "state": "PA", "type": "Office", "vertical": "Commercial", "sqft": 232004.3187, "opex": 71336.08201, "valuation": 0.0, "carbon": 280.9691278, "eui": 140.9, "image": "PHL_97310_GooglePlaces.jpg", "lat": 40.04296334, "lon": -74.99976006}, {"id": "PHL_157929", "address": "1900 Johnston St, Philadelphia, PA, 19145", "city": "Philadelphia", "state": "PA", "type": "Grocery/Supercenter", "vertical": "Commercial", "sqft": 216951.7191, "opex": 68264.00612, "valuation": 0.0, "carbon": 344.0982506, "eui": 155.2, "image": "", "lat": 39.9165605, "lon": -75.1798327}, {"id": "PHL_166230", "address": "2100 W Girard Ave, Philadelphia, PA, 19130", "city": "Philadelphia", "state": "PA", "type": "Residential Care Facility", "vertical": "Healthcare", "sqft": 302543.0, "opex": 67485.03384, "valuation": 0.0, "carbon": 303.5859152, "eui": 102.422372, "image": "PHL_166230_Whyy.jpg", "lat": 39.97228906, "lon": -75.17235403}, {"id": "PHL_157943", "address": "200 W Wyoming Ave, Philadelphia, PA, 19140", "city": "Philadelphia", "state": "PA", "type": "Office", "vertical": "Commercial", "sqft": 368004.0, "opex": 63619.8511, "valuation": 0.0, "carbon": 216.8042395, "eui": 84.58004315, "image": "PHL_157943_Serpapi.jpg", "lat": 40.02132639, "lon": -75.12953785}, {"id": "PHL_157940", "address": "6000 Penn St, Philadelphia, PA, 19149", "city": "Philadelphia", "state": "PA", "type": "Office", "vertical": "Commercial", "sqft": 104996.9956, "opex": 62268.09417, "valuation": 0.0, "carbon": 324.7267498, "eui": 295.8, "image": "PHL_157940_GooglePlaces.jpg", "lat": 40.03099101, "lon": -75.07418349}, {"id": "PHL_157941", "address": "5900 Callowhill St, Philadelphia, PA, 19139", "city": "Philadelphia", "state": "PA", "type": "Office", "vertical": "Commercial", "sqft": 213040.1181, "opex": 53670.92401, "valuation": 0.0, "carbon": 253.4931871, "eui": 125.3, "image": "PHL_157941_streetview.jpg", "lat": 39.9674973, "lon": -75.2377671}, {"id": "PHL_95525", "address": "3110 W Queen Lane, Philadelphia, PA 19129", "city": "Philadelphia", "state": "PA", "type": "Medical Office/Lab", "vertical": "Healthcare", "sqft": 110005.1105, "opex": 37835.66292, "valuation": 0.0, "carbon": 92.18037725, "eui": 141.2, "image": "", "lat": 40.01796547, "lon": -75.18399911}, {"id": "PHL_157938", "address": "4901 Woodland Ave, Philadelphia, PA, 19143", "city": "Philadelphia", "state": "PA", "type": "Office", "vertical": "Commercial", "sqft": 183484.0, "opex": 31037.30799, "valuation": 0.0, "carbon": 158.7373024, "eui": 88.3571712, "image": "", "lat": 39.94094818, "lon": -75.21386376}, {"id": "PHL_157939", "address": "Bridge Street && Frankford Avenue, Philadelphia, PA, 19124", "city": "Philadelphia", "state": "PA", "type": "Office", "vertical": "Commercial", "sqft": 101973.3809, "opex": 30935.92571, "valuation": 0.0, "carbon": 125.6383007, "eui": 140.2, "image": "PHL_157939_Urbanengineers.jpg", "lat": 40.0233124, "lon": -75.0768446}, {"id": "PHL_157932", "address": "2600 W Allegheny Ave, Philadelphia, PA, 19132", "city": "Philadelphia", "state": "PA", "type": "Office", "vertical": "Commercial", "sqft": 207985.7708, "opex": 26262.51144, "valuation": 0.0, "carbon": 98.16070239, "eui": 69.8, "image": "PHL_157932_streetview.jpg", "lat": 40.00336458, "lon": -75.17321262}, {"id": "PHL_157936", "address": "5320 Jefferson St, Philadelphia, PA, 19131", "city": "Philadelphia", "state": "PA", "type": "Office", "vertical": "Commercial", "sqft": 200127.5564, "opex": 18587.77745, "valuation": 0.0, "carbon": 70.65897674, "eui": 55.9, "image": "", "lat": 39.98083738, "lon": -75.22917968}, {"id": "PHL_165470", "address": "4300 Ford Rd, Philadelphia, PA, 19131", "city": "Philadelphia", "state": "PA", "type": "Medical Office/Lab", "vertical": "Healthcare", "sqft": 56164.0, "opex": 18532.96296, "valuation": 0.0, "carbon": 18.48472185, "eui": 253.9630575, "image": "PHL_165470_GooglePlaces.jpg", "lat": 40.00221269, "lon": -75.22013782}, {"id": "PHL_166210", "address": "321 University Ave, Philadelphia, PA, 19104", "city": "Philadelphia", "state": "PA", "type": "Medical Office/Lab", "vertical": "Healthcare", "sqft": 69120.0, "opex": 11010.3332, "valuation": 0.0, "carbon": 9.954964985, "eui": 128.7296532, "image": "", "lat": 39.94746052, "lon": -75.19801712}, {"id": "PHL_166245", "address": "1300 E Tulpehocken St, Philadelphia, PA 19138", "city": "Philadelphia", "state": "PA", "type": "Residential Care Facility", "vertical": "Healthcare", "sqft": 50443.82453, "opex": 9812.852029, "valuation": 0.0, "carbon": 39.95878995, "eui": 100.3, "image": "PHL_166245_GooglePlaces.jpg", "lat": 40.05674213, "lon": -75.16446892}, {"id": "PHL_157968", "address": "500 S Broad St, Philadelphia, PA, 19146", "city": "Philadelphia", "state": "PA", "type": "Office", "vertical": "Commercial", "sqft": 66339.0, "opex": 9452.629727, "valuation": 0.0, "carbon": 8.899152645, "eui": 106.41728, "image": "", "lat": 39.94442278, "lon": -75.16588438}, {"id": "PHL_166236", "address": "280 Cobbs Creek Pky, Philadelphia, PA 19139", "city": "Philadelphia", "state": "PA", "type": "Entertainment Venue", "vertical": "Commercial", "sqft": 53259.61156, "opex": 8713.719938, "valuation": 0.0, "carbon": 7.390957706, "eui": 62.3, "image": "PHL_166236_Fairmountparkconserv.jpg", "lat": 39.9582249, "lon": -75.2481795}, {"id": "PHL_166241", "address": "1481 N 26Th St, Philadelphia, PA 19121", "city": "Philadelphia", "state": "PA", "type": "Gym", "vertical": "Commercial", "sqft": 59976.85059, "opex": 6996.633362, "valuation": 0.0, "carbon": 29.72759019, "eui": 67.6, "image": "", "lat": 39.9783783, "lon": -75.1778933}, {"id": "PHL_216143", "address": "4101 Frankford Avenue, Philadelphia, PA, 19124", "city": "Philadelphia", "state": "PA", "type": "Hospital/Clinic", "vertical": "Healthcare", "sqft": 69364.0, "opex": 6322.504538, "valuation": 0.0, "carbon": 4.891077689, "eui": 32.92655702, "image": "", "lat": 40.00779699, "lon": -75.09012693}]