[{"id": "CA_3640267", "address": "650 Newport Center Drive, Newport Beach, CA, 92660", "city": "Newport Beach", "state": "CA", "type": "Office", "vertical": "Commercial", "sqft": 417484.0, "opex": 501347.4656, "valuation": 6684632.874666667, "carbon": 514.6934111, "eui": 68.0251734, "image": "CA_3640267_streetview.jpg", "lat": 33.6195187, "lon": -117.8737242}, {"id": "CA_1585320", "address": "4350 La Jolla Village Drive, San Diego, CA, 92122", "city": "San Diego", "state": "CA", "type": "Office", "vertical": "Commercial", "sqft": 208663.0, "opex": 222549.7416, "valuation": 2967329.8880000003, "carbon": 58.24408013, "eui": 41.20409179, "image": "CA_1585320_Commercialsearch.jpg", "lat": 32.8740639, "lon": -117.2125378}, {"id": "CA_1046744", "address": "2040 Main Street, Irvine, CA, 92614", "city": "Irvine", "state": "CA", "type": "Office", "vertical": "Commercial", "sqft": 344118.0, "opex": 215097.6705, "valuation": 2867968.9400000004, "carbon": 70.62187322, "eui": 32.44508785, "image": "CA_1046744_energystar.jpg", "lat": 33.682871, "lon": -117.8524805}, {"id": "CA_1584997", "address": "4695 Macarthur Boulevard, Newport Beach, CA, 92660", "city": "Newport Beach", "state": "CA", "type": "Office", "vertical": "Commercial", "sqft": 312173.0, "opex": 184218.2524, "valuation": 2456243.3653333336, "carbon": 62.90128339, "eui": 30.76662364, "image": "CA_1584997_Serpapi.jpg", "lat": 33.6705479, "lon": -117.8621389}, {"id": "CA_6348156", "address": "5800 Bristol Parkway, Culver City, CA, 90230", "city": "Culver City", "state": "CA", "type": "Office", "vertical": "Commercial", "sqft": 324074.0, "opex": 169663.8556, "valuation": 2262184.741333334, "carbon": 99.64156492, "eui": 40.41908931, "image": "CA_6348156_streetview.jpg", "lat": 33.9876786, "lon": -118.3861861}, {"id": "LA_379474890323", "address": "6301 Owensmouth Ave, Woodland Hills, CA 91367", "city": "Woodland Hills", "state": "CA", "type": "Office", "vertical": "Commercial", "sqft": 322943.0, "opex": 156882.1097, "valuation": 2163891.168275862, "carbon": 46.36052984, "eui": 31.0, "image": "LA_379474890323_streetview.jpg", "lat": 34.1845608, "lon": -118.6020103}, {"id": "LA_379522890103", "address": "6301 Owensmouth Ave, Woodland Hills, CA 91367", "city": "Woodland Hills", "state": "CA", "type": "Office", "vertical": "Commercial", "sqft": 273570.0, "opex": 154357.1597, "valuation": 2129064.271724138, "carbon": 49.66628708, "eui": 34.9, "image": "LA_379522890103_streetview.jpg", "lat": 34.1845608, "lon": -118.6020103}, {"id": "CA_5802608", "address": "1 Civic Center Drive, San Marcos, CA, 92069", "city": "San Marcos", "state": "CA", "type": "Office", "vertical": "Commercial", "sqft": 146989.0, "opex": 153054.8058, "valuation": 2040730.744, "carbon": 126.4743252, "eui": 56.19793006, "image": "CA_5802608_energystar.jpg", "lat": 33.1406987, "lon": -117.1609414}, {"id": "CA_1831229", "address": "4747 Executive Drive, San Diego, CA, 92121", "city": "San Diego", "state": "CA", "type": "Retail/Consumer Services", "vertical": "Commercial", "sqft": 321591.0, "opex": 113416.1933, "valuation": 1512215.9106666667, "carbon": 17.34738031, "eui": 33.22966196, "image": "CA_1831229_energystar.jpg", "lat": 32.875097, "lon": -117.2041308}, {"id": "CA_62738192", "address": "2020 Main Street, Irvine, CA, 92614", "city": "Irvine", "state": "CA", "type": "Office", "vertical": "Commercial", "sqft": 271106.0, "opex": 103529.1822, "valuation": 1380389.096, "carbon": 29.23527291, "eui": 25.76273806, "image": "CA_62738192_streetview.jpg", "lat": 33.6836657, "lon": -117.8533505}, {"id": "CA_1585319", "address": "4370 La Jolla Village Drive, San Diego, CA, 92122", "city": "San Diego", "state": "CA", "type": "Office", "vertical": "Commercial", "sqft": 210554.0, "opex": 103471.3518, "valuation": 1379618.0240000002, "carbon": 22.5689731, "eui": 25.46027999, "image": "CA_1585319_Propertyshark.jpg", "lat": 32.8740136, "lon": -117.2112745}, {"id": "CA_6345391", "address": "4400 Macarthur Boulevard, Newport Beach, CA, 92660", "city": "Newport Beach", "state": "CA", "type": "Office", "vertical": "Commercial", "sqft": 171145.0, "opex": 100622.6354, "valuation": 1341635.1386666668, "carbon": 95.09918408, "eui": 43.85807547, "image": "CA_6345391_energystar.jpg", "lat": 33.6657292, "lon": -117.8631484}, {"id": "CA_6349889", "address": "350 West Colorado Boulevard, Pasadena, CA, 91105", "city": "Pasadena", "state": "CA", "type": "Office", "vertical": "Commercial", "sqft": 82816.0, "opex": 57626.34635, "valuation": 768351.2846666666, "carbon": 64.69675305, "eui": 56.20884462, "image": "CA_6349889_Serpapi.jpg", "lat": 34.1454125, "lon": -118.1580274}, {"id": "CA_21378296", "address": "12515 Cerise Avenue, Hawthorne, CA, 90250", "city": "Hawthorne", "state": "CA", "type": "Office", "vertical": "Commercial", "sqft": 61380.0, "opex": 34708.47965, "valuation": 462779.7286666667, "carbon": 22.61396609, "eui": 36.74206601, "image": "CA_21378296_streetview.jpg", "lat": 33.9190242, "lon": -118.3331363}, {"id": "CA_6349948", "address": "680 East Colorado Boulevard, Pasadena, CA, 91101", "city": "Pasadena", "state": "CA", "type": "Retail/Consumer Services", "vertical": "Commercial", "sqft": 151050.0, "opex": 11109.84609, "valuation": 158712.08699999997, "carbon": 2.430908804, "eui": 33.08461508, "image": "CA_6349948_streetview.jpg", "lat": 34.1453583, "lon": -118.1361091}]