[{"id": "CA_17396791", "address": "1 Stoneridge Mall Road, Pleasanton, CA, 94588", "city": "Pleasanton", "state": "CA", "type": "Retail/Consumer Services", "vertical": "Commercial", "sqft": 603498.0, "opex": 1157740.879, "valuation": 18523854.064, "carbon": 317.4323962, "eui": 81.53632357, "image": "CA_17396791_streetview.jpg", "lat": 37.6954967, "lon": -121.9289486}, {"id": "CAM_1089", "address": "100 Cambridgeside Pl, Cambridge, MA, 02141", "city": "Cambridge", "state": "MA", "type": "Strip/Enclosed Mall", "vertical": "Commercial", "sqft": 396082.0, "opex": 306455.5611, "valuation": 4086074.148, "carbon": 154.2173993, "eui": 66.7210469, "image": "CAM_1089_streetview.jpg", "lat": 42.3688, "lon": -71.0769}, {"id": "CHI_101674", "address": "8700 West Bryn Mawr Ave, Chicago, IL, 60631", "city": "Chicago", "state": "IL", "type": "Office", "vertical": "Commercial", "sqft": 441327.0, "opex": 233704.7347, "valuation": 2921309.18375, "carbon": 413.3481431, "eui": 49.58880984, "image": "CHI_101674_streetview.jpg", "lat": 41.9826965, "lon": -87.8434519}, {"id": "CA_21309933", "address": "3451 South Dogwood Road, El Centro, CA, 92243", "city": "El Centro", "state": "CA", "type": "Strip/Enclosed Mall", "vertical": "Commercial", "sqft": 876701.0, "opex": 154055.1018, "valuation": 2054068.024, "carbon": 67.08095196, "eui": 23.64137973, "image": "CA_21309933_Serpapi.jpg", "lat": 32.7622302, "lon": -115.5307291}, {"id": "NYC_1009947504", "address": "1460 Broadway, New York, NY, 10036", "city": "New York", "state": "NY", "type": "Office", "vertical": "Commercial", "sqft": 181503.0, "opex": 75785.16775, "valuation": 1082645.2535714284, "carbon": 23.2129826, "eui": 16.68124824, "image": "NYC_1009947504_AWS.jpg", "lat": 40.74128, "lon": -73.974764}, {"id": "CA_3406630", "address": "1 Sun Valley Mall, Concord, CA, 94520", "city": "Concord", "state": "CA", "type": "Retail/Consumer Services", "vertical": "Commercial", "sqft": 183354.0, "opex": 43437.16162, "valuation": 694994.58592, "carbon": 8.730987288, "eui": 17.72502563, "image": "CA_3406630_Serpapi.jpg", "lat": 37.9671801, "lon": -122.0606765}, {"id": "NYC_2027240186", "address": "949 Southern Blvd, New York, NY, 10459", "city": "New York", "state": "NY", "type": "Office", "vertical": "Commercial", "sqft": 93310.0, "opex": 39482.68029, "valuation": 564038.2898571427, "carbon": 9.770460797, "eui": 29.4226203, "image": "NYC_2027240186_cyclomedia.jpg", "lat": 40.821354, "lon": -73.891674}, {"id": "NYC_1015150026", "address": "157 East 86Th St, New York, NY, 10002", "city": "New York", "state": "NY", "type": "Office", "vertical": "Commercial", "sqft": 31297.0, "opex": 32722.78849, "valuation": 467468.40699999995, "carbon": 36.90218242, "eui": 88.50516024, "image": "NYC_1015150026_cyclomedia.jpg", "lat": 40.779287, "lon": -73.955057}, {"id": "NYC_4006800032", "address": "30-33 Steinway St, New York, NY, 11103", "city": "New York", "state": "NY", "type": "Office", "vertical": "Commercial", "sqft": 28545.0, "opex": 19553.18881, "valuation": 279331.2687142857, "carbon": 14.78592236, "eui": 53.97879138, "image": "NYC_4006800032_streetview.jpg", "lat": 40.762914, "lon": -73.915778}, {"id": "NYC_1002310032", "address": "455 Broadway, New York, NY, 10013", "city": "New York", "state": "NY", "type": "Office", "vertical": "Commercial", "sqft": 25000.0, "opex": 9534.39818, "valuation": 136205.68828571428, "carbon": 7.308773567, "eui": 34.056924, "image": "NYC_1002310032_Cushman.jpg", "lat": 40.720574, "lon": -74.000898}, {"id": "NYC_2023620015", "address": "2918 Third Ave, New York, NY, 10455", "city": "New York", "state": "NY", "type": "Strip/Enclosed Mall", "vertical": "Commercial", "sqft": 30000.0, "opex": 8113.424113, "valuation": 120198.87574814814, "carbon": 2.100038735, "eui": 24.75134333, "image": "NYC_2023620015_streetview.jpg", "lat": 40.817016, "lon": -73.916205}, {"id": "LA_484464838598", "address": "749 S Broadway, Los Angeles, CA 90014", "city": "Los Angeles", "state": "CA", "type": "Retail/Consumer Services", "vertical": "Commercial", "sqft": 34000.0, "opex": 2679.224121, "valuation": 46595.20210434783, "carbon": 0.719451672, "eui": 12.2, "image": "LA_484464838598_streetview.jpg", "lat": 34.0441989, "lon": -118.2547409}]