[{"id": "NYC_1014550008", "address": "409 East 60Th Street, New York, NY, 10022", "city": "New York", "state": "NY", "type": "Office", "vertical": "Commercial", "sqft": 49500.0, "opex": 423533.2601, "valuation": 6050475.144285714, "carbon": 217.3531928, "eui": 425.1859111, "image": "NYC_1014550008_cyclomedia.jpg", "lat": 40.760001, "lon": -73.960954}, {"id": "NYC_4040310001", "address": "109-01 14 Avenue, New York, NY, 11356", "city": "New York", "state": "NY", "type": "Office", "vertical": "Commercial", "sqft": 149000.0, "opex": 188527.9128, "valuation": 2693255.897142857, "carbon": 261.2954837, "eui": 108.0659141, "image": "NYC_4040310001_cyclomedia.jpg", "lat": 40.785546, "lon": -73.858391}, {"id": "NYC_4083930001", "address": "60-15 Little Neck Parkway, New York, NY, 11362", "city": "New York", "state": "NY", "type": "Office", "vertical": "Commercial", "sqft": 233220.0, "opex": 51098.94805, "valuation": 729984.972142857, "carbon": 61.86062803, "eui": 32.2853233, "image": "NYC_4083930001_cyclomedia.jpg", "lat": 40.759891, "lon": -73.722703}, {"id": "NYC_4040450001", "address": "14-04 111 Street, New York, NY, 11356", "city": "New York", "state": "NY", "type": "Office", "vertical": "Commercial", "sqft": 57275.0, "opex": 45927.40251, "valuation": 656105.7501428571, "carbon": 36.53589739, "eui": 67.68587516, "image": "NYC_4040450001_streetview.jpg", "lat": 40.785362, "lon": -73.855979}, {"id": "NYC_4040320001", "address": "110-01 14Th Ave., New York, NY, 11356", "city": "New York", "state": "NY", "type": "Office", "vertical": "Commercial", "sqft": 71798.0, "opex": 40506.11381, "valuation": 578658.7687142857, "carbon": 68.7966638, "eui": 63.93514443, "image": "NYC_4040320001_cyclomedia.jpg", "lat": 40.78561, "lon": -73.856755}, {"id": "NYC_3030560230", "address": "333 Johnson Avenue, New York, NY, 11206", "city": "New York", "state": "NY", "type": "Office", "vertical": "Commercial", "sqft": 170432.0, "opex": 20286.81068, "valuation": 289811.5811428571, "carbon": 40.00317229, "eui": 23.45544792, "image": "NYC_3030560230_cyclomedia.jpg", "lat": 40.707354, "lon": -73.935279}]