[{"id": "KC_121104719", "address": "401 Nichols Rd, Kansas City, MO, 64112", "city": "Kansas City", "state": "MO", "type": "Strip/Enclosed Mall", "vertical": "Commercial", "sqft": 360088.0, "opex": 114464.4256, "valuation": 1526192.3413333334, "carbon": 189.7625283, "eui": 48.1, "image": "KC_121104719_Flickr.jpg", "lat": 39.040866, "lon": -94.592033}, {"id": "NYC_3046020001", "address": "86 East 49Th Street, New York, NY, 11203", "city": "New York", "state": "NY", "type": "Residential Care Facility", "vertical": "Healthcare", "sqft": 230000.0, "opex": 107965.1108, "valuation": 0.0, "carbon": 54.05959583, "eui": 99.40349304, "image": "NYC_3046020001_Serpapi.jpg", "lat": 40.660032, "lon": -73.932293}, {"id": "SF_04510042024", "address": "3250 Van Ness Ave, San Francisco, CA, 94109", "city": "San Francisco", "state": "CA", "type": "Office", "vertical": "Commercial", "sqft": 158360.0, "opex": 73975.97297, "valuation": 986346.3062666669, "carbon": 122.2654581, "eui": 53.73260988, "image": "SF_04510042024_En.jpg", "lat": 37.80585407, "lon": -122.4245977}, {"id": "SF_00180052024", "address": "100 North Point St, San Francisco, CA, 94133", "city": "San Francisco", "state": "CA", "type": "Office", "vertical": "Commercial", "sqft": 60000.0, "opex": 60733.08365, "valuation": 809774.4486666668, "carbon": 65.25041794, "eui": 78.098678, "image": "SF_00180052024_Officesnapshots.jpg", "lat": 37.80737455, "lon": -122.4094983}, {"id": "SF_01120012024", "address": "151 Union St, San Francisco, CA, 94111", "city": "San Francisco", "state": "CA", "type": "Office", "vertical": "Commercial", "sqft": 205964.0, "opex": 53520.78756, "valuation": 713610.5008, "carbon": 81.67092792, "eui": 39.98998632, "image": "SF_01120012024_Thesanfranciscostand.jpg", "lat": 37.80112198, "lon": -122.4018921}, {"id": "SF_01400012024", "address": "777 Davis St, San Francisco, CA, 94111", "city": "San Francisco", "state": "CA", "type": "Office", "vertical": "Commercial", "sqft": 26160.0, "opex": 7755.073331, "valuation": 103400.97774666669, "carbon": 10.70653756, "eui": 40.55718457, "image": "", "lat": 37.79950573, "lon": -122.399183}]