[{"id": "DC_5477964", "address": "1250 Maryland Ave SW, Washington, DC, 20024", "city": "Washington", "state": "DC", "type": "Office", "vertical": "Commercial", "sqft": 533989.0, "opex": 5763415.025, "valuation": 82334500.35714285, "carbon": 160.0202377, "eui": 43.59150138, "image": "DC_5477964_GooglePlaces.jpg", "lat": 38.88404025, "lon": -77.02913698}, {"id": "DC_5496393", "address": "600 Massachusetts Ave NW, Washington, DC 20001", "city": "Washington", "state": "DC", "type": "Office", "vertical": "Commercial", "sqft": 440815.0, "opex": 4749263.801, "valuation": 67846625.72857141, "carbon": 377.4218198, "eui": 64.05311866, "image": "DC_5496393_buildingurl.jpg", "lat": 38.90139959, "lon": -77.02052889}, {"id": "DEN_5570", "address": "1670 Broadway, Denver, CO, 80202", "city": "Denver", "state": "CO", "type": "Office", "vertical": "Commercial", "sqft": 790316.0, "opex": 3582033.658, "valuation": 44775420.724999994, "carbon": 1106.449156, "eui": 63.28550124, "image": "DEN_5570_streetview.jpg", "lat": 39.7428771, "lon": -104.9868044}, {"id": "DC_5473244", "address": "999 North Capitol St NE, Washington, DC 20002", "city": "Washington", "state": "DC", "type": "Office", "vertical": "Commercial", "sqft": 321544.0, "opex": 3421869.669, "valuation": 48883852.41428571, "carbon": 77.9952132, "eui": 37.5015689, "image": "DC_5473244_energystar.jpg", "lat": 38.90201305, "lon": -77.00845409}, {"id": "DC_5481572", "address": "2300 N St NW, Washington, DC 20037", "city": "Washington", "state": "DC", "type": "Office", "vertical": "Commercial", "sqft": 304484.0, "opex": 3344803.128, "valuation": 47782901.828571424, "carbon": 122.1154578, "eui": 53.40896888, "image": "DC_5481572_Thebusinessjournals.jpg", "lat": 38.90693882, "lon": -77.05074559}, {"id": "DC_5476906", "address": "425 3rd St SW, Washington, DC 20024", "city": "Washington", "state": "DC", "type": "Office", "vertical": "Commercial", "sqft": 248065.0, "opex": 2688101.317, "valuation": 38401447.38571428, "carbon": 78.38122196, "eui": 45.96272445, "image": "DC_5476906_streetview.jpg", "lat": 38.88360543, "lon": -77.01553171}, {"id": "DC_5477023", "address": "810 7th St NW, Washington, DC 20001", "city": "Washington", "state": "DC", "type": "Office", "vertical": "Commercial", "sqft": 282359.0, "opex": 2504191.753, "valuation": 35774167.9, "carbon": 120.9053598, "eui": 57.72870321, "image": "DC_5477023_streetview.jpg", "lat": 38.90031035, "lon": -77.02221735}, {"id": "DC_5483541", "address": "935 L'Enfant Plaza SW, Washington, DC 20024", "city": "Washington", "state": "DC", "type": "Office", "vertical": "Commercial", "sqft": 332113.0, "opex": 2334890.71, "valuation": 33355581.571428567, "carbon": 263.0694403, "eui": 58.86618714, "image": "DC_5483541_buildingurl.jpg", "lat": 38.88443051, "lon": -77.0247673}, {"id": "DC_5473282", "address": "1400 K St NW, Washington, DC 20005", "city": "Washington", "state": "DC", "type": "Office", "vertical": "Commercial", "sqft": 199626.0, "opex": 2163262.12, "valuation": 30903744.57142857, "carbon": 68.02410168, "eui": 48.4, "image": "DC_5473282_energystar.jpg", "lat": 38.90216738, "lon": -77.03240881}, {"id": "DC_5476483", "address": "625 Indiana Ave NW, Washington, DC 20004", "city": "Washington", "state": "DC", "type": "Office", "vertical": "Commercial", "sqft": 182667.0, "opex": 1985447.076, "valuation": 28363529.65714285, "carbon": 64.63839562, "eui": 50.26517785, "image": "DC_5476483_buildingurl.jpg", "lat": 38.89455382, "lon": -77.02074236}, {"id": "DC_5480410", "address": "555 4th St NW, Washington, DC, 20001", "city": "Washington", "state": "DC", "type": "Office", "vertical": "Commercial", "sqft": 410925.0, "opex": 1408323.71, "valuation": 20118910.14285714, "carbon": 13.72743491, "eui": 6.467064571, "image": "DC_5480410_buildingurl.jpg", "lat": 38.89684491, "lon": -77.01563845}, {"id": "DC_5485995", "address": "1735 New York Ave NW, Washington, DC, 20006", "city": "Washington", "state": "DC", "type": "Office", "vertical": "Commercial", "sqft": 121470.0, "opex": 1359320.271, "valuation": 19418861.014285713, "carbon": 270.5843195, "eui": 122.8124263, "image": "DC_5485995_streetview.jpg", "lat": 38.89661216, "lon": -77.04119673}, {"id": "DC_5478527", "address": "500 C St SW, Washington, DC 20024", "city": "Washington", "state": "DC", "type": "Office", "vertical": "Commercial", "sqft": 345639.0, "opex": 1288011.068, "valuation": 18400158.11428571, "carbon": 319.8649432, "eui": 92.59528262, "image": "DC_5478527_streetview.jpg", "lat": 38.88556985, "lon": -77.01867201}, {"id": "SJ_424", "address": "55 S Market St, San Jose, CA, 95113", "city": "San Jose", "state": "CA", "type": "Office", "vertical": "Commercial", "sqft": 329742.0, "opex": 1155084.674, "valuation": 15401128.986666668, "carbon": 640.464989, "eui": 185.4121209, "image": "SJ_424_energystar.jpg", "lat": 37.3341944, "lon": -121.8917041}, {"id": "DC_5482221", "address": "1227 25th St NW, Washington, DC 20037", "city": "Washington", "state": "DC", "type": "Office", "vertical": "Commercial", "sqft": 151649.0, "opex": 1139711.16, "valuation": 16281587.999999998, "carbon": 68.78469596, "eui": 60.89188725, "image": "DC_5482221_Serpapi.jpg", "lat": 38.9059986, "lon": -77.05276402}, {"id": "DC_5485204", "address": "3070 V St NE, Washington, DC, 20018", "city": "Washington", "state": "DC", "type": "Office", "vertical": "Commercial", "sqft": 106266.0, "opex": 1093222.183, "valuation": 15617459.757142857, "carbon": 69.52889853, "eui": 39.92540742, "image": "DC_5485204_buildingurl.jpg", "lat": 38.91922674, "lon": -76.96466398}, {"id": "PHL_141674", "address": "1234 Market St, Philadelphia, PA, 19107", "city": "Philadelphia", "state": "PA", "type": "Office", "vertical": "Commercial", "sqft": 50160.0, "opex": 993990.0571, "valuation": 12424875.71375, "carbon": 3053.925129, "eui": 2363.761001, "image": "PHL_141674_streetview.jpg", "lat": 39.95166166, "lon": -75.16097658}, {"id": "DC_5487179", "address": "2121 Virginia Ave NW, Washington, DC 20037", "city": "Washington", "state": "DC", "type": "Office", "vertical": "Commercial", "sqft": 144111.0, "opex": 993523.1168, "valuation": 14193187.38285714, "carbon": 62.23590247, "eui": 61.34520345, "image": "DC_5487179_buildingurl.jpg", "lat": 38.8963931, "lon": -77.04812109}, {"id": "DC_5480824", "address": "1717 Pennsylvania Ave NW, Washington, DC 20006", "city": "Washington", "state": "DC", "type": "Office", "vertical": "Commercial", "sqft": 219899.0, "opex": 872873.7761, "valuation": 12469625.372857142, "carbon": 101.0212387, "eui": 57.94850158, "image": "DC_5480824_GooglePlaces.jpg", "lat": 38.89948196, "lon": -77.04039957}, {"id": "DC_5487836", "address": "999 E St NW, Washington, DC 20463", "city": "Washington", "state": "DC", "type": "Office", "vertical": "Commercial", "sqft": 174072.0, "opex": 798145.2537, "valuation": 11402075.052857142, "carbon": 198.1755091, "eui": 86.88419769, "image": "DC_5487836_buildingurl.jpg", "lat": 38.89642096, "lon": -77.02551905}, {"id": "DC_5495019", "address": "1160 20th St NW, Washington, DC 20036", "city": "Washington", "state": "DC", "type": "Office", "vertical": "Commercial", "sqft": 908482.0, "opex": 760173.0948, "valuation": 10859615.64, "carbon": 663.8566169, "eui": 64.86511174, "image": "DC_5495019_streetview.jpg", "lat": 38.90484635, "lon": -77.04522541}, {"id": "DC_5478458", "address": "800 K St NW, Washington, DC, 20001", "city": "Washington", "state": "DC", "type": "Office", "vertical": "Commercial", "sqft": 438172.0, "opex": 699170.4283, "valuation": 9988148.975714285, "carbon": 299.9830074, "eui": 86.37640607, "image": "DC_5478458_buildingurl.jpg", "lat": 38.90165697, "lon": -77.02254521}, {"id": "NYC_1000350001", "address": "32 Old Slip, New York, NY, 10005", "city": "New York", "state": "NY", "type": "Office", "vertical": "Commercial", "sqft": 973587.0, "opex": 657331.4241, "valuation": 9390448.915714284, "carbon": 1976.097931, "eui": 82.84308398, "image": "NYC_1000350001_AWS.jpg", "lat": 40.7038611, "lon": -74.0077104}, {"id": "SEA_942000640", "address": "701 5Th Ave, Seattle, WA, 98104", "city": "Seattle", "state": "WA", "type": "Office", "vertical": "Commercial", "sqft": 1632820.0, "opex": 602603.2796, "valuation": 8034710.394666667, "carbon": 410.3272354, "eui": 44.9917223, "image": "SEA_942000640_GooglePlaces.jpg", "lat": 47.60454, "lon": -122.33072}, {"id": "DC_5485543", "address": "1400 L St NW, Washington, DC, 20005", "city": "Washington", "state": "DC", "type": "Office", "vertical": "Commercial", "sqft": 159000.0, "opex": 601408.2885, "valuation": 8591546.978571428, "carbon": 141.4003116, "eui": 94.92707176, "image": "DC_5485543_streetview.jpg", "lat": 38.90345168, "lon": -77.03238003}, {"id": "DEN_2573", "address": "1801 California, Denver, CO, 80202", "city": "Denver", "state": "CO", "type": "Office", "vertical": "Commercial", "sqft": 1542706.0, "opex": 581036.2094, "valuation": 7262952.617500001, "carbon": 1055.280671, "eui": 39.61533371, "image": "DEN_2573_Cushman.jpg", "lat": 39.7477297, "lon": -104.9896229}, {"id": "DC_5483437", "address": "820 First St NE, Washington, DC 20002", "city": "Washington", "state": "DC", "type": "Office", "vertical": "Commercial", "sqft": 306104.0, "opex": 567402.0141, "valuation": 8105743.058571428, "carbon": 235.1425067, "eui": 97.78975205, "image": "DC_5483437_Serpapi.jpg", "lat": 38.90057083, "lon": -77.00780891}, {"id": "CHI_101560", "address": "536 S Clark Street, Chicago, IL, 60605", "city": "Chicago", "state": "IL", "type": "Office", "vertical": "Commercial", "sqft": 635978.0, "opex": 544346.8933, "valuation": 6804336.16625, "carbon": 2480.434139, "eui": 106.0357039, "image": "CHI_101560_Serpapi.jpg", "lat": 41.781667, "lon": -87.64473}, {"id": "BOS_106247", "address": "99 High St, Boston, MA, 02110", "city": "Boston", "state": "MA", "type": "Office", "vertical": "Commercial", "sqft": 731205.0, "opex": 506631.1772, "valuation": 7237588.2457142845, "carbon": 699.8150733, "eui": 59.0218222, "image": "BOS_106247_streetview.jpg", "lat": 42.3544322, "lon": -71.0546834}, {"id": "DC_5487954", "address": "515 22nd St NW, Washington, DC, 20037", "city": "Washington", "state": "DC", "type": "Office", "vertical": "Commercial", "sqft": 102080.0, "opex": 495666.7625, "valuation": 7080953.749999999, "carbon": 71.00211563, "eui": 63.5290478, "image": "DC_5487954_streetview.jpg", "lat": 38.89685212, "lon": -77.0485191}, {"id": "DC_5485365", "address": "One Franklin Square, 1301 K St NW, Washington, DC 20005", "city": "Washington", "state": "DC", "type": "Office", "vertical": "Commercial", "sqft": 694951.0, "opex": 483564.8513, "valuation": 6908069.3042857135, "carbon": 356.3216336, "eui": 59.15854459, "image": "DC_5485365_GooglePlaces.jpg", "lat": 38.90292621, "lon": -77.03052064}, {"id": "NYC_3002390001", "address": "300 Cadman Plaza West, New York, NY, 11201", "city": "New York", "state": "NY", "type": "Office", "vertical": "Commercial", "sqft": 725000.0, "opex": 466123.1681, "valuation": 6658902.401428571, "carbon": 532.3699793, "eui": 59.8409789, "image": "NYC_3002390001_cyclomedia.jpg", "lat": 40.695198, "lon": -73.990869}, {"id": "DC_5481162", "address": "145 N St NE, Washington, DC 20002", "city": "Washington", "state": "DC", "type": "Office", "vertical": "Commercial", "sqft": 623532.0, "opex": 450251.308, "valuation": 6432161.542857142, "carbon": 150.3485212, "eui": 44.64469291, "image": "DC_5481162_Thebusinessjournals.jpg", "lat": 38.90682526, "lon": -77.00458901}, {"id": "DEN_2557", "address": "1999 Broadway, Denver, CO, 80202", "city": "Denver", "state": "CO", "type": "Office", "vertical": "Commercial", "sqft": 749865.0, "opex": 430275.4437, "valuation": 5378443.04625, "carbon": 677.897662, "eui": 47.35978196, "image": "DEN_2557_streetview.jpg", "lat": 39.7477971, "lon": -104.9877172}, {"id": "SEA_939000435", "address": "999 3Rd Ave, Seattle, WA, 98104", "city": "Seattle", "state": "WA", "type": "Office", "vertical": "Commercial", "sqft": 1323055.0, "opex": 419975.9957, "valuation": 5599679.9426666675, "carbon": 9.982448383, "eui": 24.75366028, "image": "SEA_939000435_GooglePlaces.jpg", "lat": 47.60505, "lon": -122.33427}, {"id": "LA_484947840722", "address": "555 W 5Th St, Los Angeles, CA 90013", "city": "Los Angeles", "state": "CA", "type": "Office", "vertical": "Commercial", "sqft": 1546011.0, "opex": 418387.5372, "valuation": 5770862.582068966, "carbon": 85.40326117, "eui": 21.34636157, "image": "LA_484947840722_energystar.jpg", "lat": 34.0500534, "lon": -118.2533929}, {"id": "SEA_942000140", "address": "1110 3Rd Ave, Seattle, WA, 98101", "city": "Seattle", "state": "WA", "type": "Office", "vertical": "Commercial", "sqft": 162993.0, "opex": 415817.3738, "valuation": 5544231.650666667, "carbon": 125.3059758, "eui": 57.99215917, "image": "SEA_942000140_Dotysonsconcreteprod.jpg", "lat": 47.60671, "lon": -122.33456}, {"id": "PHL_166324", "address": "1600 JFK Blvd, Philadelphia, PA, 19103", "city": "Philadelphia", "state": "PA", "type": "Office", "vertical": "Commercial", "sqft": 544200.0, "opex": 412373.1156, "valuation": 5154663.945, "carbon": 289.6839633, "eui": 91.42253179, "image": "PHL_166324_streetview.jpg", "lat": 39.95356426, "lon": -75.16726787}, {"id": "CHI_101559", "address": "77 W Jackson, Chicago, IL, 60604", "city": "Chicago", "state": "IL", "type": "Office", "vertical": "Commercial", "sqft": 799454.0, "opex": 395310.8791, "valuation": 4941385.9887500005, "carbon": 496.514652, "eui": 36.11837553, "image": "CHI_101559_CoStar.jpg", "lat": 41.877746, "lon": -87.6304718}, {"id": "DC_5477908", "address": "1800 M St NW, Washington, DC 20036", "city": "Washington", "state": "DC", "type": "Office", "vertical": "Commercial", "sqft": 615281.0, "opex": 388267.195, "valuation": 5546674.214285714, "carbon": 143.8574424, "eui": 39.55722899, "image": "DC_5477908_energystar.jpg", "lat": 38.90533023, "lon": -77.04223738}, {"id": "DC_5482723", "address": "375 E St SW, Washington, DC 20024", "city": "Washington", "state": "DC", "type": "Office", "vertical": "Commercial", "sqft": 336246.0, "opex": 342683.082, "valuation": 4895472.6, "carbon": 126.9680064, "eui": 60.13753859, "image": "DC_5482723_energystar.jpg", "lat": 38.88406006, "lon": -77.01697251}, {"id": "DC_5476115", "address": "45 L St NE, Washington, DC 20002", "city": "Washington", "state": "DC", "type": "Office", "vertical": "Commercial", "sqft": 561231.0, "opex": 341941.678, "valuation": 4884881.114285714, "carbon": 109.1769508, "eui": 37.31686801, "image": "DC_5476115_energystar.jpg", "lat": 38.90340979, "lon": -77.00722921}, {"id": "DC_5483210", "address": "1025 F St NW, Washington, DC 20004", "city": "Washington", "state": "DC", "type": "Office", "vertical": "Commercial", "sqft": 550923.0, "opex": 340038.8798, "valuation": 4857698.282857142, "carbon": 130.9651233, "eui": 39.7090401, "image": "DC_5483210_GooglePlaces.jpg", "lat": 38.89783885, "lon": -77.02648245}, {"id": "PHL_160526", "address": "801 Market St, Philadelphia, PA, 19107", "city": "Philadelphia", "state": "PA", "type": "Office", "vertical": "Commercial", "sqft": 39154.0, "opex": 337479.6894, "valuation": 4218496.1175, "carbon": 406.9638855, "eui": 1119.791063, "image": "PHL_160526_energystar.jpg", "lat": 39.95175702, "lon": -75.15407937}, {"id": "DC_5477303", "address": "401 3rd St SW, Washington, DC 20024", "city": "Washington", "state": "DC", "type": "Office", "vertical": "Commercial", "sqft": 413417.0, "opex": 336496.5079, "valuation": 4807092.97, "carbon": 124.6758099, "eui": 48.02886696, "image": "DC_5477303_buildingurl.jpg", "lat": 38.8849109, "lon": -77.01550064}, {"id": "DEN_2689", "address": "303 E 17Th Ave, Denver, CO, 80203", "city": "Denver", "state": "CO", "type": "Office", "vertical": "Commercial", "sqft": 294614.0, "opex": 332947.686, "valuation": 4161846.075, "carbon": 242.3673367, "eui": 49.68970687, "image": "DEN_2689_streetview.jpg", "lat": 39.7434388, "lon": -104.9829946}, {"id": "DC_5475603", "address": "415 6th St NW, Washington, DC 20001", "city": "Washington", "state": "DC", "type": "Office", "vertical": "Commercial", "sqft": 543682.0, "opex": 326180.3555, "valuation": 4659719.364285714, "carbon": 116.0795672, "eui": 39.1548146, "image": "DC_5475603_buildingurl.jpg", "lat": 38.89560584, "lon": -77.01962243}, {"id": "NYC_1012917502", "address": "555 Madison Ave, New York, NY, 10022", "city": "New York", "state": "NY", "type": "Office", "vertical": "Commercial", "sqft": 369787.0, "opex": 325890.9309, "valuation": 4655584.727142856, "carbon": 314.0551327, "eui": 77.91130651, "image": "NYC_1012917502_Serpapi.jpg", "lat": 40.761177, "lon": -73.973161}, {"id": "DC_5477991", "address": "1201 Maryland Ave SW, Washington, DC 20024", "city": "Washington", "state": "DC", "type": "Office", "vertical": "Commercial", "sqft": 551537.0, "opex": 314840.6594, "valuation": 4497723.705714285, "carbon": 107.4360266, "eui": 34.53622123, "image": "DC_5477991_energystar.jpg", "lat": 38.88469232, "lon": -77.02942389}, {"id": "DC_5496516", "address": "901 D St SW, Washington, DC 20024", "city": "Washington", "state": "DC", "type": "Office", "vertical": "Commercial", "sqft": 407321.0, "opex": 311740.8649, "valuation": 4453440.927142857, "carbon": 323.0893575, "eui": 63.2437183, "image": "DC_5496516_energystar.jpg", "lat": 38.88514212, "lon": -77.02468952}, {"id": "DC_5472940", "address": "170 M St NE, Washington, DC 20002", "city": "Washington", "state": "DC", "type": "Office", "vertical": "Commercial", "sqft": 493620.0, "opex": 310736.5809, "valuation": 4439094.012857143, "carbon": 99.21362204, "eui": 38.55621865, "image": "DC_5472940_buildingurl.jpg", "lat": 38.90599335, "lon": -77.00404178}, {"id": "SD_77", "address": "610 W Ash St, San Diego, CA 92101", "city": "San Diego", "state": "CA", "type": "Office", "vertical": "Commercial", "sqft": 99999.0, "opex": 309779.1316, "valuation": 4130388.421333334, "carbon": 96.0783174, "eui": 92.9, "image": "SD_77_streetview.jpg", "lat": 32.72023631, "lon": -117.1685538}, {"id": "DC_5476967", "address": "401 9th St NW, Washington, DC 20004", "city": "Washington", "state": "DC", "type": "Office", "vertical": "Commercial", "sqft": 475190.0, "opex": 309301.7735, "valuation": 4418596.764285714, "carbon": 110.2230439, "eui": 39.97405324, "image": "DC_5476967_buildingurl.jpg", "lat": 38.89544789, "lon": -77.02364362}, {"id": "SD_139", "address": "8880 Rio San Diego Drive, San Diego, CA 92108", "city": "San Diego", "state": "CA", "type": "Office", "vertical": "Commercial", "sqft": 190261.0, "opex": 305101.6579, "valuation": 4068022.1053333334, "carbon": 77.97771134, "eui": 54.3, "image": "SD_139_energystar.jpg", "lat": 32.77692337, "lon": -117.1387543}, {"id": "DC_5486324", "address": "2101 Martin Luther King Jr Ave SE, Washington, DC, 20020", "city": "Washington", "state": "DC", "type": "Office", "vertical": "Commercial", "sqft": 74242.0, "opex": 304907.6872, "valuation": 4355824.102857143, "carbon": 63.04087392, "eui": 66.60988306, "image": "", "lat": 38.86545278, "lon": -76.99028102}, {"id": "DC_5481957", "address": "90 K St NE, Washington, DC 20002", "city": "Washington", "state": "DC", "type": "Office", "vertical": "Commercial", "sqft": 435400.0, "opex": 300025.4981, "valuation": 4286078.544285715, "carbon": 106.7716967, "eui": 39.97509858, "image": "DC_5481957_energystar.jpg", "lat": 38.9028841, "lon": -77.00658771}, {"id": "CA_1092870", "address": "101 West Broadway, San Diego, CA, 92101", "city": "San Diego", "state": "CA", "type": "Office", "vertical": "Commercial", "sqft": 443646.0, "opex": 293119.5306, "valuation": 3908260.408, "carbon": 65.72003781, "eui": 26.01226239, "image": "CA_1092870_streetview.jpg", "lat": 32.7150214, "lon": -117.1642958}, {"id": "DC_5480995", "address": "1990 K St NW, Washington, DC, 20006", "city": "Washington", "state": "DC", "type": "Office", "vertical": "Commercial", "sqft": 269000.0, "opex": 287463.5482, "valuation": 4106622.117142857, "carbon": 110.7434364, "eui": 64.473239, "image": "DC_5480995_streetview.jpg", "lat": 38.90188737, "lon": -77.04450194}, {"id": "SF_02890032024", "address": "1 Sansome St, San Francisco, CA, 94104", "city": "San Francisco", "state": "CA", "type": "Office", "vertical": "Commercial", "sqft": 738880.0, "opex": 286024.7053, "valuation": 3813662.737333333, "carbon": 621.6708961, "eui": 36.53552041, "image": "SF_02890032024_energystar.png", "lat": 37.79048516, "lon": -122.4009404}, {"id": "NYC_3002447501", "address": "195 Montague Street, New York, NY, 11201", "city": "New York", "state": "NY", "type": "Office", "vertical": "Commercial", "sqft": 296555.0, "opex": 269263.9611, "valuation": 3846628.0157142854, "carbon": 382.7013204, "eui": 77.83130549, "image": "NYC_3002447501_Serpapi.jpg", "lat": 40.694015, "lon": -73.991472}, {"id": "PDX_1S1E03BA-5000-B1", "address": "601 SW 2nd Ave, Portland, OR, 97204", "city": "Portland", "state": "OR", "type": "Office", "vertical": "Commercial", "sqft": 610308.5657, "opex": 263703.1225, "valuation": 3102389.676470588, "carbon": 117.6901905, "eui": 30.6, "image": "", "lat": 45.5184715, "lon": -122.6746959}, {"id": "DC_5475466", "address": "1120 Connecticut Ave NW, Washington, DC 20036", "city": "Washington", "state": "DC", "type": "Office", "vertical": "Commercial", "sqft": 369441.0, "opex": 261723.1601, "valuation": 3738902.287142857, "carbon": 410.1518043, "eui": 61.99443576, "image": "DC_5475466_streetview.jpg", "lat": 38.90415786, "lon": -77.04103896}, {"id": "DC_5475866", "address": "1301 E St NW, Washington, DC 20004", "city": "Washington", "state": "DC", "type": "Office", "vertical": "Commercial", "sqft": 231902.0, "opex": 261100.2556, "valuation": 3730003.651428571, "carbon": 106.294322, "eui": 68.5296997, "image": "DC_5475866_buildingurl.jpg", "lat": 38.89638419, "lon": -77.02995562}, {"id": "KC_081102320", "address": "2300 Main St, Kansas City, MO, 64108", "city": "Kansas City", "state": "MO", "type": "Office", "vertical": "Commercial", "sqft": 516936.0, "opex": 256959.5334, "valuation": 3023053.334117647, "carbon": 389.3096571, "eui": 48.2, "image": "KC_081102320_Easyoffices.jpg", "lat": 39.0858281, "lon": -94.5852559}, {"id": "LA_426869840108", "address": "11111 Santa Monica Blvd, Los Angeles, CA, 90025", "city": "Los Angeles", "state": "CA", "type": "Office", "vertical": "Commercial", "sqft": 344044.0, "opex": 253523.6188, "valuation": 3496877.5006896555, "carbon": 59.12001587, "eui": 39.704105, "image": "LA_426869840108_streetview.jpg", "lat": 34.0485837, "lon": -118.4448632}, {"id": "CA_7399191", "address": "855 M Street, Fresno, CA, 93721", "city": "Fresno", "state": "CA", "type": "Office", "vertical": "Commercial", "sqft": 274700.0, "opex": 250571.8262, "valuation": 3340957.682666667, "carbon": 173.6474639, "eui": 56.98338289, "image": "CA_7399191_energystar.jpg", "lat": 36.7345466, "lon": -119.7859398}, {"id": "DC_5478403", "address": "1015 Half St SE, Washington, DC, 20003", "city": "Washington", "state": "DC", "type": "Office", "vertical": "Commercial", "sqft": 440937.0, "opex": 245774.3356, "valuation": 3511061.937142857, "carbon": 73.07638619, "eui": 43.25711557, "image": "DC_5478403_energystar.jpg", "lat": 38.87795235, "lon": -77.00792537}, {"id": "DC_5473619", "address": "1401 H St NW, Washington, DC 20005", "city": "Washington", "state": "DC", "type": "Office", "vertical": "Commercial", "sqft": 390591.0, "opex": 236084.0789, "valuation": 3372629.698571428, "carbon": 80.56118109, "eui": 38.72550509, "image": "DC_5473619_energystar.jpg", "lat": 38.90052497, "lon": -77.03252162}, {"id": "DC_5476932", "address": "500 E St SW, Washington, DC 20024", "city": "Washington", "state": "DC", "type": "Office", "vertical": "Commercial", "sqft": 283407.0, "opex": 232595.6343, "valuation": 3322794.7757142857, "carbon": 89.58362619, "eui": 49.49190955, "image": "DC_5476932_Reitnotes.jpg", "lat": 38.8829666, "lon": -77.01890483}, {"id": "LA_483482840725", "address": "800 W 6Th St, Los Angeles, CA 90017", "city": "Los Angeles", "state": "CA", "type": "Office", "vertical": "Commercial", "sqft": 227833.0, "opex": 226995.1447, "valuation": 3130967.5131034483, "carbon": 64.64118074, "eui": 53.33119873, "image": "LA_483482840725_Commercialcafe.jpg", "lat": 34.0500173, "lon": -118.2578929}, {"id": "CA_1327064", "address": "301 East Ocean Boulevard, Long Beach, CA, 90802", "city": "Long Beach", "state": "CA", "type": "Office", "vertical": "Commercial", "sqft": 430177.0, "opex": 215288.3733, "valuation": 2870511.6440000003, "carbon": 206.234621, "eui": 35.83324125, "image": "CA_1327064_energystar.jpg", "lat": 33.7674283, "lon": -118.188499}, {"id": "DC_5475427", "address": "1100 L St NW, Washington, DC 20005", "city": "Washington", "state": "DC", "type": "Office", "vertical": "Commercial", "sqft": 345116.0, "opex": 214646.3444, "valuation": 3066376.348571428, "carbon": 225.1561096, "eui": 60.3, "image": "DC_5475427_Thebusinessjournals.jpg", "lat": 38.90355024, "lon": -77.02754707}, {"id": "ATL_339", "address": "233 Peachtree St NE, Atlanta, GA, 30303", "city": "Atlanta", "state": "GA", "type": "Office", "vertical": "Commercial", "sqft": 574727.0, "opex": 213745.5957, "valuation": 2671819.94625, "carbon": 158.8750587, "eui": 51.9, "image": "ATL_339_Serpapi.jpg", "lat": 33.760811, "lon": -84.386781}, {"id": "DC_5475629", "address": "800 North Capitol St NW, Washington, DC 20002", "city": "Washington", "state": "DC", "type": "Office", "vertical": "Commercial", "sqft": 345976.0, "opex": 212800.9618, "valuation": 3040013.74, "carbon": 72.61606498, "eui": 39.40762267, "image": "DC_5475629_energystar.jpg", "lat": 38.90050474, "lon": -77.00972825}, {"id": "SEA_942000050", "address": "1111 3Rd Ave, Seattle, WA, 98101", "city": "Seattle", "state": "WA", "type": "Office", "vertical": "Commercial", "sqft": 614158.0, "opex": 212684.2712, "valuation": 2835790.2826666664, "carbon": 141.7709695, "eui": 36.44050554, "image": "SEA_942000050_GooglePlaces.jpg", "lat": 47.60655, "lon": -122.33533}, {"id": "SEA_694000205", "address": "2101 4Th Ave, Seattle, WA, 98121", "city": "Seattle", "state": "WA", "type": "Office", "vertical": "Commercial", "sqft": 427155.0, "opex": 211481.0531, "valuation": 2819747.3746666666, "carbon": 5.196505455, "eui": 37.34663764, "image": "SEA_694000205_Martinseligrealestat.jpg", "lat": 47.61431, "lon": -122.34244}, {"id": "SEA_939000475", "address": "1000 2Nd Ave, Seattle, WA, 98104", "city": "Seattle", "state": "WA", "type": "Office", "vertical": "Commercial", "sqft": 460489.0, "opex": 209981.4083, "valuation": 2799752.110666667, "carbon": 4.991067675, "eui": 35.55940316, "image": "SEA_939000475_Serpapi.jpg", "lat": 47.60567, "lon": -122.33511}, {"id": "DC_5475502", "address": "1800 G St NW, Washington, DC 20006", "city": "Washington", "state": "DC", "type": "Office", "vertical": "Commercial", "sqft": 732964.0, "opex": 204515.2732, "valuation": 2921646.76, "carbon": 190.6370097, "eui": 38.23668566, "image": "DC_5475502_streetview.jpg", "lat": 38.89801973, "lon": -77.04259019}, {"id": "SF_37210012024", "address": "100 1St St, San Francisco, CA, 94105", "city": "San Francisco", "state": "CA", "type": "Office", "vertical": "Commercial", "sqft": 480457.0, "opex": 204115.0389, "valuation": 2721533.8520000004, "carbon": 163.2481484, "eui": 34.96370198, "image": "SF_37210012024_Reitnotes.jpg", "lat": 37.78948763, "lon": -122.3975934}, {"id": "DC_5476225", "address": "131 M St NE, Washington, DC, 20002", "city": "Washington", "state": "DC", "type": "Office", "vertical": "Commercial", "sqft": 431740.0, "opex": 199671.9983, "valuation": 2852457.1185714286, "carbon": 156.7753422, "eui": 42.53560542, "image": "DC_5476225_energystar.jpg", "lat": 38.9051642, "lon": -77.00466741}, {"id": "DC_5481979", "address": "501 3rd St NW, Washington, DC 20001", "city": "Washington", "state": "DC", "type": "Office", "vertical": "Commercial", "sqft": 258699.0, "opex": 193540.5194, "valuation": 2764864.562857142, "carbon": 73.12531278, "eui": 41.11802191, "image": "DC_5481979_streetview.jpg", "lat": 38.89652696, "lon": -77.01477012}, {"id": "CA_1482665", "address": "550 North Brand Boulevard, Glendale, CA, 91203", "city": "Glendale", "state": "CA", "type": "Office", "vertical": "Commercial", "sqft": 304359.0, "opex": 193260.1719, "valuation": 2576802.292, "carbon": 75.2041467, "eui": 34.98718704, "image": "CA_1482665_energystar.jpg", "lat": 34.1542018, "lon": -118.2542155}, {"id": "DC_5483484", "address": "1300 First St NE, Washington, DC 20002", "city": "Washington", "state": "DC", "type": "Office", "vertical": "Commercial", "sqft": 54874.0, "opex": 192903.8023, "valuation": 2755768.604285714, "carbon": 4.965998967, "eui": 19.90308877, "image": "DC_5483484_Thebusinessjournals.jpg", "lat": 38.90755474, "lon": -77.00617907}, {"id": "KC_171203410", "address": "4241 NE 34Th St, Kansas City, MO, 64117", "city": "Kansas City", "state": "MO", "type": "Office", "vertical": "Commercial", "sqft": 69083.0, "opex": 192119.6896, "valuation": 2260231.642352941, "carbon": 334.4292222, "eui": 223.6, "image": "KC_171203410_streetview.jpg", "lat": 39.1547244, "lon": -94.5273145}, {"id": "DC_5482480", "address": "355 E St SW, Washington, DC 20024", "city": "Washington", "state": "DC", "type": "Office", "vertical": "Commercial", "sqft": 414177.0, "opex": 191939.0453, "valuation": 2741986.361428571, "carbon": 65.49715782, "eui": 29.69135208, "image": "DC_5482480_energystar.jpg", "lat": 38.88373431, "lon": -77.01640676}, {"id": "DC_5477893", "address": "1310 G Street, 1304 G St NW, Washington, DC 20005", "city": "Washington", "state": "DC", "type": "Office", "vertical": "Commercial", "sqft": 227165.0, "opex": 188248.1089, "valuation": 2689258.698571428, "carbon": 69.74808026, "eui": 52.07220725, "image": "DC_5477893_buildingurl.jpg", "lat": 38.89811665, "lon": -77.03018313}, {"id": "CA_1204020", "address": "550 West C Street, San Diego, CA, 92101", "city": "San Diego", "state": "CA", "type": "Office", "vertical": "Commercial", "sqft": 357477.0, "opex": 187231.2391, "valuation": 2496416.5213333336, "carbon": 36.1054035, "eui": 23.40407545, "image": "CA_1204020_energystar.jpg", "lat": 32.7170647, "lon": -117.1677846}, {"id": "PHL_156800", "address": "1617 John F. Kennedy Blvd, Philadelphia, PA, 19103", "city": "Philadelphia", "state": "PA", "type": "Office", "vertical": "Commercial", "sqft": 798189.0, "opex": 185373.6068, "valuation": 2317170.085, "carbon": 261.8054757, "eui": 34.12301573, "image": "PHL_156800_Bondcollective.jpg", "lat": 39.95387332, "lon": -75.16708202}, {"id": "NYC_1000100014", "address": "33 Whitehall St, New York, NY 10004", "city": "New York", "state": "NY", "type": "Office", "vertical": "Commercial", "sqft": 365792.0, "opex": 184379.2624, "valuation": 2633989.4628571426, "carbon": 255.7570968, "eui": 66.86331576, "image": "NYC_1000100014_AWS.jpg", "lat": 40.703353, "lon": -74.0127036}, {"id": "DC_5478489", "address": "1625 M St NW, Washington, DC 20036", "city": "Washington", "state": "DC", "type": "Office", "vertical": "Commercial", "sqft": 228520.0, "opex": 183668.8499, "valuation": 2623840.7128571426, "carbon": 70.73959771, "eui": 51.70862708, "image": "DC_5478489_streetview.jpg", "lat": 38.90587074, "lon": -77.03773742}, {"id": "SJ_199", "address": "1735 Technology Drive, San Jose, CA, 95110", "city": "San Jose", "state": "CA", "type": "Office", "vertical": "Commercial", "sqft": 161846.0, "opex": 183602.496, "valuation": 2448033.2800000003, "carbon": 48.53502983, "eui": 44.72792457, "image": "SJ_199_streetview.jpg", "lat": 37.3672423, "lon": -121.9197106}, {"id": "DC_5476239", "address": "1750 Pennsylvania Ave NW, Washington, DC 20006", "city": "Washington", "state": "DC", "type": "Office", "vertical": "Commercial", "sqft": 304647.0, "opex": 181026.4072, "valuation": 2586091.531428571, "carbon": 255.7191653, "eui": 56.7793029, "image": "DC_5476239_streetview.jpg", "lat": 38.8989377, "lon": -77.04076078}, {"id": "ATL_23", "address": "245 Peachtree Center Ave NE, Atlanta, GA, 30303", "city": "Atlanta", "state": "GA", "type": "Office", "vertical": "Commercial", "sqft": 508098.0, "opex": 168217.4584, "valuation": 2102718.23, "carbon": 129.6774527, "eui": 46.2, "image": "ATL_23_streetview.jpg", "lat": 33.7611253, "lon": -84.3857402}, {"id": "DC_5476793", "address": "550 12th St SW, Washington, DC 20024", "city": "Washington", "state": "DC", "type": "Office", "vertical": "Commercial", "sqft": 435863.0, "opex": 163252.3602, "valuation": 2332176.574285714, "carbon": 49.73470986, "eui": 30.03377024, "image": "DC_5476793_energystar.jpg", "lat": 38.88329361, "lon": -77.02749176}, {"id": "DC_5482211", "address": "455 Massachusetts Ave NW, Washington, DC 20001", "city": "Washington", "state": "DC", "type": "Office", "vertical": "Commercial", "sqft": 263181.0, "opex": 159479.6732, "valuation": 2278281.045714285, "carbon": 54.42074237, "eui": 36.6614351, "image": "DC_5482211_streetview.jpg", "lat": 38.90105418, "lon": -77.01755562}, {"id": "SF_02890052024", "address": "120 Montgomery St, San Francisco, CA, 94104", "city": "San Francisco", "state": "CA", "type": "Office", "vertical": "Commercial", "sqft": 478430.0, "opex": 158478.0766, "valuation": 2113041.0213333336, "carbon": 195.5541932, "eui": 32.61153875, "image": "SF_02890052024_energystar.jpg", "lat": 37.79034626, "lon": -122.4018502}, {"id": "PDX_1S1E03BB-800-B1", "address": "1001 SW 5th Ave, Portland, OR, 97204", "city": "Portland", "state": "OR", "type": "Office", "vertical": "Commercial", "sqft": 427157.2964, "opex": 155162.4438, "valuation": 1825440.5152941176, "carbon": 158.7435212, "eui": 36.5, "image": "", "lat": 45.51636, "lon": -122.6791609}, {"id": "DC_5475590", "address": "1331 F St NW, Washington, DC 20004", "city": "Washington", "state": "DC", "type": "Office", "vertical": "Commercial", "sqft": 142956.0, "opex": 151411.482, "valuation": 2163021.171428571, "carbon": 119.4571912, "eui": 105.7280672, "image": "DC_5475590_energystar.png", "lat": 38.89764081, "lon": -77.03092658}, {"id": "CA_5242479", "address": "4000 West Metropolitan Drive, Orange, CA, 92868", "city": "Orange", "state": "CA", "type": "Office", "vertical": "Commercial", "sqft": 188977.0, "opex": 146951.9514, "valuation": 1959359.352, "carbon": 150.180675, "eui": 55.78170428, "image": "CA_5242479_streetview.jpg", "lat": 33.7799183, "lon": -117.8962928}, {"id": "DC_5496275", "address": "1120 Vermont Ave NW, Washington, DC 20005", "city": "Washington", "state": "DC", "type": "Office", "vertical": "Commercial", "sqft": 515461.0, "opex": 141161.1999, "valuation": 2016588.57, "carbon": 106.0180389, "eui": 35.54448065, "image": "DC_5496275_Thebusinessjournals.jpg", "lat": 38.90484911, "lon": -77.03302937}, {"id": "LA_482892841035", "address": "915 Wilshire Blvd, Los Angeles, CA 90017", "city": "Los Angeles", "state": "CA", "type": "Office", "vertical": "Commercial", "sqft": 393605.0, "opex": 140380.9132, "valuation": 1936288.4579310347, "carbon": 27.28293946, "eui": 25.77243302, "image": "LA_482892841035_streetview.jpg", "lat": 34.0509887, "lon": -118.2600873}, {"id": "LA_484669839800", "address": "606 S Olive St, Los Angeles, CA 90014", "city": "Los Angeles", "state": "CA", "type": "Office", "vertical": "Commercial", "sqft": 303289.0, "opex": 140279.5722, "valuation": 1934890.6510344828, "carbon": 35.9545427, "eui": 28.94947591, "image": "LA_484669839800_GooglePlaces.jpg", "lat": 34.0477206, "lon": -118.2541013}, {"id": "DC_5473524", "address": "400 Virginia Ave SW, Washington, DC 20024", "city": "Washington", "state": "DC", "type": "Office", "vertical": "Commercial", "sqft": 252289.0, "opex": 136722.7519, "valuation": 1953182.17, "carbon": 48.6562652, "eui": 35.36835011, "image": "DC_5473524_streetview.jpg", "lat": 38.88418681, "lon": -77.01819887}, {"id": "PHL_166266", "address": "615 Chestnut Street, Philadelphia, PA, 19106", "city": "Philadelphia", "state": "PA", "type": "Office", "vertical": "Commercial", "sqft": 375396.0, "opex": 135589.3769, "valuation": 1694867.21125, "carbon": 71.68407329, "eui": 46.33664839, "image": "PHL_166266_energystar.jpg", "lat": 39.94963109, "lon": -75.15166103}, {"id": "DC_5476252", "address": "830 First St NE, Washington, DC 20002", "city": "Washington", "state": "DC", "type": "Office", "vertical": "Commercial", "sqft": 261996.0, "opex": 134782.097, "valuation": 1925458.5285714285, "carbon": 45.99295714, "eui": 32.96022526, "image": "DC_5476252_Serpapi.jpg", "lat": 38.90107243, "lon": -77.00762509}, {"id": "SJ_427", "address": "150 Almaden Blvd, San Jose, CA, 95113", "city": "San Jose", "state": "CA", "type": "Office", "vertical": "Commercial", "sqft": 205950.0, "opex": 133505.0707, "valuation": 1780067.6093333336, "carbon": 135.0287039, "eui": 52.83129499, "image": "SJ_427_Serpapi.jpg", "lat": 37.3319903, "lon": -121.8925825}, {"id": "SF_37090112024", "address": "455 Market St, San Francisco, CA, 94105", "city": "San Francisco", "state": "CA", "type": "Office", "vertical": "Commercial", "sqft": 432945.0, "opex": 130508.0942, "valuation": 1740107.9226666668, "carbon": 173.7957974, "eui": 33.37265248, "image": "SF_37090112024_energystar.jpg", "lat": 37.79072599, "lon": -122.3982396}, {"id": "SF_37380112024", "address": "301 Howard St, San Francisco, CA, 94105", "city": "San Francisco", "state": "CA", "type": "Office", "vertical": "Commercial", "sqft": 342355.0, "opex": 129940.8322, "valuation": 1732544.4293333334, "carbon": 241.0412113, "eui": 47.45303496, "image": "SF_37380112024_energystar.jpg", "lat": 37.7894978, "lon": -122.3942652}, {"id": "DC_5476654", "address": "20 M St SE, Washington, DC 20003", "city": "Washington", "state": "DC", "type": "Office", "vertical": "Commercial", "sqft": 196545.0, "opex": 129208.7948, "valuation": 1845839.9257142856, "carbon": 45.98223264, "eui": 40.4, "image": "DC_5476654_streetview.jpg", "lat": 38.8767888, "lon": -77.00790208}, {"id": "CAM_1386", "address": "10 Fawcett St, Cambridge, MA 02138", "city": "Cambridge", "state": "MA", "type": "Office", "vertical": "Commercial", "sqft": 107681.0, "opex": 124744.791, "valuation": 1782068.4428571423, "carbon": 89.98455688, "eui": 59.21448724, "image": "CAM_1386_streetview.jpg", "lat": 42.3898, "lon": -71.1455}, {"id": "LA_445581803367", "address": "5777 W Century Blvd, Los Angeles, CA 90045", "city": "Los Angeles", "state": "CA", "type": "Office", "vertical": "Commercial", "sqft": 530020.0, "opex": 123831.6001, "valuation": 1708022.0703448276, "carbon": 22.62301009, "eui": 15.87022188, "image": "LA_445581803367_streetview.jpg", "lat": 33.9469225, "lon": -118.3827256}, {"id": "DC_5475903", "address": "990 L'Enfant Plaza SW, Washington, DC 20024", "city": "Washington", "state": "DC", "type": "Office", "vertical": "Commercial", "sqft": 328940.0, "opex": 121087.8056, "valuation": 1729825.7942857142, "carbon": 173.9260917, "eui": 42.78299547, "image": "DC_5475903_energystar.jpg", "lat": 38.88337988, "lon": -77.02551033}, {"id": "KC_051101236", "address": "1200 Main St, Kansas City, MO, 64105", "city": "Kansas City", "state": "MO", "type": "Office", "vertical": "Commercial", "sqft": 801000.0, "opex": 117148.3496, "valuation": 1378215.8776470588, "carbon": 155.0328737, "eui": 18.4, "image": "KC_051101236_streetview.jpg", "lat": 39.0996496, "lon": -94.5837642}, {"id": "DC_5484542", "address": "800 9th St SW, Washington, DC 20024", "city": "Washington", "state": "DC", "type": "Office", "vertical": "Commercial", "sqft": 120838.0, "opex": 115896.4786, "valuation": 1655663.98, "carbon": 44.63723858, "eui": 61.70472594, "image": "DC_5484542_buildingurl.jpg", "lat": 38.88054446, "lon": -77.02410775}, {"id": "NYC_2024430091", "address": "820 Concourse Village West, New York, NY, 10451", "city": "New York", "state": "NY", "type": "Office", "vertical": "Commercial", "sqft": 80943.0, "opex": 115701.0073, "valuation": 1652871.5328571426, "carbon": 118.8696646, "eui": 95.05617904, "image": "NYC_2024430091_streetview.jpg", "lat": 40.825128, "lon": -73.922138}, {"id": "CHI_101720", "address": "131 S Dearborn, Chicago, IL, 60603", "city": "Chicago", "state": "IL", "type": "Office", "vertical": "Commercial", "sqft": 272235.0, "opex": 113748.0781, "valuation": 1421850.97625, "carbon": 475.3096318, "eui": 63.44353702, "image": "CHI_101720_streetview.jpg", "lat": 41.87988544, "lon": -87.62921159}, {"id": "DC_5481745", "address": "425 I St NW, Washington, DC 20001", "city": "Washington", "state": "DC", "type": "Office", "vertical": "Commercial", "sqft": 376559.0, "opex": 112830.3269, "valuation": 1611861.8128571426, "carbon": 36.02506462, "eui": 24.36361126, "image": "DC_5481745_buildingurl.jpg", "lat": 38.9016618, "lon": -77.01690199}, {"id": "CA_3991759", "address": "1300 Clay Street, Oakland, CA, 94612", "city": "Oakland", "state": "CA", "type": "Office", "vertical": "Commercial", "sqft": 196604.0, "opex": 111867.4808, "valuation": 1491566.4106666667, "carbon": 97.86823623, "eui": 34.78710075, "image": "CA_3991759_energystar.jpg", "lat": 37.8047226, "lon": -122.2735856}, {"id": "KC_531110383", "address": "10383 N Ambassador Dr, Kansas City, MO, 64153", "city": "Kansas City", "state": "MO", "type": "Office", "vertical": "Commercial", "sqft": 57448.0, "opex": 110265.0055, "valuation": 1297235.3588235292, "carbon": 180.7331658, "eui": 165.2, "image": "", "lat": 39.28140468, "lon": -94.669055}, {"id": "DC_5479645", "address": "1722 I St NW, Washington, DC, 20006", "city": "Washington", "state": "DC", "type": "Office", "vertical": "Commercial", "sqft": 185260.0, "opex": 109523.1642, "valuation": 1564616.6314285712, "carbon": 41.38107956, "eui": 36.83585697, "image": "DC_5479645_Parkertide.jpg", "lat": 38.90103085, "lon": -77.04086285}, {"id": "KC_061300940", "address": "901 Locust St, Kansas City, MO, 64106", "city": "Kansas City", "state": "MO", "type": "Office", "vertical": "Commercial", "sqft": 170970.0, "opex": 106810.5194, "valuation": 1256594.345882353, "carbon": 168.4808833, "eui": 58.2, "image": "KC_061300940_GooglePlaces.jpg", "lat": 39.1027398, "lon": -94.5763874}, {"id": "DC_5479069", "address": "1201 15th St NW, Washington, DC 20005", "city": "Washington", "state": "DC", "type": "Office", "vertical": "Commercial", "sqft": 279791.0, "opex": 106523.3374, "valuation": 1521761.9628571428, "carbon": 121.6328692, "eui": 39.90483239, "image": "DC_5479069_streetview.jpg", "lat": 38.90594607, "lon": -77.03393053}, {"id": "DC_5480707", "address": "1717 H St NW, Washington, DC, 20006", "city": "Washington", "state": "DC", "type": "Office", "vertical": "Commercial", "sqft": 369599.0, "opex": 103823.9583, "valuation": 1483199.404285714, "carbon": 76.174802, "eui": 26.98222589, "image": "DC_5480707_energystar.jpg", "lat": 38.90049368, "lon": -77.04059451}, {"id": "NYC_4004320008", "address": "27-35 Jackson Avenue, New York, NY, 11101", "city": "New York", "state": "NY", "type": "Office", "vertical": "Commercial", "sqft": 78000.0, "opex": 103796.8366, "valuation": 1482811.9514285713, "carbon": 133.8886096, "eui": 107.6869679, "image": "NYC_4004320008_streetview.jpg", "lat": 40.747962, "lon": -73.940046}, {"id": "PDX_1N1E35BD-400-B1", "address": "1201 NE Lloyd Blvd, Portland, OR, 97232", "city": "Portland", "state": "OR", "type": "Office", "vertical": "Commercial", "sqft": 237718.6222, "opex": 102196.6436, "valuation": 1202313.454117647, "carbon": 127.1589574, "eui": 44.5, "image": "", "lat": 45.5297505, "lon": -122.6530413}, {"id": "PDX_1S1E03BD-600-B1", "address": "100 SW Main St, Portland, OR, 97204", "city": "Portland", "state": "OR", "type": "Office", "vertical": "Commercial", "sqft": 397304.8294, "opex": 100644.6112, "valuation": 1184054.2494117646, "carbon": 82.5357507, "eui": 31.9, "image": "", "lat": 45.514892, "lon": -122.6754655}, {"id": "BOS_102643", "address": "64-74 Franklin St, Boston, MA, 02110", "city": "Boston", "state": "MA", "type": "Office", "vertical": "Commercial", "sqft": 101249.0, "opex": 100530.9684, "valuation": 1436156.6914285712, "carbon": 28.88551247, "eui": 41.04564588, "image": "BOS_102643_streetview.jpg", "lat": 42.3557569, "lon": -71.058119}, {"id": "SD_55", "address": "9325 Sky Park Court, San Diego, CA 92123", "city": "San Diego", "state": "CA", "type": "Office", "vertical": "Commercial", "sqft": 71856.0, "opex": 100208.9455, "valuation": 1336119.2733333334, "carbon": 25.61134631, "eui": 50.3, "image": "SD_55_Serpapi.jpg", "lat": 32.815622, "lon": -117.1254013}, {"id": "DC_5496429", "address": "633 Indiana Ave NW, Washington, DC 20004", "city": "Washington", "state": "DC", "type": "Office", "vertical": "Commercial", "sqft": 185839.0, "opex": 97280.63685, "valuation": 1389723.3835714285, "carbon": 120.2828523, "eui": 57.59554733, "image": "DC_5496429_streetview.jpg", "lat": 38.89445144, "lon": -77.02116054}, {"id": "DC_5481965", "address": "1111 20th St NW, Washington, DC 20036", "city": "Washington", "state": "DC", "type": "Office", "vertical": "Commercial", "sqft": 190874.0, "opex": 94889.71449, "valuation": 1355567.349857143, "carbon": 66.00190516, "eui": 58.22159142, "image": "DC_5481965_energystar.jpg", "lat": 38.90408371, "lon": -77.04449676}, {"id": "DEN_1015", "address": "18300 E 71St Ave, Denver, CO, 80249", "city": "Denver", "state": "CO", "type": "Office", "vertical": "Commercial", "sqft": 27067.0, "opex": 92743.56681, "valuation": 1159294.585125, "carbon": 29.84026004, "eui": 60.66000665, "image": "DEN_1015_streetview.jpg", "lat": 39.8250763, "lon": -104.7737441}, {"id": "SEA_942001155", "address": "300 5Th Ave, Seattle, WA, 98104", "city": "Seattle", "state": "WA", "type": "Office", "vertical": "Commercial", "sqft": 275166.0, "opex": 92521.20235, "valuation": 1233616.0313333336, "carbon": 1.939154914, "eui": 29.64687498, "image": "SEA_942001155_Martinseligrealestat.jpg", "lat": 47.60214, "lon": -122.32726}, {"id": "DC_5477825", "address": "77 K St NE, Washington, DC 20002", "city": "Washington", "state": "DC", "type": "Office", "vertical": "Commercial", "sqft": 338922.0, "opex": 90607.63326, "valuation": 1294394.7608571427, "carbon": 59.71745524, "eui": 32.31793531, "image": "DC_5477825_energystar.jpg", "lat": 38.90205732, "lon": -77.00636132}, {"id": "SF_37350622024", "address": "75 Hawthorne St, San Francisco, CA, 94105", "city": "San Francisco", "state": "CA", "type": "Office", "vertical": "Commercial", "sqft": 408667.0, "opex": 90586.59207, "valuation": 1207821.2276, "carbon": 109.8421107, "eui": 29.65874292, "image": "SF_37350622024_energystar.jpg", "lat": 37.7854555, "lon": -122.3980174}, {"id": "CA_1417475", "address": "4560 Viewridge Avenue, San Diego, CA, 92123", "city": "San Diego", "state": "CA", "type": "Office", "vertical": "Commercial", "sqft": 106091.0, "opex": 89074.3699, "valuation": 1187658.2653333335, "carbon": 67.6724253, "eui": 46.558888, "image": "CA_1417475_Serpapi.jpg", "lat": 32.8244902, "lon": -117.123442}, {"id": "CA_19483421", "address": "1050 Lakes Drive, West Covina, CA, 91790", "city": "West Covina", "state": "CA", "type": "Office", "vertical": "Commercial", "sqft": 95784.0, "opex": 87802.75512, "valuation": 1170703.4016, "carbon": 94.08918718, "eui": 65.76834204, "image": "CA_19483421_streetview.jpg", "lat": 34.0715278, "lon": -117.9228268}, {"id": "DC_5476090", "address": "1730 M St NW, Washington, DC 20036", "city": "Washington", "state": "DC", "type": "Office", "vertical": "Commercial", "sqft": 221437.0, "opex": 87557.31804, "valuation": 1250818.829142857, "carbon": 164.6743446, "eui": 53.29870184, "image": "DC_5476090_Reitnotes.jpg", "lat": 38.905364, "lon": -77.039879}, {"id": "PHL_96377", "address": "801 Arch Street, Philadelphia, PA, 19107", "city": "Philadelphia", "state": "PA", "type": "Office", "vertical": "Commercial", "sqft": 195018.0, "opex": 86426.91194, "valuation": 1080336.39925, "carbon": 96.22772117, "eui": 49.40077085, "image": "PHL_96377_streetview.jpg", "lat": 39.95367642, "lon": -75.15343384}, {"id": "PDX_1N1E34CD-4600-B1", "address": "333 SW 1st Ave, Portland, OR, 97204", "city": "Portland", "state": "OR", "type": "Office", "vertical": "Commercial", "sqft": 368183.8256, "opex": 85477.22176, "valuation": 1005614.3736470588, "carbon": 74.82615407, "eui": 28.6, "image": "", "lat": 45.5202149, "lon": -122.6729378}, {"id": "NYC_1019310036", "address": "2108 Adam Clayton Powell Blvd, New York, NY, 10027", "city": "New York", "state": "NY", "type": "Office", "vertical": "Commercial", "sqft": 90955.0, "opex": 84617.63538, "valuation": 1208823.3625714283, "carbon": 84.8678859, "eui": 72.04933649, "image": "NYC_1019310036_streetview.jpg", "lat": 40.809286, "lon": -73.948112}, {"id": "CA_20776337", "address": "4811 Airport Plaza Drive, Long Beach, CA, 90815", "city": "Long Beach", "state": "CA", "type": "Office", "vertical": "Commercial", "sqft": 121610.0, "opex": 82675.09027, "valuation": 1102334.5369333334, "carbon": 110.5116502, "eui": 57.39198268, "image": "CA_20776337_streetview.jpg", "lat": 33.8100201, "lon": -118.1364977}, {"id": "SF_37170052024", "address": "160 Spear St, San Francisco, CA, 94105", "city": "San Francisco", "state": "CA", "type": "Office", "vertical": "Commercial", "sqft": 327412.0, "opex": 81923.46994, "valuation": 1092312.9325333333, "carbon": 83.29708707, "eui": 30.95193242, "image": "SF_37170052024_GooglePlaces.jpg", "lat": 37.79157493, "lon": -122.3933901}, {"id": "CA_27491240", "address": "928 East Blanco Road, Salinas, CA, 93901", "city": "Salinas", "state": "CA", "type": "Office", "vertical": "Commercial", "sqft": 62000.0, "opex": 81802.18794, "valuation": 1090695.8392, "carbon": 141.1850049, "eui": 96.31559294, "image": "CA_27491240_streetview.jpg", "lat": 36.6535136, "lon": -121.636599}, {"id": "SJ_689", "address": "96 N 3Rd St, San Jose, CA, 95112", "city": "San Jose", "state": "CA", "type": "Office", "vertical": "Commercial", "sqft": 65502.0, "opex": 81530.64591, "valuation": 1087075.2788000002, "carbon": 125.265422, "eui": 95.6595572, "image": "SJ_689_streetview.jpg", "lat": 37.3385275, "lon": -121.8890797}, {"id": "NYC_1006970042", "address": "508 W. 26Th Street, New York, NY, 10001", "city": "New York", "state": "NY", "type": "Office", "vertical": "Commercial", "sqft": 146416.0, "opex": 81190.38964, "valuation": 1159862.709142857, "carbon": 42.83471185, "eui": 39.73902989, "image": "NYC_1006970042_Serpapi.jpg", "lat": 40.749957, "lon": -74.003674}, {"id": "CA_35871528", "address": "7815 North Palm Avenue, Fresno, CA, 93711", "city": "Fresno", "state": "CA", "type": "Office", "vertical": "Commercial", "sqft": 98398.0, "opex": 79854.6775, "valuation": 1064729.0333333334, "carbon": 56.56660731, "eui": 45.65251076, "image": "CA_35871528_streetview.jpg", "lat": 36.8504594, "lon": -119.8089141}, {"id": "CA_6609538", "address": "200 West Santa Ana Boulevard, Santa Ana, CA, 92701", "city": "Santa Ana", "state": "CA", "type": "Office", "vertical": "Commercial", "sqft": 157204.0, "opex": 79821.65458, "valuation": 1064288.7277333334, "carbon": 92.70829748, "eui": 50.05599266, "image": "CA_6609538_Serpapi.jpg", "lat": 33.7492218, "lon": -117.8689629}, {"id": "KC_051301310", "address": "1300 Summit St, Kansas City, MO, 64105", "city": "Kansas City", "state": "MO", "type": "Office", "vertical": "Commercial", "sqft": 100000.0, "opex": 79802.14692, "valuation": 938848.7872941176, "carbon": 130.8021022, "eui": 71.2, "image": "KC_051301310_streetview.jpg", "lat": 39.097497, "lon": -94.5941258}, {"id": "CA_34555272", "address": "3403 Tenth Street, Riverside, CA, 92501", "city": "Riverside", "state": "CA", "type": "Office", "vertical": "Commercial", "sqft": 147565.0, "opex": 78572.92735, "valuation": 0.0, "carbon": 83.94816766, "eui": 89.99159584, "image": "CA_34555272_streetview.jpg", "lat": 33.9788095, "lon": -117.372435}, {"id": "PHL_178730", "address": "13000 Townsend Rd, Philadelphia, PA, 19154", "city": "Philadelphia", "state": "PA", "type": "Office", "vertical": "Commercial", "sqft": 131987.0, "opex": 73567.54554, "valuation": 919594.31925, "carbon": 45.71309281, "eui": 71.67448099, "image": "PHL_178730_Serpapi.jpg", "lat": 40.10858638, "lon": -74.97753055}, {"id": "CA_57504893", "address": "3247 West March Lane, Stockton, CA, 95219", "city": "Stockton", "state": "CA", "type": "Office", "vertical": "Commercial", "sqft": 74589.0, "opex": 72324.14402, "valuation": 964321.9202666668, "carbon": 96.6560514, "eui": 71.71093392, "image": "CA_57504893_streetview.jpg", "lat": 37.985255, "lon": -121.3538828}, {"id": "CA_7136691", "address": "2750 Womble Road, San Diego, CA, 92106", "city": "San Diego", "state": "CA", "type": "Office", "vertical": "Commercial", "sqft": 63684.0, "opex": 70300.63736, "valuation": 937341.8314666668, "carbon": 37.28260298, "eui": 49.08385372, "image": "CA_7136691_Serpapi.jpg", "lat": 32.7348846, "lon": -117.2157076}, {"id": "SF_37070622023", "address": "33 New Montgomery St, San Francisco, CA, 94105", "city": "San Francisco", "state": "CA", "type": "Office", "vertical": "Commercial", "sqft": 268052.0, "opex": 69904.48506, "valuation": 932059.8008, "carbon": 78.21492145, "eui": 33.63330528, "image": "SF_37070622023_streetview.jpg", "lat": 37.78866014, "lon": -122.401406}, {"id": "CA_1478231", "address": "1610 Arden Way, Sacramento, CA, 95815", "city": "Sacramento", "state": "CA", "type": "Office", "vertical": "Commercial", "sqft": 150188.0, "opex": 66253.42396, "valuation": 883378.9861333334, "carbon": 104.5746441, "eui": 48.82227583, "image": "CA_1478231_energystar.jpg", "lat": 38.5985247, "lon": -121.4290114}, {"id": "CA_1631476", "address": "430 G Street, Davis, CA, 95616", "city": "Davis", "state": "CA", "type": "Office", "vertical": "Commercial", "sqft": 69354.0, "opex": 61693.33197, "valuation": 822577.7596, "carbon": 47.01822761, "eui": 49.90651413, "image": "CA_1631476_energystar.jpg", "lat": 38.547297, "lon": -121.739653}, {"id": "DC_5476127", "address": "1307 New York Ave NW, Washington, DC 20005", "city": "Washington", "state": "DC", "type": "Office", "vertical": "Commercial", "sqft": 119556.0, "opex": 60373.24574, "valuation": 862474.9391428571, "carbon": 56.4042267, "eui": 49.69509606, "image": "DC_5476127_energystar.jpg", "lat": 38.90053461, "lon": -77.03041345}, {"id": "CA_3603295", "address": "1431 Harbor Bay Parkway, Alameda, CA, 94502", "city": "Alameda", "state": "CA", "type": "Office", "vertical": "Commercial", "sqft": 68711.0, "opex": 59965.44578, "valuation": 799539.2770666667, "carbon": 92.651344, "eui": 64.81945703, "image": "CA_3603295_streetview.jpg", "lat": 37.7269416, "lon": -122.2373624}, {"id": "DC_5488933", "address": "1201 M St SE, Washington, DC 20003", "city": "Washington", "state": "DC", "type": "Office", "vertical": "Commercial", "sqft": 207338.0, "opex": 59039.7185, "valuation": 843424.5499999999, "carbon": 71.41892773, "eui": 42.90059915, "image": "DC_5488933_streetview.jpg", "lat": 38.87607001, "lon": -76.9894073}, {"id": "DC_5488732", "address": "703 14th St NW, Washington, DC 20005", "city": "Washington", "state": "DC", "type": "Office", "vertical": "Commercial", "sqft": 137726.0, "opex": 58986.73724, "valuation": 842667.6748571428, "carbon": 21.85526169, "eui": 30.69516716, "image": "DC_5488732_energystar.jpg", "lat": 38.89881295, "lon": -77.03169001}, {"id": "CA_12423883", "address": "5901 Priestly Drive, Carlsbad, CA, 92008", "city": "Carlsbad", "state": "CA", "type": "Office", "vertical": "Commercial", "sqft": 96794.0, "opex": 58937.18263, "valuation": 785829.1017333334, "carbon": 32.03372743, "eui": 36.95885405, "image": "CA_12423883_streetview.jpg", "lat": 33.1340686, "lon": -117.2763241}, {"id": "DC_5477762", "address": "1425 New York Ave NW, Washington, DC, 20005", "city": "Washington", "state": "DC", "type": "Office", "vertical": "Commercial", "sqft": 282431.0, "opex": 58776.33804, "valuation": 839661.972, "carbon": 17.90616758, "eui": 16.687472, "image": "DC_5477762_buildingurl.jpg", "lat": 38.8996687, "lon": -77.03263478}, {"id": "CA_3279735", "address": "770 Paseo Camarillo, Camarillo, CA, 93010", "city": "Camarillo", "state": "CA", "type": "Office", "vertical": "Commercial", "sqft": 68750.0, "opex": 58632.27739, "valuation": 781763.6985333334, "carbon": 21.94386677, "eui": 43.32271929, "image": "CA_3279735_streetview.jpg", "lat": 34.2200263, "lon": -119.057904}, {"id": "CA_15663917", "address": "655 West Rialto Avenue, San Bernardino, CA, 92410", "city": "San Bernardino", "state": "CA", "type": "Office", "vertical": "Commercial", "sqft": 60630.0, "opex": 56933.07203, "valuation": 759107.6270666667, "carbon": 28.40093973, "eui": 46.33311232, "image": "CA_15663917_streetview.jpg", "lat": 34.1005483, "lon": -117.2976455}, {"id": "CA_15159486", "address": "2411 Boswell Road, Chula Vista, CA, 91914", "city": "Chula Vista", "state": "CA", "type": "Office", "vertical": "Commercial", "sqft": 57705.0, "opex": 56861.62686, "valuation": 758155.0248, "carbon": 42.6880539, "eui": 53.24644322, "image": "", "lat": 32.65636973, "lon": -116.9610633}, {"id": "DC_5485531", "address": "122 C St NW, Washington, DC, 20001", "city": "Washington", "state": "DC", "type": "Office", "vertical": "Commercial", "sqft": 117932.0, "opex": 54934.74347, "valuation": 784782.0495714286, "carbon": 140.3682283, "eui": 69.62922276, "image": "DC_5485531_Serpapi.jpg", "lat": 38.8933326, "lon": -77.01302161}, {"id": "CA_21468134", "address": "3480 Vine Street, Riverside, CA, 92507", "city": "Riverside", "state": "CA", "type": "Office", "vertical": "Commercial", "sqft": 50304.0, "opex": 53160.98692, "valuation": 708813.1589333334, "carbon": 13.18300489, "eui": 42.35599296, "image": "CA_21468134_streetview.jpg", "lat": 33.9821011, "lon": -117.3661003}, {"id": "SD_111", "address": "730 13Th Street, San Diego, CA 92101", "city": "San Diego", "state": "CA", "type": "Office", "vertical": "Commercial", "sqft": 146452.0, "opex": 52422.97859, "valuation": 698973.0478666667, "carbon": 11.04890443, "eui": 17.5, "image": "", "lat": 32.71311252, "lon": -117.1531432}, {"id": "NYC_3050570035", "address": "672 Parkside Ave, New York, NY, 11226", "city": "New York", "state": "NY", "type": "Office", "vertical": "Commercial", "sqft": 42126.0, "opex": 50693.56557, "valuation": 724193.7938571428, "carbon": 65.04707022, "eui": 91.3721336, "image": "NYC_3050570035_streetview.jpg", "lat": 40.656188, "lon": -73.951204}, {"id": "DC_5486327", "address": "2041 Martin Luther King Jr Ave SE, Washington, DC, 20020", "city": "Washington", "state": "DC", "type": "Office", "vertical": "Commercial", "sqft": 118545.0, "opex": 50119.20148, "valuation": 715988.5925714285, "carbon": 84.27962096, "eui": 53.7524262, "image": "DC_5486327_streetview.jpg", "lat": 38.86592269, "lon": -76.98982639}, {"id": "CA_60347392", "address": "1900 Churn Creek Road, Redding, CA, 96002", "city": "Redding", "state": "CA", "type": "Office", "vertical": "Commercial", "sqft": 61267.0, "opex": 49686.33126, "valuation": 662484.4168, "carbon": 56.55115277, "eui": 58.7615976, "image": "CA_60347392_streetview.jpg", "lat": 40.578997, "lon": -122.3546627}, {"id": "NYC_2025720006", "address": "Classified Dhs Location, New York, NY, 10454", "city": "New York", "state": "NY", "type": "Office", "vertical": "Commercial", "sqft": 72000.0, "opex": 49542.61023, "valuation": 707751.5747142857, "carbon": 132.0699406, "eui": 96.05394444, "image": "NYC_2025720006_cyclomedia.jpg", "lat": 40.6954981, "lon": -73.9768193}, {"id": "CA_33531039", "address": "360 22Nd St, Oakland, CA, 94612", "city": "Oakland", "state": "CA", "type": "Office", "vertical": "Commercial", "sqft": 133244.0, "opex": 49073.73657, "valuation": 654316.4876, "carbon": 73.32741006, "eui": 42.33545687, "image": "CA_33531039_streetview.jpg", "lat": 37.8110676, "lon": -122.2656169}, {"id": "KC_311311210", "address": "11224 Holmes Rd, Kansas City, MO, 64131", "city": "Kansas City", "state": "MO", "type": "Office", "vertical": "Commercial", "sqft": 73262.0, "opex": 48791.06615, "valuation": 574012.5429411764, "carbon": 76.9620988, "eui": 69.3, "image": "KC_311311210_Serpapi.jpg", "lat": 38.922426, "lon": -94.5844496}, {"id": "LA_420275895779", "address": "15346 Sherman Way, Los Angeles, CA, 91406", "city": "Los Angeles", "state": "CA", "type": "Office", "vertical": "Commercial", "sqft": 130625.0, "opex": 47680.53638, "valuation": 657662.5707586207, "carbon": 10.29562663, "eui": 23.7, "image": "", "lat": 34.200518, "lon": -118.4680905}, {"id": "SEA_1972203220", "address": "400 N 34Th St, Seattle, WA, 98103", "city": "Seattle", "state": "WA", "type": "Office", "vertical": "Commercial", "sqft": 95426.0, "opex": 46961.11413, "valuation": 626148.1884000001, "carbon": 1.153926946, "eui": 42.23652883, "image": "", "lat": 47.65086, "lon": -122.35412}, {"id": "PHL_178614", "address": "2401 Walnut Street, Philadelphia, PA, 19103", "city": "Philadelphia", "state": "PA", "type": "Office", "vertical": "Commercial", "sqft": 148496.0, "opex": 42988.47687, "valuation": 537355.960875, "carbon": 59.72404117, "eui": 42.3754868, "image": "PHL_178614_energystar.jpg", "lat": 39.95162256, "lon": -75.17996995}, {"id": "SD_321", "address": "5120 Shoreham Pl, San Diego, CA 92122", "city": "San Diego", "state": "CA", "type": "Office", "vertical": "Commercial", "sqft": 38840.0, "opex": 42543.81894, "valuation": 567250.9192, "carbon": 11.75248139, "eui": 43.4, "image": "SD_321_Serpapi.jpg", "lat": 32.85330974, "lon": -117.1861174}, {"id": "CA_1702938", "address": "6501 Sylvan Road, Citrus Heights, CA, 95610", "city": "Citrus Heights", "state": "CA", "type": "Office", "vertical": "Commercial", "sqft": 81107.0, "opex": 42358.5039, "valuation": 564780.052, "carbon": 31.21324342, "eui": 40.64618333, "image": "CA_1702938_energystar.jpg", "lat": 38.683272, "lon": -121.2914251}, {"id": "SF_00570012024", "address": "1700 Montgomery St, San Francisco, CA, 94111", "city": "San Francisco", "state": "CA", "type": "Office", "vertical": "Commercial", "sqft": 142446.0, "opex": 42220.2116, "valuation": 562936.1546666668, "carbon": 62.59074238, "eui": 34.74325283, "image": "SF_00570012024_streetview.jpg", "lat": 37.80527223, "lon": -122.4045834}, {"id": "PDX_1N1E33AA-1200-B1", "address": "1455 NW Overton St, Portland, OR, 97209", "city": "Portland", "state": "OR", "type": "Office", "vertical": "Commercial", "sqft": 62058.74051, "opex": 39965.62681, "valuation": 470183.8448235294, "carbon": 41.56849502, "eui": 58.5, "image": "", "lat": 45.5323152, "lon": -122.6861147}, {"id": "LA_490146836675", "address": "1300 Factory Pl, Los Angeles, CA 90013", "city": "Los Angeles", "state": "CA", "type": "Office", "vertical": "Commercial", "sqft": 40200.0, "opex": 38771.55158, "valuation": 534780.0217931034, "carbon": 10.85701239, "eui": 60.3, "image": "LA_490146836675_streetview.jpg", "lat": 34.038894, "lon": -118.2359822}, {"id": "ATL_532", "address": "1875 Century Blvd NE, Atlanta, GA, 30345", "city": "Atlanta", "state": "GA", "type": "Office", "vertical": "Commercial", "sqft": 107440.0, "opex": 38414.32268, "valuation": 480179.0335, "carbon": 33.02823216, "eui": 52.2, "image": "ATL_532_streetview.jpg", "lat": 33.8459006, "lon": -84.3122086}, {"id": "CA_26639362", "address": "760 Paseo Camarillo, Camarillo, CA, 93010", "city": "Camarillo", "state": "CA", "type": "Office", "vertical": "Commercial", "sqft": 60958.0, "opex": 37760.15119, "valuation": 503468.6825333333, "carbon": 58.13477574, "eui": 53.11152699, "image": "CA_26639362_Serpapi.jpg", "lat": 34.2202786, "lon": -119.0588116}, {"id": "ATL_536", "address": "2400 Century Pkwy NE, Atlanta, GA, 30345", "city": "Atlanta", "state": "GA", "type": "Office", "vertical": "Commercial", "sqft": 141866.0, "opex": 37351.2701, "valuation": 466890.87625, "carbon": 28.79378636, "eui": 38.9, "image": "ATL_536_Serpapi.jpg", "lat": 33.8469935, "lon": -84.3066851}, {"id": "NYC_4098150056", "address": "88-01 - 88-11 165Th Street, New York, NY, 11432", "city": "New York", "state": "NY", "type": "Office", "vertical": "Commercial", "sqft": 202900.0, "opex": 37220.5761, "valuation": 531722.5157142857, "carbon": 32.67976226, "eui": 23.49115081, "image": "NYC_4098150056_cyclomedia.jpg", "lat": 40.7083907, "lon": -73.7962818}, {"id": "SEA_7666206440", "address": "1518 1St Ave S, Seattle, WA, 98134", "city": "Seattle", "state": "WA", "type": "Office", "vertical": "Commercial", "sqft": 62370.0, "opex": 36909.90503, "valuation": 492132.0670666667, "carbon": 35.17281787, "eui": 62.01239378, "image": "SEA_7666206440_Mapillary.jpg", "lat": 47.58958, "lon": -122.33369}, {"id": "CA_3773651", "address": "9245 Laguna Springs Drive, Elk Grove, CA, 95758", "city": "Elk Grove", "state": "CA", "type": "Office", "vertical": "Commercial", "sqft": 76000.0, "opex": 31127.7126, "valuation": 415036.168, "carbon": 48.05134594, "eui": 44.51933376, "image": "CA_3773651_streetview.jpg", "lat": 38.4223202, "lon": -121.3966846}, {"id": "CA_12069011", "address": "3200 East Guasti Road, Ontario, CA, 91761", "city": "Ontario", "state": "CA", "type": "Office", "vertical": "Commercial", "sqft": 68836.0, "opex": 30440.713, "valuation": 405876.17333333334, "carbon": 23.48622814, "eui": 38.80509189, "image": "CA_12069011_energystar.jpg", "lat": 34.0650084, "lon": -117.5819788}, {"id": "LA_488436840175", "address": "200 S San Pedro St, Los Angeles, CA 90012", "city": "Los Angeles", "state": "CA", "type": "Office", "vertical": "Commercial", "sqft": 46085.0, "opex": 27468.52564, "valuation": 378876.2157241379, "carbon": 7.431270851, "eui": 37.9, "image": "LA_488436840175_streetview.jpg", "lat": 34.049028, "lon": -118.2416105}, {"id": "DC_5482522", "address": "1819 L St NW, Washington, DC 20036", "city": "Washington", "state": "DC", "type": "Office", "vertical": "Commercial", "sqft": 60044.0, "opex": 27466.98391, "valuation": 392385.48442857136, "carbon": 9.774824118, "eui": 34.13316634, "image": "DC_5482522_streetview.jpg", "lat": 38.90400303, "lon": -77.04246533}, {"id": "SF_02400162024", "address": "550 Kearny St, San Francisco, CA, 94108", "city": "San Francisco", "state": "CA", "type": "Office", "vertical": "Commercial", "sqft": 237905.0, "opex": 26330.07093, "valuation": 351067.61240000004, "carbon": 31.83352323, "eui": 16.70677164, "image": "SF_02400162024_Serpapi.jpg", "lat": 37.79334161, "lon": -122.4042141}, {"id": "CA_27577352", "address": "370 Amapola Avenue, Torrance, CA, 90501", "city": "Torrance", "state": "CA", "type": "Office", "vertical": "Commercial", "sqft": 96638.0, "opex": 25123.91345, "valuation": 334985.5126666667, "carbon": 7.424415326, "eui": 19.68190313, "image": "CA_27577352_Serpapi.jpg", "lat": 33.8458825, "lon": -118.3228622}, {"id": "ATL_100", "address": "180 Ted Turner Dr SW, Atlanta, GA, 30303", "city": "Atlanta", "state": "GA", "type": "Office", "vertical": "Commercial", "sqft": 97069.0, "opex": 22980.86857, "valuation": 287260.857125, "carbon": 14.59823848, "eui": 48.6, "image": "ATL_100_streetview.jpg", "lat": 33.7495454, "lon": -84.3973764}, {"id": "NYC_3014550070", "address": "1709 St Marks Avenue, New York, NY, 11233", "city": "New York", "state": "NY", "type": "Office", "vertical": "Commercial", "sqft": 38000.0, "opex": 22396.21321, "valuation": 319945.903, "carbon": 39.5797417, "eui": 69.00844474, "image": "", "lat": 40.673016, "lon": -73.910102}, {"id": "NYC_4003730021", "address": "31-10 37 Ave, New York, NY, 11101", "city": "New York", "state": "NY", "type": "Office", "vertical": "Commercial", "sqft": 95355.0, "opex": 21074.69753, "valuation": 301067.1075714286, "carbon": 23.32528033, "eui": 32.84370091, "image": "NYC_4003730021_streetview.jpg", "lat": 40.754874, "lon": -73.930894}, {"id": "CA_9431956", "address": "14101 Myford Road, Tustin, CA, 92780", "city": "Tustin", "state": "CA", "type": "Office", "vertical": "Commercial", "sqft": 66369.0, "opex": 17609.11777, "valuation": 234788.23693333336, "carbon": 12.4914031, "eui": 26.95835767, "image": "CA_9431956_streetview.jpg", "lat": 33.7199433, "lon": -117.8008261}, {"id": "DC_5492019", "address": "1291 Taylor St NW, Washington, DC 20542", "city": "Washington", "state": "DC", "type": "Office", "vertical": "Education", "sqft": 88630.0, "opex": 15765.24257, "valuation": 225217.751, "carbon": 27.48516531, "eui": 35.97080737, "image": "", "lat": 38.94130851, "lon": -77.02847429}, {"id": "NYC_1017230005", "address": "75 West 125Th Street, New York, NY, 10027", "city": "New York", "state": "NY", "type": "Office", "vertical": "Commercial", "sqft": 25000.0, "opex": 15326.14841, "valuation": 218944.97728571427, "carbon": 19.425637, "eui": 62.692004, "image": "NYC_1017230005_cyclomedia.jpg", "lat": 40.80744, "lon": -73.944674}, {"id": "PHL_166323", "address": "30 N 41st Street, Philadelphia, PA, 19104", "city": "Philadelphia", "state": "PA", "type": "Office", "vertical": "Commercial", "sqft": 98000.0, "opex": 15314.17215, "valuation": 191427.151875, "carbon": 17.69928999, "eui": 35.31987155, "image": "PHL_166323_energystar.jpg", "lat": 39.95852767, "lon": -75.20548601}, {"id": "LA_410218906101", "address": "16923 Parthenia St, Los Angeles, CA, 91343", "city": "Los Angeles", "state": "CA", "type": "Office", "vertical": "Commercial", "sqft": 25840.0, "opex": 12726.2863, "valuation": 175534.98344827586, "carbon": 4.57351522, "eui": 41.6, "image": "LA_410218906101_streetview.jpg", "lat": 34.2289649, "lon": -118.5008136}, {"id": "NYC_3075760021", "address": "2233 Nostrand Avenue, New York, NY, 11210", "city": "New York", "state": "NY", "type": "Office", "vertical": "Commercial", "sqft": 27820.0, "opex": 12149.23217, "valuation": 173560.45957142854, "carbon": 3.559809206, "eui": 27.73392883, "image": "", "lat": 40.629998, "lon": -73.947394}, {"id": "CA_3122783", "address": "21 Technology Drive, Irvine, CA, 92618", "city": "Irvine", "state": "CA", "type": "Office", "vertical": "Commercial", "sqft": 66140.0, "opex": 8560.568701, "valuation": 114140.91601333334, "carbon": 16.33985785, "eui": 23.64560071, "image": "CA_3122783_streetview.jpg", "lat": 33.6506261, "lon": -117.7385285}, {"id": "DC_5478631", "address": "1207 Taylor St NW, Washington, DC 20011", "city": "Washington", "state": "DC", "type": "Office", "vertical": "Commercial", "sqft": 28812.0, "opex": 7741.227564, "valuation": 110588.9652, "carbon": 12.18907209, "eui": 46.92457924, "image": "DC_5478631_buildingurl.jpg", "lat": 38.94110672, "lon": -77.02724783}, {"id": "SF_02880012024", "address": "155 Montgomery St, San Francisco, CA, 94104", "city": "San Francisco", "state": "CA", "type": "Office", "vertical": "Commercial", "sqft": 55785.0, "opex": 6778.89735, "valuation": 90385.298, "carbon": 4.797843865, "eui": 16.85824658, "image": "SF_02880012024_Serpapi.jpg", "lat": 37.79075442, "lon": -122.4025524}, {"id": "PDX_1S2E09AA-7401-B1", "address": "2600 SE 98th Ave, Portland, OR, 97266", "city": "Portland", "state": "OR", "type": "Office", "vertical": "Commercial", "sqft": 29130.78634, "opex": 5376.076823, "valuation": 63247.96262352941, "carbon": 9.031195591, "eui": 32.8, "image": "", "lat": 45.5035894, "lon": -122.5624561}, {"id": "NYC_1000920032", "address": "19 Beekman Street, New York, NY, 10038", "city": "New York", "state": "NY", "type": "Office", "vertical": "Commercial", "sqft": 26791.0, "opex": 2275.862942, "valuation": 32512.327742857145, "carbon": 5.091501858, "eui": 23.32538166, "image": "NYC_1000920032_cyclomedia.jpg", "lat": 40.710959, "lon": -74.006204}, {"id": "SEA_5247800715", "address": "319 2Nd Ave S, Seattle, WA, 98104", "city": "Seattle", "state": "WA", "type": "Office", "vertical": "Commercial", "sqft": 26000.0, "opex": 627.6754906, "valuation": 8369.006541333334, "carbon": 2.008571255, "eui": 8.727538462, "image": "SEA_5247800715_streetview.jpg", "lat": 47.59938, "lon": -122.33197}]