[{"id": "DC_5480651", "address": "1445 New York Ave NW, Washington, DC, 20005", "city": "Washington", "state": "DC", "type": "Office", "vertical": "Commercial", "sqft": 200913.0, "opex": 123235.1236, "valuation": 1760501.7657142857, "carbon": 44.75818727, "eui": 50.11364153, "image": "DC_5480651_GooglePlaces.jpg", "lat": 38.89935994, "lon": -77.03292433}, {"id": "DC_5494701", "address": "719 15th St NW, Washington, DC 20005", "city": "Washington", "state": "DC", "type": "Office", "vertical": "Commercial", "sqft": 186781.0, "opex": 93602.94976, "valuation": 1337184.9965714284, "carbon": 34.68096487, "eui": 35.91603628, "image": "DC_5494701_energystar.jpg", "lat": 38.89930779, "lon": -77.03327223}, {"id": "DC_5475894", "address": "1622 I St NW, Washington, DC 20006", "city": "Washington", "state": "DC", "type": "Office", "vertical": "Commercial", "sqft": 231784.0, "opex": 89800.53909, "valuation": 1282864.844142857, "carbon": 95.01784547, "eui": 42.40612609, "image": "DC_5475894_energystar.jpg", "lat": 38.90111774, "lon": -77.03804905}, {"id": "NYC_1008680036", "address": "70 Park Ave, New York, NY, 10016", "city": "New York", "state": "NY", "type": "Hotel", "vertical": "Commercial", "sqft": 95942.0, "opex": 53415.08706, "valuation": 763072.6722857142, "carbon": 33.10912172, "eui": 66.21745325, "image": "NYC_1008680036_Serpapi.jpg", "lat": 40.74976, "lon": -73.979403}, {"id": "NYC_1006460032", "address": "414 West 14Th Street (418 West 14Th St), New York, NY, 10014", "city": "New York", "state": "NY", "type": "Office", "vertical": "Commercial", "sqft": 51744.0, "opex": 31180.38171, "valuation": 445434.0244285714, "carbon": 26.02298534, "eui": 50.26444419, "image": "NYC_1006460032_cyclomedia.jpg", "lat": 40.741256, "lon": -74.006117}, {"id": "NYC_1004830001", "address": "490 Broadway, New York, NY, 10012", "city": "New York", "state": "NY", "type": "Office", "vertical": "Commercial", "sqft": 35514.0, "opex": 30835.79563, "valuation": 440511.3661428571, "carbon": 13.61260433, "eui": 62.67140001, "image": "NYC_1004830001_streetview.jpg", "lat": 40.722015, "lon": -73.99965}]