[{"id": "CHI_103624", "address": "3300 South Federal Street, Chicago, IL, 60616", "city": "Chicago", "state": "IL", "type": "Higher Ed", "vertical": "Education", "sqft": 2944091.0, "opex": 2359864.336, "valuation": 0.0, "carbon": 17953.94516, "eui": 168.3963741, "image": "CHI_103624_Wikidata.jpg", "lat": 41.8342998, "lon": -87.6292618}, {"id": "CHI_256440", "address": "10 W 35th Street, Chicago, IL, 60616", "city": "Chicago", "state": "IL", "type": "Higher Ed", "vertical": "Education", "sqft": 392894.0, "opex": 757811.7725, "valuation": 0.0, "carbon": 5262.22798, "eui": 211.5753565, "image": "CHI_256440_GooglePlaces.jpg", "lat": 41.842325, "lon": -87.62715344}, {"id": "CHI_256420", "address": "10 W 32Nd Street, Chicago, IL 60616", "city": "Chicago", "state": "IL", "type": "Higher Ed", "vertical": "Education", "sqft": 133990.0, "opex": 307245.1816, "valuation": 0.0, "carbon": 3547.051336, "eui": 541.33757, "image": "CHI_256420_Davidfleenerarchitec.jpg", "lat": 41.842325, "lon": -87.62715344}, {"id": "CHI_256421", "address": "3105 S Dearborn St, Chicago, IL, 60616", "city": "Chicago", "state": "IL", "type": "Higher Ed", "vertical": "Education", "sqft": 123454.0, "opex": 142924.2093, "valuation": 0.0, "carbon": 1120.109081, "eui": 137.9126703, "image": "CHI_256421_GooglePlaces.jpg", "lat": 41.842325, "lon": -87.62715344}, {"id": "CHI_256433", "address": "3301 S State Street, Chicago, IL, 60616", "city": "Chicago", "state": "IL", "type": "Higher Ed", "vertical": "Education", "sqft": 63711.0, "opex": 129939.8373, "valuation": 0.0, "carbon": 898.3693246, "eui": 243.1384518, "image": "CHI_256433_GooglePlaces.jpg", "lat": 41.842325, "lon": -87.62715344}, {"id": "CHI_111290", "address": "10 West 35Th Street, Chicago, IL 60616", "city": "Chicago", "state": "IL", "type": "Higher Ed", "vertical": "Education", "sqft": 392894.0, "opex": 118965.3045, "valuation": 0.0, "carbon": 305.8047447, "eui": 50.41400734, "image": "CHI_111290_streetview.jpg", "lat": 41.83139755, "lon": -87.62723022}, {"id": "CHI_256424", "address": "10 W 31St Street, Chicago, IL 60616", "city": "Chicago", "state": "IL", "type": "Higher Ed", "vertical": "Education", "sqft": 83906.0, "opex": 114276.5391, "valuation": 0.0, "carbon": 902.5167315, "eui": 318.9554513, "image": "CHI_256424_Serpapi.jpg", "lat": 41.842325, "lon": -87.62715344}, {"id": "CHI_256423", "address": "10 W 33rd Street, Chicago, IL, 60616", "city": "Chicago", "state": "IL", "type": "Higher Ed", "vertical": "Education", "sqft": 102517.0, "opex": 109573.894, "valuation": 0.0, "carbon": 756.8660168, "eui": 120.1604807, "image": "CHI_256423_Alamy.jpg", "lat": 41.842325, "lon": -87.62715344}, {"id": "CHI_158403", "address": "565 West Adams Street, Chicago, IL, 60661", "city": "Chicago", "state": "IL", "type": "Higher Ed", "vertical": "Education", "sqft": 284000.0, "opex": 105573.4643, "valuation": 0.0, "carbon": 203.3673787, "eui": 47.21102018, "image": "CHI_158403_GooglePlaces.jpg", "lat": 41.796128, "lon": -87.642628}, {"id": "CHI_256435", "address": "55 W 34th Street, Chicago, IL, 60616", "city": "Chicago", "state": "IL", "type": "Higher Ed", "vertical": "Education", "sqft": 72292.0, "opex": 84361.58858, "valuation": 0.0, "carbon": 621.2694218, "eui": 167.7528786, "image": "CHI_256435_Serpapi.jpg", "lat": 41.842325, "lon": -87.62715344}, {"id": "CHI_256426", "address": "35 W 33rd Street, Chicago, IL, 60616", "city": "Chicago", "state": "IL", "type": "Higher Ed", "vertical": "Education", "sqft": 92978.0, "opex": 72785.74636, "valuation": 0.0, "carbon": 483.3770739, "eui": 98.7322786, "image": "CHI_256426_Chistockimages.jpg", "lat": 41.842325, "lon": -87.62715344}, {"id": "CHI_256428", "address": "3201 S State Street, Chicago, IL, 60616", "city": "Chicago", "state": "IL", "type": "Higher Ed", "vertical": "Education", "sqft": 93667.0, "opex": 61136.79156, "valuation": 0.0, "carbon": 284.0148501, "eui": 117.7697713, "image": "CHI_256428_En.jpg", "lat": 41.842325, "lon": -87.62715344}, {"id": "CHI_250008", "address": "3901 South State Street, Chicago, IL, 60609", "city": "Chicago", "state": "IL", "type": "Higher Ed", "vertical": "Education", "sqft": 148655.0, "opex": 57453.51302, "valuation": 0.0, "carbon": 170.9062703, "eui": 65.41586824, "image": "CHI_250008_Winnie.jpg", "lat": 41.802501, "lon": -87.594651}, {"id": "CHI_255004", "address": "3137 S FEDERAL ST, Chicago, IL, 60616", "city": "Chicago", "state": "IL", "type": "Higher Ed", "vertical": "Education", "sqft": 71586.0, "opex": 19619.76405, "valuation": 0.0, "carbon": 100.8242068, "eui": 46.74988825, "image": "CHI_255004_Archdaily.jpg", "lat": 41.83748681, "lon": -87.62888703}, {"id": "CHI_256436", "address": "3424 S State Street, Chicago, IL, 60616", "city": "Chicago", "state": "IL", "type": "Higher Ed", "vertical": "Education", "sqft": 80660.0, "opex": 8675.034022, "valuation": 0.0, "carbon": 17.86090853, "eui": 15.61875941, "image": "CHI_256436_Wttwnews.jpg", "lat": 41.842325, "lon": -87.62715344}, {"id": "CHI_256437", "address": "3450 S State Street, Chicago, IL, 60616", "city": "Chicago", "state": "IL", "type": "Higher Ed", "vertical": "Education", "sqft": 82554.0, "opex": 8208.16529, "valuation": 0.0, "carbon": 16.8996789, "eui": 14.43914702, "image": "CHI_256437_GooglePlaces.jpg", "lat": 41.842325, "lon": -87.62715344}]