[{"id": "CA_3351840", "address": "13031 Ritz Carlton Highlands Court, Truckee, CA, 96161", "city": "Truckee", "state": "CA", "type": "Hotel", "vertical": "Commercial", "sqft": 407254.0, "opex": 375158.0992, "valuation": 4689476.24, "carbon": 335.4956692, "eui": 136.3525397, "image": "CA_3351840_Serpapi.jpg", "lat": 39.2677475, "lon": -120.1285262}, {"id": "PHL_165465", "address": "21 Juniper St. @ Filbert St., Philadelphia, PA, 19107", "city": "Philadelphia", "state": "PA", "type": "Hotel", "vertical": "Commercial", "sqft": 424992.0, "opex": 261588.4248, "valuation": 3077510.88, "carbon": 202.1338234, "eui": 133.7055418, "image": "PHL_165465_Reitnotes.jpg", "lat": 39.9531582, "lon": -75.1620603}, {"id": "SEA_7666202345", "address": "2100 Alaskan Way, Seattle, WA, 98121", "city": "Seattle", "state": "WA", "type": "Hotel", "vertical": "Commercial", "sqft": 254273.0, "opex": 102952.523, "valuation": 1286906.5375, "carbon": 32.9699157, "eui": 96.57194433, "image": "SEA_7666202345_streetview.jpg", "lat": 47.61069, "lon": -122.34653}, {"id": "CA_4971339", "address": "6526 Yount Street, Yountville, CA, 94599", "city": "Yountville", "state": "CA", "type": "Hotel", "vertical": "Commercial", "sqft": 55119.0, "opex": 84155.36419, "valuation": 1051942.052375, "carbon": 50.54228081, "eui": 172.4094038, "image": "CA_4971339_streetview.jpg", "lat": 38.4031642, "lon": -122.3604337}, {"id": "LA_440929842760", "address": "1224 Beverwil Dr, Los Angeles, CA 90035", "city": "Los Angeles", "state": "CA", "type": "Hotel", "vertical": "Commercial", "sqft": 90350.0, "opex": 66016.75575, "valuation": 880223.41, "carbon": 19.91569203, "eui": 135.0, "image": "LA_440929842760_streetview.jpg", "lat": 34.0552864, "lon": -118.3984646}, {"id": "CA_6334197", "address": "6462 Washington Street, Yountville, CA, 94599", "city": "Yountville", "state": "CA", "type": "Hotel", "vertical": "Commercial", "sqft": 58199.0, "opex": 55320.78827, "valuation": 691509.853375, "carbon": 43.73028786, "eui": 159.7665006, "image": "CA_6334197_GooglePlaces.jpg", "lat": 38.3981281, "lon": -122.3577332}, {"id": "CA_3351590", "address": "299 2Nd Street, San Francisco, CA, 94105", "city": "San Francisco", "state": "CA", "type": "Hotel", "vertical": "Commercial", "sqft": 275551.0, "opex": 42465.34177, "valuation": 530816.772125, "carbon": 16.29841536, "eui": 51.37572192, "image": "CA_3351590_streetview.jpg", "lat": 37.7859285, "lon": -122.3965957}, {"id": "SF_37360292024", "address": "299 Second Street, San Francisco, CA, 94105", "city": "San Francisco", "state": "CA", "type": "Hotel", "vertical": "Commercial", "sqft": 320373.0, "opex": 41173.10005, "valuation": 548974.6673333334, "carbon": 16.78052056, "eui": 44.18796703, "image": "SF_37360292024_streetview.jpg", "lat": 37.78596075, "lon": -122.3968173}]