[{"id": "NYC_1007020010", "address": "10 Hudson Yards, New York, NY, 10001", "city": "New York", "state": "NY", "type": "Office", "vertical": "Commercial", "sqft": 1835464.0, "opex": 3195447.898, "valuation": 45649255.68571428, "carbon": 5930.331786, "eui": 122.4154923, "image": "NYC_1007020010_AWS.jpg", "lat": 40.7529799, "lon": -74.0014169}, {"id": "CHI_103692", "address": "333 S. Wabash, Chicago, IL, 60604", "city": "Chicago", "state": "IL", "type": "Office", "vertical": "Commercial", "sqft": 1414679.0, "opex": 1129291.262, "valuation": 14116140.775, "carbon": 4295.258251, "eui": 87.46387894, "image": "CHI_103692_streetview.jpg", "lat": 41.870167, "lon": -87.706289}, {"id": "NYC_1007050039", "address": "50 Hudson Yards, New York, NY, 10001", "city": "New York", "state": "NY", "type": "Office", "vertical": "Commercial", "sqft": 2944455.0, "opex": 1122734.141, "valuation": 16039059.157142855, "carbon": 1648.496121, "eui": 51.8452388, "image": "NYC_1007050039_AWS.jpg", "lat": 40.754635, "lon": -74.000331}, {"id": "NYC_1006870029", "address": "145-81 10th Ave, Flushing, NY 11357", "city": "Flushing", "state": "NY", "type": "Office", "vertical": "Commercial", "sqft": 553472.0, "opex": 1073064.627, "valuation": 15329494.67142857, "carbon": 1417.056296, "eui": 189.0932819, "image": "NYC_1006870029_AWS.jpg", "lat": 40.791352, "lon": -73.8209766}, {"id": "NYC_1007050001", "address": "55 Hudson Yards, New York, NY, 10001", "city": "New York", "state": "NY", "type": "Office", "vertical": "Commercial", "sqft": 1178640.0, "opex": 797543.4471, "valuation": 11393477.815714285, "carbon": 1154.625286, "eui": 80.45014067, "image": "NYC_1007050001_cyclomedia.jpg", "lat": 40.7552692, "lon": -74.0018946}, {"id": "NYC_2023570035", "address": "610 Exterior Street, New York, NY, 10451", "city": "New York", "state": "NY", "type": "Retail/Consumer Services", "vertical": "Commercial", "sqft": 410046.0, "opex": 775336.2127, "valuation": 15506724.254, "carbon": 522.6712161, "eui": 116.0851509, "image": "NYC_2023570035_cyclomedia.jpg", "lat": 40.82139, "lon": -73.930832}, {"id": "CA_6331416", "address": "1151 Galleria Boulevard, Roseville, CA, 95678", "city": "Roseville", "state": "CA", "type": "Strip/Enclosed Mall", "vertical": "Commercial", "sqft": 1336009.0, "opex": 523200.9313, "valuation": 6976012.417333334, "carbon": 272.8995539, "eui": 39.06017976, "image": "CA_6331416_streetview.jpg", "lat": 38.7733115, "lon": -121.2679659}, {"id": "NYC_2023630024", "address": "3006 3Rd Avenue, New York, NY, 10455", "city": "New York", "state": "NY", "type": "Office", "vertical": "Commercial", "sqft": 154051.0, "opex": 371171.239, "valuation": 5302446.271428571, "carbon": 531.2748378, "eui": 152.1250534, "image": "NYC_2023630024_cyclomedia.jpg", "lat": 40.819224, "lon": -73.913785}, {"id": "BOS_100001", "address": "170 N Washington St, Boston, MA, 02114", "city": "Boston", "state": "MA", "type": "Office", "vertical": "Commercial", "sqft": 251688.0, "opex": 332340.5864, "valuation": 4747722.662857142, "carbon": 309.3058152, "eui": 70.89338943, "image": "BOS_100001_Serpapi.jpg", "lat": 42.3672986, "lon": -71.0593205}, {"id": "NYC_1008340049", "address": "4 W 33rd St, New York, NY 10001", "city": "New York", "state": "NY", "type": "Office", "vertical": "Commercial", "sqft": 319200.0, "opex": 208103.717, "valuation": 2972910.242857143, "carbon": 463.1552912, "eui": 84.77942888, "image": "NYC_1008340049_AWS.jpg", "lat": 40.748029, "lon": -73.985885}, {"id": "NYC_3044520545", "address": "590 Gateway Drive, New York, NY, 11239", "city": "New York", "state": "NY", "type": "Grocery/Supercenter", "vertical": "Commercial", "sqft": 89730.0, "opex": 121161.0689, "valuation": 2019351.1483333337, "carbon": 83.85001769, "eui": 326.2162164, "image": "NYC_3044520545_cyclomedia.jpg", "lat": 40.652465, "lon": -73.876571}, {"id": "NYC_3044520565", "address": "410 Gateway Drive, New York, NY, 11239", "city": "New York", "state": "NY", "type": "Retail/Consumer Services", "vertical": "Commercial", "sqft": 203132.0, "opex": 114078.3984, "valuation": 2281567.968, "carbon": 177.3871014, "eui": 78.55225371, "image": "NYC_3044520565_streetview.jpg", "lat": 40.652877, "lon": -73.877056}, {"id": "NYC_3044520555", "address": "528 Gateway Drive, New York, NY, 11239", "city": "New York", "state": "NY", "type": "Retail/Consumer Services", "vertical": "Commercial", "sqft": 48459.0, "opex": 86956.81564, "valuation": 1739136.3128, "carbon": 64.10191844, "eui": 141.347892, "image": "NYC_3044520555_cyclomedia.jpg", "lat": 40.652602, "lon": -73.876733}, {"id": "NYC_1010350017", "address": "315 W 44th St, New York, NY, 10036", "city": "New York", "state": "NY", "type": "Office", "vertical": "Commercial", "sqft": 181021.0, "opex": 74808.75808, "valuation": 1068696.544, "carbon": 173.1113065, "eui": 102.3406063, "image": "NYC_1010350017_AWS.jpg", "lat": 40.759181, "lon": -73.989805}, {"id": "NYC_1008460030", "address": "33 E 17Th St, New York, NY, 10003", "city": "New York", "state": "NY", "type": "Retail/Consumer Services", "vertical": "Commercial", "sqft": 120804.0, "opex": 73004.97992, "valuation": 1460099.5983999998, "carbon": 68.58371616, "eui": 63.05717029, "image": "NYC_1008460030_streetview.jpg", "lat": 40.737026, "lon": -73.990062}, {"id": "NYC_3044520590", "address": "550 Gateway Drive, New York, NY, 11239", "city": "New York", "state": "NY", "type": "Retail/Consumer Services", "vertical": "Commercial", "sqft": 87072.0, "opex": 43827.95645, "valuation": 876559.129, "carbon": 24.82760779, "eui": 47.77840752, "image": "NYC_3044520590_streetview.jpg", "lat": 40.652561, "lon": -73.876682}, {"id": "NYC_4000690004", "address": "2110 51St Avenue, New York, NY, 11101", "city": "New York", "state": "NY", "type": "Office", "vertical": "Commercial", "sqft": 220000.0, "opex": 39529.87955, "valuation": 564712.565, "carbon": 62.68223625, "eui": 30.90777864, "image": "NYC_4000690004_streetview.jpg", "lat": 40.741053, "lon": -73.949334}, {"id": "CA_6873514", "address": "1365 South Waterman Avenue, San Bernardino, CA, 92408", "city": "San Bernardino", "state": "CA", "type": "Office", "vertical": "Commercial", "sqft": 83008.0, "opex": 38581.92158, "valuation": 514425.62106666673, "carbon": 7.912664509, "eui": 23.79118639, "image": "CA_6873514_Wheree.jpg", "lat": 34.0755639, "lon": -117.2776234}, {"id": "CA_6873683", "address": "1395 South Waterman Avenue, San Bernardino, CA, 92408", "city": "San Bernardino", "state": "CA", "type": "Office", "vertical": "Commercial", "sqft": 83008.0, "opex": 28915.60937, "valuation": 385541.4582666667, "carbon": 5.930226038, "eui": 17.83054404, "image": "CA_6873683_Serpapi.jpg", "lat": 34.0756136, "lon": -117.2781426}, {"id": "NYC_4000710001", "address": "2100 49Th Avenue, New York, NY, 11101", "city": "New York", "state": "NY", "type": "Office", "vertical": "Commercial", "sqft": 130000.0, "opex": 27893.43662, "valuation": 398477.666, "carbon": 32.91520945, "eui": 24.99967, "image": "NYC_4000710001_streetview.jpg", "lat": 40.742491, "lon": -73.949102}, {"id": "NYC_3044520575", "address": "360 Gateway Drive, New York, NY, 11239", "city": "New York", "state": "NY", "type": "Retail/Consumer Services", "vertical": "Commercial", "sqft": 123942.0, "opex": 16328.90786, "valuation": 326578.15719999996, "carbon": 7.880461339, "eui": 19.58441529, "image": "NYC_3044520575_Serpapi.jpg", "lat": 40.651457, "lon": -73.875693}]