[{"id": "BOS_102958", "address": "42-60 Federal St, Boston, MA, 02110", "city": "Boston", "state": "MA", "type": "Office", "vertical": "Commercial", "sqft": 71880.0, "opex": 142397.4318, "valuation": 2034249.0257142857, "carbon": 115.8331905, "eui": 96.55897468, "image": "BOS_102958_Serpapi.jpg", "lat": 42.3559192, "lon": -71.0562887}, {"id": "CA_56181992", "address": "4800 Airport Plaza Drive, Long Beach, CA, 90815", "city": "Long Beach", "state": "CA", "type": "Office", "vertical": "Commercial", "sqft": 102000.0, "opex": 88061.6889, "valuation": 1174155.852, "carbon": 101.4945341, "eui": 58.74133003, "image": "CA_56181992_streetview.jpg", "lat": 33.8106221, "lon": -118.1379605}, {"id": "BOS_106092", "address": "70 Federal St, Boston, MA, 02110", "city": "Boston", "state": "MA", "type": "Office", "vertical": "Commercial", "sqft": 71872.0, "opex": 55710.88338, "valuation": 795869.7625714284, "carbon": 55.78123447, "eui": 54.88162706, "image": "BOS_106092_streetview.jpg", "lat": 42.3557279, "lon": -71.0562303}, {"id": "CA_34882875", "address": "3350 Harbor Boulevard, Costa Mesa, CA, 92626", "city": "Costa Mesa", "state": "CA", "type": "Office", "vertical": "Commercial", "sqft": 52275.0, "opex": 21600.64408, "valuation": 288008.58773333335, "carbon": 16.14457248, "eui": 30.89562123, "image": "CA_34882875_Yelp.jpg", "lat": 33.6928192, "lon": -117.9185841}, {"id": "BOS_105086", "address": "125-135 Congress St, Boston, MA, 02110", "city": "Boston", "state": "MA", "type": "Office", "vertical": "Commercial", "sqft": 45963.0, "opex": 17851.53724, "valuation": 255021.96057142856, "carbon": 15.58880831, "eui": 41.13864848, "image": "BOS_105086_Serpapi.jpg", "lat": 42.3561401, "lon": -71.0563659}, {"id": "PDX_1S1E04AD-7700-B1", "address": "600 Wi/ SW Market St, Portland, OR, 97201", "city": "Portland", "state": "OR", "type": "Retail/Consumer Services", "vertical": "Commercial", "sqft": 40008.17504, "opex": 15328.85615, "valuation": 218983.65928571427, "carbon": 26.90869252, "eui": 82.7, "image": "", "lat": 45.5139932, "lon": -122.6853022}]