[{"id": "SEA_3879902265", "address": "635 Elliott Ave W, Seattle, WA, 98119", "city": "Seattle", "state": "WA", "type": "Office", "vertical": "Commercial", "sqft": 191000.0, "opex": 95913.8537, "valuation": 1278851.3826666668, "carbon": 68.31882773, "eui": 44.93098429, "image": "SEA_3879902265_places.jpg", "lat": 47.6252, "lon": -122.36737}, {"id": "SEA_695000335", "address": "2901 3Rd Ave, Seattle, WA, 98121", "city": "Seattle", "state": "WA", "type": "Office", "vertical": "Commercial", "sqft": 272410.0, "opex": 87118.1605, "valuation": 1161575.4733333334, "carbon": 1.895857397, "eui": 30.44858118, "image": "SEA_695000335_places.jpg", "lat": 47.6182, "lon": -122.352}, {"id": "SEA_1989200680", "address": "450 3Rd Ave W, Seattle, WA, 98119", "city": "Seattle", "state": "WA", "type": "Office", "vertical": "Commercial", "sqft": 181456.0, "opex": 55314.90681, "valuation": 737532.0908, "carbon": 1.092730572, "eui": 28.51698483, "image": "SEA_1989200680_streetview.jpg", "lat": 47.62267, "lon": -122.3604}, {"id": "SEA_1992200170", "address": "300 Elliott Ave W, Seattle, WA, 98119", "city": "Seattle", "state": "WA", "type": "Office", "vertical": "Commercial", "sqft": 237282.0, "opex": 32642.65816, "valuation": 435235.44213333336, "carbon": 32.0318264, "eui": 23.3310407, "image": "SEA_1992200170_EnergyStar.jpg", "lat": 47.62177, "lon": -122.36158}, {"id": "SEA_1989200615", "address": "200 W Thomas St, Seattle, WA, 98119", "city": "Seattle", "state": "WA", "type": "Office", "vertical": "Commercial", "sqft": 67236.0, "opex": 24460.98291, "valuation": 326146.4388, "carbon": 0.581415371, "eui": 32.27868999, "image": "SEA_1989200615_Serpapi.jpg", "lat": 47.62115, "lon": -122.3597}, {"id": "SEA_1989200750", "address": "400 2Nd Ave W, Seattle, WA, 98119", "city": "Seattle", "state": "WA", "type": "Retail/Consumer Services", "vertical": "Commercial", "sqft": 157186.0, "opex": 9639.205505, "valuation": 128522.74006666668, "carbon": 1.123611901, "eui": 31.45744532, "image": "SEA_1989200750_places.jpg", "lat": 47.62225, "lon": -122.35915}]