[{"id": "CA_1250028", "address": "1120 N Street, Sacramento, CA, 95814", "city": "Sacramento", "state": "CA", "type": "Office", "vertical": "Commercial", "sqft": 462392.0, "opex": 375972.0316, "valuation": 5012960.4213333335, "carbon": 858.2190807, "eui": 65.21487699, "image": "CA_1250028_streetview.jpg", "lat": 38.5746431, "lon": -121.4935947}, {"id": "CA_1387031", "address": "2901 West Broadway, Los Angeles, CA, 90041", "city": "Los Angeles", "state": "CA", "type": "Office", "vertical": "Commercial", "sqft": 62160.0, "opex": 315117.5523, "valuation": 4201567.364, "carbon": 305.2610474, "eui": 324.6148583, "image": "CA_1387031_GooglePlaces.jpg", "lat": 34.1467858, "lon": -118.2286715}, {"id": "CA_1250012", "address": "464 West 4Th Street, San Bernardino, CA, 92401", "city": "San Bernardino", "state": "CA", "type": "Office", "vertical": "Commercial", "sqft": 385133.0, "opex": 243589.9569, "valuation": 3247866.092, "carbon": 207.8032595, "eui": 50.28664981, "image": "", "lat": 34.1067016, "lon": -117.2934255}, {"id": "CA_5243362", "address": "1750 East 4Th Street, Santa Ana, CA, 92705", "city": "Santa Ana", "state": "CA", "type": "Office", "vertical": "Commercial", "sqft": 244865.0, "opex": 118918.7955, "valuation": 1585583.94, "carbon": 35.14191886, "eui": 32.7091251, "image": "CA_5243362_streetview.jpg", "lat": 33.7477622, "lon": -117.8413083}, {"id": "NYC_2040740001", "address": "1400 Willamsbridge Rd, New York, NY, 10461", "city": "New York", "state": "NY", "type": "Office", "vertical": "Commercial", "sqft": 29055.0, "opex": 6811.665424, "valuation": 97309.50605714283, "carbon": 12.63644644, "eui": 38.95818276, "image": "NYC_2040740001_cyclomedia.jpg", "lat": 40.842565, "lon": -73.843936}]