[{"id": "NYC_3001620001", "address": "30 Flatbush, New York, NY, 11217", "city": "New York", "state": "NY", "type": "Retail/Consumer Services", "vertical": "Commercial", "sqft": 262404.0, "opex": 441247.3461, "valuation": 6303533.515714286, "carbon": 145.3499359, "eui": 81.83761337, "image": "NYC_3001620001_StarkEnterprises.jpg", "lat": 40.6880495, "lon": -73.9807991}, {"id": "CA_13125421", "address": "711 Pier Avenue, Hermosa Beach, CA, 90254", "city": "Hermosa Beach", "state": "CA", "type": "Strip/Enclosed Mall", "vertical": "Commercial", "sqft": 94717.0, "opex": 364225.2044, "valuation": 5395928.954074074, "carbon": 121.3722805, "eui": 239.1386776, "image": "CA_13125421_Serpapi.jpg", "lat": 33.8656796, "lon": -118.394941}, {"id": "CAM_1914", "address": "1 White St, Cambridge, MA 02140", "city": "Cambridge", "state": "MA", "type": "Retail/Consumer Services", "vertical": "Commercial", "sqft": 175687.0, "opex": 256546.0903, "valuation": 4664474.369090909, "carbon": 154.6766539, "eui": 91.89494783, "image": "CAM_1914_Flickr.jpg", "lat": 42.3896, "lon": -71.1185}, {"id": "DC_5480140", "address": "1200 First St NE, Washington, DC 20002", "city": "Washington", "state": "DC", "type": "Retail/Consumer Services", "vertical": "Commercial", "sqft": 291180.0, "opex": 159631.5879, "valuation": 2280451.2557142857, "carbon": 111.0262117, "eui": 50.7, "image": "DC_5480140_energystar.jpg", "lat": 38.90608235, "lon": -77.00629931}, {"id": "LA_483436859940", "address": "2508 Glendale Blvd, Los Angeles, CA 90039", "city": "Los Angeles", "state": "CA", "type": "Office", "vertical": "Commercial", "sqft": 51282.0, "opex": 153819.6283, "valuation": 2121650.0455172416, "carbon": 42.50856151, "eui": 147.1812722, "image": "LA_483436859940_streetview.jpg", "lat": 34.1034151, "lon": -118.2586923}, {"id": "DC_5490611", "address": "Dupont Executive, 1603 17th St NW, Washington, DC 20009", "city": "Washington", "state": "DC", "type": "Mixed Use", "vertical": "Commercial", "sqft": 41414.0, "opex": 147983.4096, "valuation": 2114048.7085714284, "carbon": 11.4930354, "eui": 43.23504387, "image": "DC_5490611_streetview.jpg", "lat": 38.91138728, "lon": -77.03823578}, {"id": "CA_1548487", "address": "2195 East Prosperity Avenue, Tulare, CA, 93274", "city": "Tulare", "state": "CA", "type": "Retail/Consumer Services", "vertical": "Commercial", "sqft": 177319.0, "opex": 145812.2176, "valuation": 2332995.4816, "carbon": 102.3250095, "eui": 64.76689526, "image": "CA_1548487_streetview.jpg", "lat": 36.2242913, "lon": -119.3150082}, {"id": "CA_6366554", "address": "11450 San Pablo Avenue, El Cerrito, CA, 94530", "city": "El Cerrito", "state": "CA", "type": "Strip/Enclosed Mall", "vertical": "Commercial", "sqft": 81376.0, "opex": 144687.4129, "valuation": 2143517.228148148, "carbon": 117.1983244, "eui": 156.0586083, "image": "CA_6366554_streetview.jpg", "lat": 37.9226618, "lon": -122.3160135}, {"id": "CA_33955738", "address": "7100-7150 Broadway, Lemon Grove, CA, 91945", "city": "Lemon Grove", "state": "CA", "type": "Retail/Consumer Services", "vertical": "Commercial", "sqft": 55845.0, "opex": 144011.8862, "valuation": 2304190.1792, "carbon": 38.36571348, "eui": 99.84463862, "image": "CA_33955738_streetview.jpg", "lat": 32.743828, "lon": -117.044828}, {"id": "CA_6316480", "address": "119 Lincoln Boulevard, Los Angeles, CA, 90291", "city": "Los Angeles", "state": "CA", "type": "Strip/Enclosed Mall", "vertical": "Commercial", "sqft": 75495.0, "opex": 143535.2552, "valuation": 2126448.225185185, "carbon": 32.6298127, "eui": 129.1894455, "image": "CA_6316480_Serpapi.jpg", "lat": 34.0019667, "lon": -118.4700182}, {"id": "DEN_6256", "address": "93 N Quebec, Denver, CO, 80224", "city": "Denver", "state": "CO", "type": "Retail/Consumer Services", "vertical": "Commercial", "sqft": 29755.0, "opex": 134066.856, "valuation": 2062567.0153846152, "carbon": 41.82003541, "eui": 95.32915476, "image": "DEN_6256_streetview.jpg", "lat": 39.7183766, "lon": -104.9037835}, {"id": "CA_22769792", "address": "11398 Kenyon Way, Rancho Cucamonga, CA, 91701", "city": "Rancho Cucamonga", "state": "CA", "type": "Strip/Enclosed Mall", "vertical": "Commercial", "sqft": 56018.0, "opex": 131115.1243, "valuation": 1942446.2859259257, "carbon": 79.31658131, "eui": 181.8065058, "image": "CA_22769792_streetview.jpg", "lat": 34.1354798, "lon": -117.5567617}, {"id": "CA_2348262", "address": "855 East Birch Street, Brea, CA, 92821", "city": "Brea", "state": "CA", "type": "Retail/Consumer Services", "vertical": "Commercial", "sqft": 162866.0, "opex": 123610.5034, "valuation": 1977768.0544, "carbon": 86.81015227, "eui": 58.02666557, "image": "CA_2348262_streetview.jpg", "lat": 33.9190557, "lon": -117.8877262}, {"id": "LA_432275832390", "address": "3010 S Sepulveda Blvd, Los Angeles, CA 90034", "city": "Los Angeles", "state": "CA", "type": "Strip/Enclosed Mall", "vertical": "Commercial", "sqft": 92226.0, "opex": 119739.7716, "valuation": 1773922.542222222, "carbon": 26.24194787, "eui": 147.1, "image": "LA_432275832390_streetview.jpg", "lat": 34.0270132, "lon": -118.427309}, {"id": "CA_13125873", "address": "15140 Kensington Park Drive, Tustin, CA, 92780", "city": "Tustin", "state": "CA", "type": "Strip/Enclosed Mall", "vertical": "Commercial", "sqft": 112084.0, "opex": 101168.5163, "valuation": 1498792.834074074, "carbon": 26.7992922, "eui": 62.45056387, "image": "CA_13125873_Serpapi.jpg", "lat": 33.7116724, "lon": -117.8158134}, {"id": "CA_1582817", "address": "1405 West Pacheco Boulevard, Los Banos, CA, 93635", "city": "Los Banos", "state": "CA", "type": "Retail/Consumer Services", "vertical": "Commercial", "sqft": 131909.0, "opex": 99212.27434, "valuation": 1587396.38944, "carbon": 42.94716988, "eui": 49.43161779, "image": "CA_1582817_streetview.jpg", "lat": 37.0541809, "lon": -120.8759115}, {"id": "CA_1547240", "address": "3433 Sepulveda Boulevard, Torrance, CA, 90505", "city": "Torrance", "state": "CA", "type": "Retail/Consumer Services", "vertical": "Commercial", "sqft": 123605.0, "opex": 96896.28869, "valuation": 1550340.61904, "carbon": 33.131898, "eui": 54.62215342, "image": "CA_1547240_streetview.jpg", "lat": 33.8270091, "lon": -118.3456469}, {"id": "DC_5481849", "address": "1275 Pennsylvania Ave NW, Washington, DC 20004", "city": "Washington", "state": "DC", "type": "Retail/Consumer Services", "vertical": "Commercial", "sqft": 246341.0, "opex": 96820.68093, "valuation": 1383152.5847142856, "carbon": 37.36818181, "eui": 34.5152829, "image": "DC_5481849_streetview.jpg", "lat": 38.89565727, "lon": -77.02925239}, {"id": "LA_426151903118", "address": "8252 Van Nuys Blvd, Panorama City, CA 91402", "city": "Panorama City", "state": "CA", "type": "Strip/Enclosed Mall", "vertical": "Commercial", "sqft": 85896.0, "opex": 86348.05643, "valuation": 1279230.4656296296, "carbon": 30.03954749, "eui": 79.4, "image": "LA_426151903118_streetview.jpg", "lat": 34.2212109, "lon": -118.4484716}, {"id": "CA_1547347", "address": "1050 Huntington Drive, Duarte, CA, 91010", "city": "Duarte", "state": "CA", "type": "Retail/Consumer Services", "vertical": "Commercial", "sqft": 107128.0, "opex": 85080.42884, "valuation": 1361286.86144, "carbon": 54.97608973, "eui": 60.02040469, "image": "CA_1547347_Serpapi.jpg", "lat": 34.1395301, "lon": -117.9832672}, {"id": "CA_6348252", "address": "4120 East 4Th Street, Ontario, CA, 91764", "city": "Ontario", "state": "CA", "type": "Strip/Enclosed Mall", "vertical": "Commercial", "sqft": 91437.0, "opex": 82391.50312, "valuation": 1220614.8610370369, "carbon": 57.9834353, "eui": 83.9107317, "image": "CA_6348252_streetview.jpg", "lat": 34.0752519, "lon": -117.5618749}, {"id": "CA_1260600", "address": "8850 Valley View Street, Buena Park, CA, 90620", "city": "Buena Park", "state": "CA", "type": "Retail/Consumer Services", "vertical": "Commercial", "sqft": 60979.0, "opex": 81557.54972, "valuation": 1304920.79552, "carbon": 58.79152695, "eui": 131.3072504, "image": "CA_1260600_streetview.jpg", "lat": 33.8338999, "lon": -118.0277081}, {"id": "CA_1548076", "address": "78935 California 111, La Quinta, CA, 92253", "city": "La Quinta", "state": "CA", "type": "Retail/Consumer Services", "vertical": "Commercial", "sqft": 124509.0, "opex": 80968.3436, "valuation": 1295493.4976, "carbon": 63.41226898, "eui": 56.70429206, "image": "CA_1548076_Yelp.jpg", "lat": 33.7085992, "lon": -116.29044}, {"id": "CA_2295765", "address": "1000 West Imperial Highway, La Habra, CA, 90631", "city": "La Habra", "state": "CA", "type": "Retail/Consumer Services", "vertical": "Commercial", "sqft": 136307.0, "opex": 75779.87379, "valuation": 1212477.98064, "carbon": 59.42117115, "eui": 54.64753727, "image": "CA_2295765_Serpapi.jpg", "lat": 33.9160252, "lon": -117.9566738}, {"id": "NYC_4008310001", "address": "31-01 Ditmars Boulevard, New York, NY, 11105", "city": "New York", "state": "NY", "type": "Retail/Consumer Services", "vertical": "Commercial", "sqft": 33250.0, "opex": 70827.48672, "valuation": 1416549.7344, "carbon": 82.0485569, "eui": 191.3785774, "image": "NYC_4008310001_streetview.jpg", "lat": 40.776093, "lon": -73.910627}, {"id": "NYC_4019180084", "address": "5916 99 St, New York, NY, 11368", "city": "New York", "state": "NY", "type": "Strip/Enclosed Mall", "vertical": "Commercial", "sqft": 41836.0, "opex": 58048.4669, "valuation": 859977.2874074073, "carbon": 26.77595052, "eui": 118.1353404, "image": "NYC_4019180084_streetview.jpg", "lat": 40.736894, "lon": -73.859317}, {"id": "NYC_1000910013", "address": "129 Fulton Street, New York, NY, 10038", "city": "New York", "state": "NY", "type": "Office", "vertical": "Commercial", "sqft": 38320.0, "opex": 56317.84113, "valuation": 804540.5875714285, "carbon": 47.78856333, "eui": 99.07847599, "image": "NYC_1000910013_cyclomedia.jpg", "lat": 40.710105, "lon": -74.007495}, {"id": "SF_07432032024", "address": "711 Van Ness Ave, San Francisco, CA, 94102", "city": "San Francisco", "state": "CA", "type": "Mixed Use", "vertical": "Commercial", "sqft": 152356.0, "opex": 51842.34094, "valuation": 740604.8705714286, "carbon": 101.9501534, "eui": 71.07290793, "image": "SF_07432032024_Serpapi.jpg", "lat": 37.78211721, "lon": -122.4213036}, {"id": "CA_1547225", "address": "1280 Dana Drive, Redding, CA, 96003", "city": "Redding", "state": "CA", "type": "Retail/Consumer Services", "vertical": "Commercial", "sqft": 101914.0, "opex": 51353.62694, "valuation": 821658.03104, "carbon": 26.39242529, "eui": 49.41907294, "image": "CA_1547225_streetview.jpg", "lat": 40.5863326, "lon": -122.3481622}, {"id": "NYC_5046450410", "address": "150 Greaves Lane, New York, NY, 10308", "city": "New York", "state": "NY", "type": "Strip/Enclosed Mall", "vertical": "Commercial", "sqft": 25800.0, "opex": 44633.52635, "valuation": 661237.4274074073, "carbon": 43.78316411, "eui": 208.2800775, "image": "NYC_5046450410_Serpapi.jpg", "lat": 40.553576, "lon": -74.143805}, {"id": "BOS_101470", "address": "601-607 Boylston St, Boston, MA, 02116", "city": "Boston", "state": "MA", "type": "Retail/Consumer Services", "vertical": "Commercial", "sqft": 49140.0, "opex": 44392.94654, "valuation": 807144.4825454545, "carbon": 31.76517058, "eui": 74.47332112, "image": "BOS_101470_Yelp.jpg", "lat": 42.3504224, "lon": -71.0771888}, {"id": "SJ_899", "address": "5625 Snell Ave, San Jose, CA, 95123", "city": "San Jose", "state": "CA", "type": "Strip/Enclosed Mall", "vertical": "Commercial", "sqft": 67989.0, "opex": 42591.46904, "valuation": 630984.7265185185, "carbon": 28.51999486, "eui": 62.73277195, "image": "SJ_899_Serpapi.jpg", "lat": 37.2497503, "lon": -121.8325679}, {"id": "CA_17808650", "address": "15210 Rosecrans Ave, La Mirada, CA, 90638", "city": "La Mirada", "state": "CA", "type": "Retail/Consumer Services", "vertical": "Commercial", "sqft": 84069.0, "opex": 41236.01277, "valuation": 659776.20432, "carbon": 30.54331627, "eui": 51.98986956, "image": "CA_17808650_streetview.jpg", "lat": 33.8970611, "lon": -118.0069894}, {"id": "CA_6360741", "address": "8260 Mira Mesa Boulevard, San Diego, CA, 92126", "city": "San Diego", "state": "CA", "type": "Retail/Consumer Services", "vertical": "Commercial", "sqft": 86026.0, "opex": 37771.64535, "valuation": 604346.3256, "carbon": 7.467485181, "eui": 26.67761035, "image": "CA_6360741_streetview.jpg", "lat": 32.914159, "lon": -117.146002}, {"id": "DC_5483679", "address": "1199 Vermont Ave NW, Washington, DC 20005", "city": "Washington", "state": "DC", "type": "Hotel", "vertical": "Commercial", "sqft": 170049.0, "opex": 36308.76413, "valuation": 484116.8550666667, "carbon": 11.86045786, "eui": 54.15818175, "image": "DC_5483679_streetview.jpg", "lat": 38.90440836, "lon": -77.03228647}, {"id": "CA_6380623", "address": "450 Las Gallinas Avenue, San Rafael, CA, 94903", "city": "San Rafael", "state": "CA", "type": "Strip/Enclosed Mall", "vertical": "Commercial", "sqft": 71806.0, "opex": 33720.20907, "valuation": 499558.6528888888, "carbon": 25.95502512, "eui": 54.22941357, "image": "CA_6380623_Serpapi.jpg", "lat": 38.0049167, "lon": -122.5410605}, {"id": "CA_1547318", "address": "1925 Douglas Boulevard, Roseville, CA, 95661", "city": "Roseville", "state": "CA", "type": "Retail/Consumer Services", "vertical": "Commercial", "sqft": 126623.0, "opex": 33269.02178, "valuation": 532304.34848, "carbon": 20.30460726, "eui": 32.60245374, "image": "CA_1547318_Serpapi.jpg", "lat": 38.7461252, "lon": -121.2542203}, {"id": "CA_1547272", "address": "16400 Beach Boulevard, Westminster, CA, 92683", "city": "Westminster", "state": "CA", "type": "Retail/Consumer Services", "vertical": "Commercial", "sqft": 119009.0, "opex": 32175.52377, "valuation": 514808.38032, "carbon": 9.002948267, "eui": 30.57439521, "image": "CA_1547272_streetview.jpg", "lat": 33.7258348, "lon": -117.9858529}, {"id": "CA_1547321", "address": "3405 Mchenry Avenue, Modesto, CA, 95350", "city": "Modesto", "state": "CA", "type": "Retail/Consumer Services", "vertical": "Commercial", "sqft": 130411.0, "opex": 30139.10304, "valuation": 482225.64864, "carbon": 36.9339474, "eui": 47.98282123, "image": "CA_1547321_streetview.jpg", "lat": 37.68754, "lon": -120.9964148}, {"id": "CA_36068976", "address": "300 South Diamond Bar Boulevard, Diamond Bar, CA, 91765", "city": "Diamond Bar", "state": "CA", "type": "Retail/Consumer Services", "vertical": "Commercial", "sqft": 53155.0, "opex": 29731.97743, "valuation": 475711.63888, "carbon": 16.4968257, "eui": 51.57293032, "image": "CA_36068976_Yelp.jpg", "lat": 34.0205517, "lon": -117.808709}, {"id": "SJ_807", "address": "2514 Berryessa Rd, San Jose, CA, 95132", "city": "San Jose", "state": "CA", "type": "Retail/Consumer Services", "vertical": "Commercial", "sqft": 25374.0, "opex": 29494.76185, "valuation": 491579.3641666667, "carbon": 18.20417655, "eui": 80.30667274, "image": "SJ_807_Flickr.jpg", "lat": 37.38718, "lon": -121.85867}, {"id": "NYC_1021650001", "address": "617 West 181St Street, New York, NY, 10033", "city": "New York", "state": "NY", "type": "Retail/Consumer Services", "vertical": "Commercial", "sqft": 52672.0, "opex": 28844.36167, "valuation": 576887.2333999999, "carbon": 17.02395237, "eui": 47.99810715, "image": "NYC_1021650001_streetview.jpg", "lat": 40.849533, "lon": -73.934211}, {"id": "NYC_1019510043", "address": "324 West 125Th Street, New York, NY, 10027", "city": "New York", "state": "NY", "type": "Retail/Consumer Services", "vertical": "Commercial", "sqft": 35572.0, "opex": 27826.42049, "valuation": 556528.4098, "carbon": 14.34935462, "eui": 59.35839705, "image": "NYC_1019510043_cyclomedia.jpg", "lat": 40.810463, "lon": -73.951886}, {"id": "NYC_4141520060", "address": "157-05 Cross Bay Blvd., New York, NY, 11414", "city": "New York", "state": "NY", "type": "Retail/Consumer Services", "vertical": "Commercial", "sqft": 33600.0, "opex": 27347.69743, "valuation": 546953.9486, "carbon": 21.42538535, "eui": 74.13459524, "image": "NYC_4141520060_cyclomedia.jpg", "lat": 40.662228, "lon": -73.84062}, {"id": "LA_428646816989", "address": "13171 Mindanao Wy, Marina Del Rey, CA, 90292", "city": "Marina Del Rey", "state": "CA", "type": "Strip/Enclosed Mall", "vertical": "Commercial", "sqft": 25500.0, "opex": 22919.7335, "valuation": 339551.60740740737, "carbon": 9.494155117, "eui": 87.0, "image": "LA_428646816989_streetview.jpg", "lat": 33.9844756, "lon": -118.4388542}, {"id": "LA_402354839659", "address": "864 Swarthmore Ave, Pacific Palisades, CA 90272", "city": "Pacific Palisades", "state": "CA", "type": "Retail/Consumer Services", "vertical": "Commercial", "sqft": 25336.0, "opex": 22688.25339, "valuation": 394578.319826087, "carbon": 7.898778542, "eui": 58.2, "image": "LA_402354839659_streetview.jpg", "lat": 34.0464279, "lon": -118.525722}, {"id": "SF_03150192024", "address": "336-344 Mason Street, San Francisco, CA, 94102", "city": "San Francisco", "state": "CA", "type": "Retail/Consumer Services", "vertical": "Commercial", "sqft": 25492.0, "opex": 19506.87385, "valuation": 354670.43363636365, "carbon": 32.86096545, "eui": 137.7413002, "image": "SF_03150192024_streetview.jpg", "lat": 37.7869679, "lon": -122.4096562}, {"id": "SJ_831", "address": "3220 S White Rd, San Jose, CA, 95148", "city": "San Jose", "state": "CA", "type": "Retail/Consumer Services", "vertical": "Commercial", "sqft": 25356.0, "opex": 18994.88526, "valuation": 316581.421, "carbon": 11.87005887, "eui": 56.76127362, "image": "SJ_831_Serpapi.jpg", "lat": 37.3156369, "lon": -121.7912176}, {"id": "NYC_1018510001", "address": "743 Amsterdam Avenue, New York, NY, 10025", "city": "New York", "state": "NY", "type": "PreK-12", "vertical": "Education", "sqft": 35600.0, "opex": 17090.35153, "valuation": 0.0, "carbon": 8.791480412, "eui": 48.76032303, "image": "NYC_1018510001_Flickr.jpg", "lat": 40.794204, "lon": -73.970244}, {"id": "LA_412796880161", "address": "16461 Ventura Blvd, Los Angeles, CA, 91436", "city": "Los Angeles", "state": "CA", "type": "Retail/Consumer Services", "vertical": "Commercial", "sqft": 29849.0, "opex": 14441.38559, "valuation": 251154.532, "carbon": 2.952534891, "eui": 41.4, "image": "LA_412796880161_streetview.jpg", "lat": 34.1578646, "lon": -118.4917337}, {"id": "BOS_100270", "address": "581 Boylston St, Boston, MA, 02116", "city": "Boston", "state": "MA", "type": "Retail/Consumer Services", "vertical": "Commercial", "sqft": 40000.0, "opex": 12812.53227, "valuation": 232955.1321818182, "carbon": 3.148545814, "eui": 22.9165075, "image": "BOS_100270_MapQuest.jpg", "lat": 42.3505461, "lon": -71.076751}, {"id": "LA_382568896486", "address": "21051 Sherman Way, Los Angeles, CA, 91303", "city": "Los Angeles", "state": "CA", "type": "Retail/Consumer Services", "vertical": "Commercial", "sqft": 26000.0, "opex": 7657.878782, "valuation": 133180.50055652173, "carbon": 2.056369099, "eui": 45.6, "image": "LA_382568896486_Serpapi.jpg", "lat": 34.2020212, "lon": -118.5923612}, {"id": "BOS_102917", "address": "1249 Boylston St, Boston, MA, 02215", "city": "Boston", "state": "MA", "type": "Higher Ed", "vertical": "Education", "sqft": 41014.0, "opex": 6906.30935, "valuation": 0.0, "carbon": 13.27097947, "eui": 31.65688302, "image": "BOS_102917_streetview.jpg", "lat": 42.3454207, "lon": -71.0957779}, {"id": "DC_5482872", "address": "1000 U St NW, Washington, DC, 20001", "city": "Washington", "state": "DC", "type": "Retail/Consumer Services", "vertical": "Commercial", "sqft": 83104.0, "opex": 5904.357277, "valuation": 107351.95049090908, "carbon": 10.21519557, "eui": 22.70087875, "image": "DC_5482872_Serpapi.jpg", "lat": 38.91670778, "lon": -77.02629713}, {"id": "SJ_785", "address": "5407 Camden Ave, San Jose, CA, 95124", "city": "San Jose", "state": "CA", "type": "Retail/Consumer Services", "vertical": "Commercial", "sqft": 25215.0, "opex": 5510.002286, "valuation": 91833.37143333332, "carbon": 1.395340421, "eui": 21.6000371, "image": "SJ_785_Flickr.jpg", "lat": 37.2399519, "lon": -121.9055877}, {"id": "NYC_3074590065", "address": "1400 Sheepshead Bay Rd, New York, NY, 11235", "city": "New York", "state": "NY", "type": "Retail/Consumer Services", "vertical": "Commercial", "sqft": 29460.0, "opex": 3325.588858, "valuation": 66511.77716, "carbon": 6.023778471, "eui": 31.26760014, "image": "NYC_3074590065_streetview.jpg", "lat": 40.587633, "lon": -73.955078}, {"id": "SJ_522", "address": "1097 Leigh Ave, San Jose, CA, 95126", "city": "San Jose", "state": "CA", "type": "Retail/Consumer Services", "vertical": "Commercial", "sqft": 25748.0, "opex": 2324.462409, "valuation": 38741.04015000001, "carbon": 0.96442372, "eui": 11.62653654, "image": "SJ_522_Serpapi.jpg", "lat": 37.3045322, "lon": -121.9226887}]