[{"id": "CA_27072503", "address": "315 W. 14Th St., Davis, CA, 95616", "city": "Davis", "state": "CA", "type": "PreK-12", "vertical": "Education", "sqft": 225938.0, "opex": 52696.78065, "valuation": 0.0, "carbon": 77.10627362, "eui": 32.44009773, "image": "CA_27072503_Sacramento365.jpg", "lat": 38.55717, "lon": -121.7501789}, {"id": "CA_27040140", "address": "1220 Drexel Dr., Davis, CA, 95616", "city": "Davis", "state": "CA", "type": "PreK-12", "vertical": "Education", "sqft": 85100.0, "opex": 28362.96426, "valuation": 0.0, "carbon": 50.25447398, "eui": 41.63550665, "image": "CA_27040140_Homes.jpg", "lat": 38.5558618, "lon": -121.7371956}, {"id": "CA_27227613", "address": "2121 Calaveras Ave, Davis, CA, 95616", "city": "Davis", "state": "CA", "type": "PreK-12", "vertical": "Education", "sqft": 90066.0, "opex": 25143.20052, "valuation": 0.0, "carbon": 34.67185538, "eui": 32.5768337, "image": "CA_27227613_Serpapi.jpg", "lat": 38.5509276, "lon": -121.7771763}, {"id": "CA_27054557", "address": "4000 E. Covell Blvd., Davis, CA, 95618", "city": "Davis", "state": "CA", "type": "PreK-12", "vertical": "Education", "sqft": 71759.0, "opex": 16431.60017, "valuation": 0.0, "carbon": 5.521650623, "eui": 28.13967865, "image": "CA_27054557_Homes.jpg", "lat": 38.5625713, "lon": -121.7022443}, {"id": "CA_27028547", "address": "555 E. 14Th St., Davis, CA, 95616", "city": "Davis", "state": "CA", "type": "PreK-12", "vertical": "Education", "sqft": 58759.0, "opex": 10571.55261, "valuation": 0.0, "carbon": 13.30571598, "eui": 25.08436451, "image": "CA_27028547_Northdaviselementary.jpg", "lat": 38.5569424, "lon": -121.7454153}, {"id": "CA_26961452", "address": "1221 Anderson Rd., Davis, CA, 95616", "city": "Davis", "state": "CA", "type": "PreK-12", "vertical": "Education", "sqft": 56618.0, "opex": 10427.35789, "valuation": 0.0, "carbon": 11.09476684, "eui": 23.35039814, "image": "CA_26961452_Csarchvezelementaryd.jpg", "lat": 38.5545011, "lon": -121.7593939}, {"id": "CA_26960765", "address": "1600 Birch Ln., Davis, CA, 95616", "city": "Davis", "state": "CA", "type": "PreK-12", "vertical": "Education", "sqft": 63271.0, "opex": 10196.73972, "valuation": 0.0, "carbon": 11.06704016, "eui": 21.98920121, "image": "CA_26960765_Yelp.jpg", "lat": 38.5603036, "lon": -121.7270268}, {"id": "CA_27034057", "address": "1400 E. Eighth St., Davis, CA, 95616", "city": "Davis", "state": "CA", "type": "PreK-12", "vertical": "Education", "sqft": 57228.0, "opex": 7121.068768, "valuation": 0.0, "carbon": 7.84105234, "eui": 18.25277658, "image": "CA_27034057_Www.jpg", "lat": 38.5528231, "lon": -121.7333539}, {"id": "CA_27291660", "address": "3100 Loyola Drive, Davis, CA, 95616", "city": "Davis", "state": "CA", "type": "PreK-12", "vertical": "Education", "sqft": 57781.0, "opex": 6620.730491, "valuation": 0.0, "carbon": 2.025953848, "eui": 14.18031014, "image": "CA_27291660_Fredt.jpg", "lat": 38.5581546, "lon": -121.7099714}]