[{"id": "CA_27503192", "address": "3850 E. Riverside Dr., Ontario, CA, 91761", "city": "Ontario", "state": "CA", "type": "PreK-12", "vertical": "Education", "sqft": 280600.0, "opex": 116313.6873, "valuation": 0.0, "carbon": 228.1685318, "eui": 51.48973628, "image": "CA_27503192_places.jpg", "lat": 34.0172321, "lon": -117.5692235}, {"id": "CA_16069911", "address": "4024 Durfee Avenue, El Monte, CA, 91732", "city": "El Monte", "state": "CA", "type": "PreK-12", "vertical": "Education", "sqft": 124681.0, "opex": 81935.17333, "valuation": 0.0, "carbon": 109.1660804, "eui": 61.01421768, "image": "CA_16069911_Yelp.jpg", "lat": 34.0724085, "lon": -118.0064404}, {"id": "CA_27564936", "address": "12233 Star St., El Monte, CA, 91732", "city": "El Monte", "state": "CA", "type": "PreK-12", "vertical": "Education", "sqft": 97117.0, "opex": 37660.95192, "valuation": 0.0, "carbon": 56.4339221, "eui": 42.41817207, "image": "CA_27564936_Homes.jpg", "lat": 34.0824221, "lon": -118.0033753}, {"id": "CA_27564904", "address": "11317 E. Mcgirk Rd., El Monte, CA, 91732", "city": "El Monte", "state": "CA", "type": "PreK-12", "vertical": "Education", "sqft": 51610.0, "opex": 20582.71369, "valuation": 0.0, "carbon": 34.93351796, "eui": 46.60474524, "image": "CA_27564904_streetview.jpg", "lat": 34.085403, "lon": -118.022532}, {"id": "CA_27468362", "address": "850 N. Del Norte, Ontario, CA, 91761", "city": "Ontario", "state": "CA", "type": "PreK-12", "vertical": "Education", "sqft": 52138.0, "opex": 11768.31901, "valuation": 0.0, "carbon": 7.001026729, "eui": 25.20621221, "image": "CA_27468362_Homes.jpg", "lat": 34.0740659, "lon": -117.6239105}, {"id": "CA_27474379", "address": "1845 S. Sultana Ave., Ontario, CA, 91761", "city": "Ontario", "state": "CA", "type": "PreK-12", "vertical": "Education", "sqft": 50847.0, "opex": 9850.333818, "valuation": 0.0, "carbon": 5.314891503, "eui": 23.85266926, "image": "CA_27474379_Homes.jpg", "lat": 34.0404612, "lon": -117.6447105}, {"id": "CA_27468355", "address": "1450 S. Sultana, Ontario, CA, 91761", "city": "Ontario", "state": "CA", "type": "PreK-12", "vertical": "Education", "sqft": 57313.0, "opex": 8931.600031, "valuation": 0.0, "carbon": 4.621465511, "eui": 20.00877504, "image": "CA_27468355_Homes.jpg", "lat": 34.0476182, "lon": -117.6464638}]