[{"id": "CA_6545013", "address": "751 East Spring Street, Signal Hill, CA, 90755", "city": "Signal Hill", "state": "CA", "type": "Retail/Consumer Services", "vertical": "Commercial", "sqft": 115058.0, "opex": 150604.9866, "valuation": 2409679.7856, "carbon": 283.8226549, "eui": 158.4473122, "image": "CA_6545013_streetview.jpg", "lat": 33.8134508, "lon": -118.1844787}, {"id": "CA_6554072", "address": "2750 Crow Canyon Road, San Ramon, CA, 94583", "city": "San Ramon", "state": "CA", "type": "Retail/Consumer Services", "vertical": "Commercial", "sqft": 103430.0, "opex": 111116.2921, "valuation": 1777860.6736, "carbon": 283.7604831, "eui": 170.7553234, "image": "CA_6554072_streetview.jpg", "lat": 37.7757403, "lon": -121.9844563}, {"id": "CA_6568815", "address": "225 Soscol Avenue, Napa, CA, 94559", "city": "Napa", "state": "CA", "type": "Retail/Consumer Services", "vertical": "Commercial", "sqft": 102267.0, "opex": 100751.8888, "valuation": 1612030.2208, "carbon": 230.4218047, "eui": 148.9325013, "image": "CA_6568815_streetview.jpg", "lat": 38.2844283, "lon": -122.2772629}, {"id": "CA_6570157", "address": "12322 Washington Boulevard, Whittier, CA, 90606", "city": "Whittier", "state": "CA", "type": "Retail/Consumer Services", "vertical": "Commercial", "sqft": 111775.0, "opex": 100078.228, "valuation": 1601251.648, "carbon": 234.608162, "eui": 141.7979599, "image": "CA_6570157_Serpapi.jpg", "lat": 33.9649867, "lon": -118.0495291}, {"id": "CA_6568800", "address": "5800 Lincoln Avenue, Buena Park, CA, 90620", "city": "Buena Park", "state": "CA", "type": "Retail/Consumer Services", "vertical": "Commercial", "sqft": 105700.0, "opex": 99294.85689, "valuation": 1588717.71024, "carbon": 239.5727286, "eui": 152.3816978, "image": "CA_6568800_streetview.jpg", "lat": 33.8305401, "lon": -118.0308677}, {"id": "CA_6568749", "address": "2707 South Towne Avenue, Pomona, CA, 91766", "city": "Pomona", "state": "CA", "type": "Retail/Consumer Services", "vertical": "Commercial", "sqft": 105700.0, "opex": 88191.99932, "valuation": 1411071.98912, "carbon": 227.5296594, "eui": 143.1648572, "image": "CA_6568749_Serpapi.jpg", "lat": 34.0223911, "lon": -117.7416348}, {"id": "CA_6432172", "address": "350 North Orchard Avenue, Ukiah, CA, 95482", "city": "Ukiah", "state": "CA", "type": "Retail/Consumer Services", "vertical": "Commercial", "sqft": 91728.0, "opex": 43203.84324, "valuation": 691261.49184, "carbon": 34.66205115, "eui": 49.65437539, "image": "CA_6432172_streetview.jpg", "lat": 39.1542944, "lon": -123.2006978}, {"id": "CA_6406662", "address": "255 Town Center Parkway, Santee, CA, 92071", "city": "Santee", "state": "CA", "type": "Retail/Consumer Services", "vertical": "Commercial", "sqft": 98280.0, "opex": 34679.50747, "valuation": 554872.11952, "carbon": 20.38642407, "eui": 39.06841208, "image": "CA_6406662_Flickr.jpg", "lat": 32.8405333, "lon": -116.9846903}, {"id": "CA_6348429", "address": "11939 San Pablo Avenue, El Cerrito, CA, 94530", "city": "El Cerrito", "state": "CA", "type": "Retail/Consumer Services", "vertical": "Commercial", "sqft": 100000.0, "opex": 25949.60994, "valuation": 415193.75904, "carbon": 19.8977936, "eui": 37.0188628, "image": "CA_6348429_streetview.jpg", "lat": 37.929831, "lon": -122.3229751}]