[{"id": "BOS_102417", "address": "600R Huntington Ave, Boston, MA, 02115", "city": "Boston", "state": "MA", "type": "Office", "vertical": "Commercial", "sqft": 1147269.0, "opex": 1303955.439, "valuation": 18627934.84285714, "carbon": 367.9744308, "eui": 69.73850649, "image": "BOS_102417_Serpapi.jpg", "lat": 42.3365639, "lon": -71.0978509}, {"id": "BOS_102393", "address": "250-300 New Rutherford Ave, Boston, MA, 02129", "city": "Boston", "state": "MA", "type": "Office", "vertical": "Commercial", "sqft": 487235.0, "opex": 553224.6313, "valuation": 7903209.018571428, "carbon": 752.2041197, "eui": 74.55840385, "image": "BOS_102393_Serpapi.jpg", "lat": 42.3743388, "lon": -71.0693692}, {"id": "BOS_102398", "address": "185 Kneeland St, Boston, MA, 02111", "city": "Boston", "state": "MA", "type": "Office", "vertical": "Commercial", "sqft": 104000.0, "opex": 305116.469, "valuation": 4358806.699999999, "carbon": 192.1895126, "eui": 108.4234394, "image": "BOS_102398_Taylorburnsarchitect.jpg", "lat": 42.3487909, "lon": -71.057904}, {"id": "BOS_102423", "address": "669-675 Albany St, Boston, MA, 02118", "city": "Boston", "state": "MA", "type": "Hospital/Clinic", "vertical": "Healthcare", "sqft": 295000.0, "opex": 302051.8881, "valuation": 0.0, "carbon": 639.3053444, "eui": 148.4453749, "image": "BOS_102423_Serpapi.jpg", "lat": 42.3358993, "lon": -71.0708465}, {"id": "BOS_102395", "address": "25-125 Staniford St, Boston, MA, 02114", "city": "Boston", "state": "MA", "type": "Medical Office/Lab", "vertical": "Healthcare", "sqft": 225875.0, "opex": 253154.4543, "valuation": 3375392.7240000004, "carbon": 432.3370756, "eui": 115.1179945, "image": "BOS_102395_Oxfordproperties.jpg", "lat": 42.3628817, "lon": -71.0627422}, {"id": "BOS_102470", "address": "24 Beacon St, Boston, MA, 02133", "city": "Boston", "state": "MA", "type": "Office", "vertical": "Commercial", "sqft": 650000.0, "opex": 116949.4276, "valuation": 0.0, "carbon": 213.1622787, "eui": 51.96047123, "image": "BOS_102470_places.jpg", "lat": 42.3587596, "lon": -71.063803}, {"id": "BOS_102416", "address": "307-375 South St, Boston, MA, 02130", "city": "Boston", "state": "MA", "type": "Medical Office/Lab", "vertical": "Healthcare", "sqft": 211308.0, "opex": 107913.4807, "valuation": 0.0, "carbon": 144.5591517, "eui": 240.5254742, "image": "BOS_102416_Serpapi.jpg", "lat": 42.300686, "lon": -71.118022}, {"id": "BOS_107913", "address": "TREMONT ST, Boston, MA, 02120", "city": "Boston", "state": "MA", "type": "Entertainment Venue", "vertical": "Commercial", "sqft": 130030.0, "opex": 93119.42508, "valuation": 1241592.3344, "carbon": 104.8490154, "eui": 61.5931585, "image": "BOS_107913_streetview.jpg", "lat": 42.3332755, "lon": -71.0918112}, {"id": "BOS_102472", "address": "85 Turtle Pond Pkwy, Boston, MA, 02136", "city": "Boston", "state": "MA", "type": "Entertainment Venue", "vertical": "Commercial", "sqft": 45000.0, "opex": 89083.89197, "valuation": 1228743.3375172417, "carbon": 22.60532124, "eui": 118.8123933, "image": "BOS_102472_TripAdvisor.jpg", "lat": 42.2492848, "lon": -71.1377331}, {"id": "BOS_102397", "address": "561 Commercial St, Boston, MA, 02109", "city": "Boston", "state": "MA", "type": "Entertainment Venue", "vertical": "Commercial", "sqft": 40800.0, "opex": 80489.85676, "valuation": 1110204.9208275862, "carbon": 108.887517, "eui": 176.5868309, "image": "BOS_102397_Flickr.jpg", "lat": 42.368311, "lon": -71.0571529}, {"id": "BOS_102414", "address": "425 Harvard St, Boston, MA, 02124", "city": "Boston", "state": "MA", "type": "Office", "vertical": "Commercial", "sqft": 44000.0, "opex": 74720.76685, "valuation": 1067439.5264285714, "carbon": 99.93388631, "eui": 113.9104864, "image": "BOS_102414_streetview.jpg", "lat": 42.2931338, "lon": -71.0917909}, {"id": "BOS_102407", "address": "180 Morton St, Boston, MA, 02124", "city": "Boston", "state": "MA", "type": "Hospital/Clinic", "vertical": "Healthcare", "sqft": 610424.0, "opex": 73296.4138, "valuation": 0.0, "carbon": 133.920104, "eui": 136.8964849, "image": "BOS_102407_streetview.jpg", "lat": 42.3003994, "lon": -71.1029198}, {"id": "BOS_102420", "address": "85 Washington St, Boston, MA, 02129", "city": "Boston", "state": "MA", "type": "Entertainment Venue", "vertical": "Commercial", "sqft": 30000.0, "opex": 72349.15054, "valuation": 997919.3177931036, "carbon": 53.82201383, "eui": 140.0592, "image": "BOS_102420_GooglePlaces.jpg", "lat": 42.3741286, "lon": -71.0664005}, {"id": "BOS_102413", "address": "210 William T Morrissey Blvd, Boston, MA, 02125", "city": "Boston", "state": "MA", "type": "Library/Museum", "vertical": "Education", "sqft": 57188.0, "opex": 32391.77631, "valuation": 0.0, "carbon": 35.27838285, "eui": 78.96185563, "image": "BOS_102413_Serpapi.jpg", "lat": 42.3157577, "lon": -71.0348739}, {"id": "BOS_102415", "address": "70 Victory Rd, Boston, MA, 02122", "city": "Boston", "state": "MA", "type": "Entertainment Venue", "vertical": "Commercial", "sqft": 27354.0, "opex": 14471.24944, "valuation": 192949.99253333337, "carbon": 18.52627045, "eui": 58.77294728, "image": "BOS_102415_Serpapi.jpg", "lat": 42.2966681, "lon": -71.0530653}, {"id": "BOS_107905", "address": "Albany ST, Boston, MA, 02119", "city": "Boston", "state": "MA", "type": "Medical Office/Lab", "vertical": "Healthcare", "sqft": 27750.0, "opex": 11627.59711, "valuation": 0.0, "carbon": 11.45261482, "eui": 191.0784865, "image": "BOS_107905_Serpapi.jpg", "lat": 42.3317921, "lon": -71.0760275}, {"id": "BOS_102474", "address": "1271-1375 VFW Pkwy, Boston, MA, 02132", "city": "Boston", "state": "MA", "type": "Entertainment Venue", "vertical": "Commercial", "sqft": 34000.0, "opex": 5627.959356, "valuation": 77627.02560000001, "carbon": 20.59365776, "eui": 61.67778529, "image": "BOS_102474_Serpapi.jpg", "lat": 42.276228, "lon": -71.174952}]