[{"id": "NYC_1012850021", "address": "437 Madison Ave, New York, NY 10022", "city": "New York", "state": "NY", "type": "Office", "vertical": "Commercial", "sqft": 800694.0, "opex": 952263.8289, "valuation": 13603768.984285712, "carbon": 2775.450933, "eui": 110.5628881, "image": "NYC_1012850021_AWS.jpg", "lat": 40.75714, "lon": -73.9753561}, {"id": "DEN_2599", "address": "1575 Welton Street, Denver, CO, 80202", "city": "Denver", "state": "CO", "type": "Office", "vertical": "Commercial", "sqft": 58848.0, "opex": 512095.2565, "valuation": 6401190.70625, "carbon": 182.8952538, "eui": 125.7960288, "image": "DEN_2599_streetview.jpg", "lat": 39.7444102, "lon": -104.9916741}, {"id": "NYC_1000330001", "address": "77 Water St, New York, NY 10005", "city": "New York", "state": "NY", "type": "Office", "vertical": "Commercial", "sqft": 546882.0, "opex": 400126.7235, "valuation": 5716096.05, "carbon": 709.2793529, "eui": 79.27565014, "image": "NYC_1000330001_AWS.jpg", "lat": 40.704281, "lon": -74.0082994}, {"id": "NYC_1013220001", "address": "777 3 Ave, New York, NY 10017", "city": "New York", "state": "NY", "type": "Office", "vertical": "Commercial", "sqft": 539082.0, "opex": 394885.6333, "valuation": 5641223.332857142, "carbon": 716.1643551, "eui": 76.37379545, "image": "NYC_1013220001_AWS.jpg", "lat": 40.7546905, "lon": -73.9711154}, {"id": "NYC_1013200046", "address": "747 3 Ave, New York, NY 10017", "city": "New York", "state": "NY", "type": "Office", "vertical": "Commercial", "sqft": 417356.0, "opex": 308923.3548, "valuation": 4413190.782857142, "carbon": 201.1350901, "eui": 58.58995462, "image": "NYC_1013200046_AWS.jpg", "lat": 40.7534846, "lon": -73.9720523}, {"id": "NYC_1013210047", "address": "767 3 Ave, New York, NY 10017", "city": "New York", "state": "NY", "type": "Office", "vertical": "Commercial", "sqft": 281892.0, "opex": 135700.2563, "valuation": 1938575.09, "carbon": 250.6412508, "eui": 65.03749769, "image": "NYC_1013210047_AWS.jpg", "lat": 40.7541811, "lon": -73.9713866}, {"id": "NYC_1006270043", "address": "2 Gansevoort St, New York, NY, 10014", "city": "New York", "state": "NY", "type": "Office", "vertical": "Commercial", "sqft": 181550.0, "opex": 63486.33996, "valuation": 906947.7137142856, "carbon": 82.40216301, "eui": 47.44689011, "image": "NYC_1006270043_AWS.jpg", "lat": 40.7392634, "lon": -74.0040922}]