[{"id": "NYC_5020400001", "address": "2800 Victory Blvd, New York, NY, 10314", "city": "New York", "state": "NY", "type": "Office", "vertical": "Commercial", "sqft": 1371091.0, "opex": 2285438.725, "valuation": 32649124.64285714, "carbon": 3293.586809, "eui": 131.3124495, "image": "NYC_5020400001_GooglePlaces.jpg", "lat": 40.608853, "lon": -74.153335}, {"id": "NYC_1019570200", "address": "160 Convent Ave, New York, NY, 10031", "city": "New York", "state": "NY", "type": "Office", "vertical": "Commercial", "sqft": 885656.0, "opex": 1910795.731, "valuation": 27297081.871428568, "carbon": 5468.783642, "eui": 272.629794, "image": "NYC_1019570200_cyclomedia.jpg", "lat": 40.819196, "lon": -73.950221}, {"id": "NYC_1000440001", "address": "28 Liberty St, New York, NY, 10005", "city": "New York", "state": "NY", "type": "Office", "vertical": "Commercial", "sqft": 2224200.0, "opex": 1873913.048, "valuation": 26770186.4, "carbon": 6547.889822, "eui": 85.22827133, "image": "NYC_1000440001_AWS.jpg", "lat": 40.7079795, "lon": -74.0089874}, {"id": "NYC_3000860018", "address": "300 Jay St, New York, NY, 11201", "city": "New York", "state": "NY", "type": "Office", "vertical": "Commercial", "sqft": 1273016.0, "opex": 1862745.648, "valuation": 26610652.11428571, "carbon": 2872.875636, "eui": 123.3347768, "image": "NYC_3000860018_TheArchitectsNewspap.jpg", "lat": 40.695563, "lon": -73.98714}, {"id": "NYC_1014030001", "address": "681 Park Ave, New York, NY, 10016", "city": "New York", "state": "NY", "type": "Office", "vertical": "Commercial", "sqft": 854879.0, "opex": 1778498.764, "valuation": 25407125.199999996, "carbon": 2236.313246, "eui": 150.0995677, "image": "NYC_1014030001_NewYorkYIMBY.jpg", "lat": 40.768635, "lon": -73.965613}, {"id": "NYC_1010870005", "address": "524 West 59Th St, New York, NY, 10019", "city": "New York", "state": "NY", "type": "Office", "vertical": "Commercial", "sqft": 1344824.0, "opex": 1658725.18, "valuation": 23696073.999999996, "carbon": 2751.872115, "eui": 79.37518478, "image": "NYC_1010870005_cyclomedia.jpg", "lat": 40.770786, "lon": -73.988512}, {"id": "NYC_2032460002", "address": "2923 Paul Ave, New York, NY, 10468", "city": "New York", "state": "NY", "type": "Office", "vertical": "Commercial", "sqft": 1165628.0, "opex": 1502923.238, "valuation": 21470331.97142857, "carbon": 2002.672722, "eui": 96.45192531, "image": "NYC_2032460002_streetview.jpg", "lat": 40.871861, "lon": -73.893559}, {"id": "NYC_4002730001", "address": "31-10 Thomson Ave, New York, NY, 11101", "city": "New York", "state": "NY", "type": "Office", "vertical": "Commercial", "sqft": 1340752.0, "opex": 1282461.788, "valuation": 18320882.68571428, "carbon": 1387.680298, "eui": 70.34249033, "image": "NYC_4002730001_CouncilonTallBuildin.jpg", "lat": 40.744902, "lon": -73.935022}, {"id": "NYC_4074900002", "address": "222-05 56Th Ave, New York, NY, 11364", "city": "New York", "state": "NY", "type": "Office", "vertical": "Commercial", "sqft": 953489.0, "opex": 1220190.679, "valuation": 17431295.414285712, "carbon": 2265.823166, "eui": 119.5348986, "image": "NYC_4074900002_NewYorkYIMBY.jpg", "lat": 40.753932, "lon": -73.756468}, {"id": "NYC_1001420050", "address": "199 Chambers St, New York, NY, 10013", "city": "New York", "state": "NY", "type": "Office", "vertical": "Commercial", "sqft": 723777.0, "opex": 1165889.173, "valuation": 16655559.614285711, "carbon": 1880.811541, "eui": 96.92466823, "image": "NYC_1001420050_BMCCCUNY.jpg", "lat": 40.716838, "lon": -74.012117}, {"id": "NYC_1008647502", "address": "365 5Th Avenue, New York, NY, 10016", "city": "New York", "state": "NY", "type": "Office", "vertical": "Commercial", "sqft": 885162.0, "opex": 1119534.521, "valuation": 15993350.299999995, "carbon": 1425.115689, "eui": 73.30781156, "image": "NYC_1008647502_GooglePlaces.jpg", "lat": 40.748822, "lon": -73.984268}, {"id": "NYC_3001280001", "address": "300 Jay St, New York, NY, 11201", "city": "New York", "state": "NY", "type": "Office", "vertical": "Commercial", "sqft": 373875.0, "opex": 959485.2693, "valuation": 13706932.418571427, "carbon": 2068.20314, "eui": 271.6471604, "image": "NYC_3001280001_PerkinsEastmanPhotog.jpg", "lat": 40.695563, "lon": -73.98714}, {"id": "NYC_4002780001", "address": "31-10 Thomson Ave, New York, NY, 11101", "city": "New York", "state": "NY", "type": "Office", "vertical": "Commercial", "sqft": 282285.0, "opex": 742794.7568, "valuation": 10611353.668571427, "carbon": 848.868137, "eui": 179.1657587, "image": "NYC_4002780001_WikimediaCommons.jpg", "lat": 40.744902, "lon": -73.935022}, {"id": "NYC_1000240001", "address": "60 Broad St, New York, NY 10004", "city": "New York", "state": "NY", "type": "Office", "vertical": "Commercial", "sqft": 1072213.0, "opex": 687233.4668, "valuation": 9817620.954285717, "carbon": 1106.054022, "eui": 66.17013905, "image": "NYC_1000240001_AWS.jpg", "lat": 40.705607, "lon": -74.0115912}, {"id": "NYC_2024440001", "address": "265 East 161St St, New York, NY, 10451", "city": "New York", "state": "NY", "type": "Office", "vertical": "Commercial", "sqft": 775600.0, "opex": 539526.0711, "valuation": 7707515.3014285695, "carbon": 499.6061793, "eui": 57.31827785, "image": "NYC_2024440001_NYCgov.jpg", "lat": 40.825928, "lon": -73.919514}, {"id": "NYC_1000090001", "address": "18 Pearl St, New York, NY, 10004", "city": "New York", "state": "NY", "type": "Office", "vertical": "Commercial", "sqft": 692431.0, "opex": 469194.5908, "valuation": 6702779.868571428, "carbon": 624.959872, "eui": 67.53225347, "image": "NYC_1000090001_AWS.jpg", "lat": 40.7027645, "lon": -74.0132657}, {"id": "NYC_1013370014", "address": "323 E 44th St, New York, NY, 10017", "city": "New York", "state": "NY", "type": "Office", "vertical": "Commercial", "sqft": 600000.0, "opex": 453983.0359, "valuation": 6485471.941428571, "carbon": 742.7184314, "eui": 80.83803017, "image": "NYC_1013370014_AWS.jpg", "lat": 40.7509162, "lon": -73.9695423}, {"id": "NYC_1008780020", "address": "17 Lexington Ave, New York, NY, 10010", "city": "New York", "state": "NY", "type": "Office", "vertical": "Commercial", "sqft": 392197.0, "opex": 367748.2033, "valuation": 5253545.76142857, "carbon": 864.4361431, "eui": 103.9421724, "image": "NYC_1008780020_NewYorkYIMBY.jpg", "lat": 40.739405, "lon": -73.984808}, {"id": "NYC_1001660027", "address": "38 Baxter St, New York, NY, 10013", "city": "New York", "state": "NY", "type": "Office", "vertical": "Commercial", "sqft": 640000.0, "opex": 295572.5683, "valuation": 4222465.26142857, "carbon": 449.1663966, "eui": 50.84967766, "image": "NYC_1001660027_AWS.jpg", "lat": 40.7151735, "lon": -74.0012564}, {"id": "NYC_1012820017", "address": "11 E 46th St, New York, NY, 10017", "city": "New York", "state": "NY", "type": "Office", "vertical": "Commercial", "sqft": 821165.0, "opex": 294284.1446, "valuation": 4204059.208571428, "carbon": 297.6373651, "eui": 41.86365115, "image": "NYC_1012820017_AWS.jpg", "lat": 40.7558941, "lon": -73.977414}, {"id": "NYC_3012870048", "address": "1638 Bedford Ave, New York, NY, 11225", "city": "New York", "state": "NY", "type": "Higher Ed", "vertical": "Education", "sqft": 189156.0, "opex": 226927.9341, "valuation": 0.0, "carbon": 379.9897013, "eui": 143.0010716, "image": "NYC_3012870048_MedgarEversCollege.jpg", "lat": 40.666736, "lon": -73.956506}, {"id": "NYC_1011320001", "address": "140 W 62Nd St, New York, NY, 10023", "city": "New York", "state": "NY", "type": "Office", "vertical": "Commercial", "sqft": 168183.0, "opex": 170720.7803, "valuation": 2438868.29, "carbon": 150.5808367, "eui": 69.6417236, "image": "NYC_1011320001_SciameConstruction.jpg", "lat": 40.771711, "lon": -73.984891}, {"id": "NYC_2023460029", "address": "475 Grand Concourse, New York, NY, 10451", "city": "New York", "state": "NY", "type": "Medical Office/Lab", "vertical": "Healthcare", "sqft": 193554.0, "opex": 149423.5194, "valuation": 1992313.592, "carbon": 208.1238944, "eui": 78.13493237, "image": "NYC_2023460029_HostosCommunityColle.jpg", "lat": 40.817954, "lon": -73.927599}, {"id": "NYC_3000970002", "address": "186 Jay St, New York, NY, 11201", "city": "New York", "state": "NY", "type": "Office", "vertical": "Commercial", "sqft": 217813.0, "opex": 143334.4562, "valuation": 2047635.088571428, "carbon": 128.6532575, "eui": 54.58291837, "image": "NYC_3000970002_structural.jpg", "lat": 40.699022, "lon": -73.986909}, {"id": "NYC_5000080070", "address": "130 Stuyvesant Pl, New York, NY, 10301", "city": "New York", "state": "NY", "type": "Office", "vertical": "Commercial", "sqft": 150300.0, "opex": 124631.3419, "valuation": 1780447.7414285713, "carbon": 198.848944, "eui": 80.52174118, "image": "NYC_5000080070_NYCgov.jpg", "lat": 40.642907, "lon": -74.076889}, {"id": "NYC_1019570005", "address": "401 West 130Th Street, New York, NY, 10027", "city": "New York", "state": "NY", "type": "Office", "vertical": "Commercial", "sqft": 99300.0, "opex": 72483.78849, "valuation": 1035482.6927142856, "carbon": 253.0000878, "eui": 123.0986949, "image": "NYC_1019570005_StreetEasy.jpg", "lat": 40.814327, "lon": -73.951171}, {"id": "NYC_3001280026", "address": "55 Johnson St / Tech Pl, New York, NY, 11201", "city": "New York", "state": "NY", "type": "Office", "vertical": "Commercial", "sqft": 61657.0, "opex": 67970.06179, "valuation": 971000.8827142856, "carbon": 21.48912976, "eui": 58.07776733, "image": "NYC_3001280026_EngineeringNewsRecor.jpg", "lat": 40.6952171, "lon": -73.9883195}, {"id": "NYC_2023430032", "address": "500 Grand Concourse, New York, NY, 10451", "city": "New York", "state": "NY", "type": "Office", "vertical": "Commercial", "sqft": 135370.0, "opex": 49785.18741, "valuation": 711216.9629999999, "carbon": 410.1500149, "eui": 124.1818468, "image": "NYC_2023430032_cyclomedia.jpg", "lat": 40.818086, "lon": -73.927515}, {"id": "NYC_1013740045", "address": "28 E 60th St, New York, NY, 10022", "city": "New York", "state": "NY", "type": "Office", "vertical": "Commercial", "sqft": 134302.0, "opex": 46996.1679, "valuation": 671373.8271428571, "carbon": 68.78169932, "eui": 70.50524862, "image": "NYC_1013740045_AWS.jpg", "lat": 40.7637409, "lon": -73.9701793}, {"id": "NYC_4101030016", "address": "94-43 159Th St, New York, NY, 11433", "city": "New York", "state": "NY", "type": "Office", "vertical": "Commercial", "sqft": 49590.0, "opex": 33689.42379, "valuation": 481277.48271428567, "carbon": 19.90476553, "eui": 53.12083283, "image": "NYC_4101030016_Wikipediathefreeency.jpg", "lat": 40.701022, "lon": -73.798108}, {"id": "NYC_2040740001", "address": "1400 Willamsbridge Rd, New York, NY, 10461", "city": "New York", "state": "NY", "type": "Office", "vertical": "Commercial", "sqft": 29055.0, "opex": 6811.665424, "valuation": 97309.50605714283, "carbon": 12.63644644, "eui": 38.95818276, "image": "NYC_2040740001_cyclomedia.jpg", "lat": 40.842565, "lon": -73.843936}]