[{"id": "ORL_159038", "address": "5940 Caravan Ct, Orlando, FL 32819", "city": "Orlando", "state": "FL", "type": "Hotel", "vertical": "Commercial", "sqft": 143278.0, "opex": 68127.72222, "valuation": 851596.5277499999, "carbon": 92.2342507, "eui": 75.3, "image": "ORL_159038_Serpapi.jpg", "lat": 28.4753823, "lon": -81.4573486}, {"id": "CA_17367604", "address": "110 Vantis Drive, Aliso Viejo, CA, 92656", "city": "Aliso Viejo", "state": "CA", "type": "Hotel", "vertical": "Commercial", "sqft": 92955.0, "opex": 57386.81883, "valuation": 717335.2353749999, "carbon": 24.5932133, "eui": 72.67772024, "image": "CA_17367604_Serpapi.jpg", "lat": 33.5806172, "lon": -117.729686}, {"id": "SF_00220152023", "address": "550 North Point St, San Francisco, CA, 94133", "city": "San Francisco", "state": "CA", "type": "Hotel", "vertical": "Commercial", "sqft": 164550.0, "opex": 35773.59042, "valuation": 476981.2056, "carbon": 7.481233885, "eui": 44.28215858, "image": "SF_00220152023_streetview.jpg", "lat": 37.80670367, "lon": -122.4163429}, {"id": "ATL_429", "address": "101 Andrew Young International Blvd NW, Atlanta, GA, 30303", "city": "Atlanta", "state": "GA", "type": "Hotel", "vertical": "Commercial", "sqft": 103453.0, "opex": 35674.83945, "valuation": 396387.105, "carbon": 31.2214206, "eui": 84.9, "image": "ATL_429_streetview.jpg", "lat": 33.7601409, "lon": -84.3908932}, {"id": "PDX_1S1E03CD-1000-B1", "address": "2115 S River Pkwy, Portland, OR, 97201", "city": "Portland", "state": "OR", "type": "Hotel", "vertical": "Commercial", "sqft": 220581.298, "opex": 35542.93817, "valuation": 394921.5352222223, "carbon": 18.03061941, "eui": 53.7, "image": "", "lat": 45.50623, "lon": -122.6730638}, {"id": "ATL_428", "address": "1365 Peachtree St NE, Atlanta, GA, 30309", "city": "Atlanta", "state": "GA", "type": "Hotel", "vertical": "Commercial", "sqft": 120000.0, "opex": 31538.4026, "valuation": 350426.6955555556, "carbon": 26.66586964, "eui": 77.4, "image": "ATL_428_Marriott.jpg", "lat": 33.7921528, "lon": -84.3852105}, {"id": "CA_16866665", "address": "14068 Stowe Drive, Poway, CA, 92064", "city": "Poway", "state": "CA", "type": "Hotel", "vertical": "Commercial", "sqft": 66768.0, "opex": 30220.5068, "valuation": 377756.335, "carbon": 10.41603878, "eui": 55.01905952, "image": "CA_16866665_streetview.jpg", "lat": 32.9386344, "lon": -117.0281693}, {"id": "CA_17367624", "address": "30 Ranch Drive, Milpitas, CA, 95035", "city": "Milpitas", "state": "CA", "type": "Hotel", "vertical": "Commercial", "sqft": 83310.0, "opex": 28806.01084, "valuation": 360075.1355, "carbon": 11.55707296, "eui": 51.08641048, "image": "CA_17367624_streetview.jpg", "lat": 37.425101, "lon": -121.9230888}, {"id": "ATL_89", "address": "133 Carnegie Way NW, Atlanta, GA, 30303", "city": "Atlanta", "state": "GA", "type": "Hotel", "vertical": "Commercial", "sqft": 100526.0, "opex": 26574.829, "valuation": 295275.8777777778, "carbon": 19.71025991, "eui": 77.1, "image": "ATL_89_Tripadvisor.jpg", "lat": 33.7582688, "lon": -84.3881664}, {"id": "ORL_158010", "address": "5976 Caravan Ct, Orlando, FL 32819", "city": "Orlando", "state": "FL", "type": "Hotel", "vertical": "Commercial", "sqft": 90934.0, "opex": 25950.31253, "valuation": 324378.906625, "carbon": 32.22190248, "eui": 53.6, "image": "ORL_158010_Serpapi.jpg", "lat": 28.4750621, "lon": -81.45678}, {"id": "PDX_1N2E16-126-B1", "address": "9750 NE Cascades Pkwy, Portland, OR, 97220", "city": "Portland", "state": "OR", "type": "Hotel", "vertical": "Commercial", "sqft": 84338.48618, "opex": 24454.22559, "valuation": 271713.6176666666, "carbon": 20.91242947, "eui": 79.6, "image": "", "lat": 45.5739902, "lon": -122.562749}, {"id": "PDX_1N2E09C-1400-B4", "address": "9301 NE Cascades Pkwy, Portland, OR, 97220", "city": "Portland", "state": "OR", "type": "Hotel", "vertical": "Commercial", "sqft": 87670.30401, "opex": 21765.09394, "valuation": 241834.3771111111, "carbon": 18.82406619, "eui": 68.8, "image": "", "lat": 45.5779854, "lon": -122.5667192}, {"id": "CA_6355040", "address": "50 West Daily Drive, Camarillo, CA, 93010", "city": "Camarillo", "state": "CA", "type": "Hotel", "vertical": "Commercial", "sqft": 64436.0, "opex": 20115.89445, "valuation": 251448.680625, "carbon": 12.40299931, "eui": 62.04425731, "image": "CA_6355040_VenturaCountyStar.jpg", "lat": 34.2205094, "lon": -119.0709343}]