[{"id": "DEN_5570", "address": "1670 Broadway, Denver, CO, 80202", "city": "Denver", "state": "CO", "type": "Office", "vertical": "Commercial", "sqft": 790316.0, "opex": 3582033.658, "valuation": 44775420.724999994, "carbon": 1106.449156, "eui": 63.28550124, "image": "DEN_5570_streetview.jpg", "lat": 39.7428771, "lon": -104.9868044}, {"id": "DEN_2588", "address": "950 17Th St., Denver, CO, 80202", "city": "Denver", "state": "CO", "type": "Office", "vertical": "Commercial", "sqft": 564714.0, "opex": 2752536.6, "valuation": 34406707.5, "carbon": 891.7425477, "eui": 63.72610808, "image": "DEN_2588_Hines.jpg", "lat": 39.7478635, "lon": -104.9936574}, {"id": "SF_87220212024", "address": "1 Warriors Way, San Francisco, CA, 94158", "city": "San Francisco", "state": "CA", "type": "Entertainment Venue", "vertical": "Commercial", "sqft": 1546115.0, "opex": 2649804.512, "valuation": 35330726.82666667, "carbon": 2006.911854, "eui": 77.78475276, "image": "SF_87220212024_Wikipediathefreeency.jpg", "lat": 37.76797251, "lon": -122.3876656}, {"id": "NYC_1010027501", "address": "1251 Avenue Of The Americas, New York, NY, 10020", "city": "New York", "state": "NY", "type": "Office", "vertical": "Commercial", "sqft": 2325598.0, "opex": 2433478.296, "valuation": 34763975.657142855, "carbon": 3877.859961, "eui": 68.90431265, "image": "NYC_1010027501_Loopnet.jpg", "lat": 40.759644, "lon": -73.980627}, {"id": "NYC_1012770027", "address": "51 E 42nd St, New York, NY, 10017", "city": "New York", "state": "NY", "type": "Office", "vertical": "Commercial", "sqft": 1678135.0, "opex": 2242782.208, "valuation": 32039745.828571428, "carbon": 5389.31136, "eui": 131.597465, "image": "NYC_1012770027_AWS.jpg", "lat": 40.753253, "lon": -73.9786755}, {"id": "NYC_1009947501", "address": "1081 6th Ave, New York, NY, 10018", "city": "New York", "state": "NY", "type": "Office", "vertical": "Commercial", "sqft": 1041794.0, "opex": 2020164.011, "valuation": 28859485.871428568, "carbon": 4272.826496, "eui": 136.4645325, "image": "NYC_1009947501_AWS.jpg", "lat": 40.7549095, "lon": -73.9848504}, {"id": "NYC_1012820021", "address": "31 E 46th St, New York, NY, 10017", "city": "New York", "state": "NY", "type": "Office", "vertical": "Commercial", "sqft": 1174988.0, "opex": 1960331.063, "valuation": 28004729.47142857, "carbon": 3381.600277, "eui": 118.8812489, "image": "NYC_1012820021_AWS.jpg", "lat": 40.755447, "lon": -73.9767603}, {"id": "DC_5480773", "address": "600 Thirteenth Street, 600 13th St NW, Washington, DC 20005", "city": "Washington", "state": "DC", "type": "Office", "vertical": "Commercial", "sqft": 272214.0, "opex": 1921022.922, "valuation": 27443184.6, "carbon": 183.157611, "eui": 55.89953022, "image": "DC_5480773_streetview.jpg", "lat": 38.89784188, "lon": -77.02998}, {"id": "CA_17806276", "address": "18111 Nordhoff Street, Los Angeles, CA, 91325", "city": "Los Angeles", "state": "CA", "type": "Higher Ed", "vertical": "Education", "sqft": 5002473.0, "opex": 1816569.87, "valuation": 0.0, "carbon": 2713.713305, "eui": 53.89157621, "image": "CA_17806276_CSUN.jpg", "lat": 34.2360815, "lon": -118.5283649}, {"id": "BOS_106330", "address": "125-145 High St, Boston, MA, 02110", "city": "Boston", "state": "MA", "type": "Office", "vertical": "Commercial", "sqft": 1511250.0, "opex": 1651151.504, "valuation": 23587878.628571425, "carbon": 940.0554884, "eui": 48.69374299, "image": "BOS_106330_Serpapi.jpg", "lat": 42.355296, "lon": -71.0531051}, {"id": "PHL_165393", "address": "1500 MARKET ST, Philadelphia, PA, 19102", "city": "Philadelphia", "state": "PA", "type": "Office", "vertical": "Commercial", "sqft": 2215276.0, "opex": 1512186.994, "valuation": 18902337.425, "carbon": 974.6778575, "eui": 66.97491762, "image": "PHL_165393_Wikipediathefreeency.jpg", "lat": 39.95217654, "lon": -75.16614251}, {"id": "DEN_2581", "address": "1125 17Th Street, Denver, CO, 80202", "city": "Denver", "state": "CO", "type": "Office", "vertical": "Commercial", "sqft": 526766.0, "opex": 1449556.316, "valuation": 18119453.95, "carbon": 945.1994358, "eui": 55.58134959, "image": "DEN_2581_streetview.jpg", "lat": 39.7494036, "lon": -104.9946553}, {"id": "DC_5475187", "address": "429 Pennsylvania Ave NW, Washington, DC, 20001", "city": "Washington", "state": "DC", "type": "Office", "vertical": "Commercial", "sqft": 562187.0, "opex": 1217212.648, "valuation": 17388752.114285715, "carbon": 548.9747039, "eui": 105.9530216, "image": "DC_5475187_Davidm.jpg", "lat": 38.8957756, "lon": -77.02647862}, {"id": "CHI_101755", "address": "115 S LaSalle St, Chicago, IL, 60603", "city": "Chicago", "state": "IL", "type": "Office", "vertical": "Commercial", "sqft": 1526102.0, "opex": 1170994.189, "valuation": 14637427.3625, "carbon": 5609.701359, "eui": 98.75194574, "image": "CHI_101755_streetview.jpg", "lat": 41.88031326, "lon": -87.63191186}, {"id": "DEN_2637", "address": "410 17Th Street, Denver, CO, 80202", "city": "Denver", "state": "CO", "type": "Office", "vertical": "Commercial", "sqft": 485777.0, "opex": 1070853.452, "valuation": 13385668.15, "carbon": 572.1474148, "eui": 53.80498439, "image": "DEN_2637_streetview.jpg", "lat": 39.7441011, "lon": -104.9890707}, {"id": "DEN_5654", "address": "1401 Lawrence Street, Denver, CO, 80202", "city": "Denver", "state": "CO", "type": "Office", "vertical": "Commercial", "sqft": 354828.0, "opex": 1040942.678, "valuation": 13011783.475, "carbon": 450.6489301, "eui": 56.50441143, "image": "DEN_5654_streetview.jpg", "lat": 39.7471181, "lon": -104.9988548}, {"id": "PHL_96260", "address": "1650 Market Street, Philadelphia, PA, 19103", "city": "Philadelphia", "state": "PA", "type": "Office", "vertical": "Commercial", "sqft": 1464000.0, "opex": 816111.703, "valuation": 10201396.2875, "carbon": 507.112066, "eui": 44.3688824, "image": "PHL_96260_energystar.jpg", "lat": 39.95256027, "lon": -75.16808522}, {"id": "CA_3885205", "address": "1 Facebook Way - Mpk0020, Menlo Park, CA, 94025", "city": "Menlo Park", "state": "CA", "type": "Office", "vertical": "Commercial", "sqft": 460979.0, "opex": 804976.436, "valuation": 10733019.146666666, "carbon": 775.6914389, "eui": 77.40299942, "image": "CA_3885205_Level10construction.jpg", "lat": 37.4809986, "lon": -122.1515846}, {"id": "DC_5485201", "address": "407 6th St SW, Washington, DC 20024", "city": "Washington", "state": "DC", "type": "Office", "vertical": "Commercial", "sqft": 1582262.0, "opex": 771231.3056, "valuation": 11017590.079999998, "carbon": 898.5109339, "eui": 48.5, "image": "DC_5485201_energystar.jpg", "lat": 38.88377, "lon": -77.02017309}, {"id": "CA_11890", "address": "9645 Butterfield Way, Sacramento, CA, 95827", "city": "Sacramento", "state": "CA", "type": "Office", "vertical": "Commercial", "sqft": 1931843.0, "opex": 770134.6695, "valuation": 10268462.26, "carbon": 954.5966755, "eui": 37.2295685, "image": "CA_11890_GooglePlaces.jpg", "lat": 38.5676435, "lon": -121.3441821}, {"id": "CHI_101788", "address": "333 West Wacker Drive, Chicago, IL, 60606", "city": "Chicago", "state": "IL", "type": "Office", "vertical": "Commercial", "sqft": 1012961.0, "opex": 688193.183, "valuation": 8602414.7875, "carbon": 955.0310931, "eui": 47.65156411, "image": "CHI_101788_GooglePlaces.jpg", "lat": 41.911468, "lon": -87.633007}, {"id": "SF_37180402024", "address": "250 Howard St, San Francisco, CA, 94105", "city": "San Francisco", "state": "CA", "type": "Office", "vertical": "Commercial", "sqft": 828688.0, "opex": 682223.5912, "valuation": 9096314.549333334, "carbon": 969.0852064, "eui": 64.19023011, "image": "SF_37180402024_Hines.jpg", "lat": 37.79039844, "lon": -122.394263}, {"id": "CHI_160046", "address": "444 W Lake St, Chicago, IL, 60606", "city": "Chicago", "state": "IL", "type": "Office", "vertical": "Commercial", "sqft": 1239203.0, "opex": 562256.1481, "valuation": 7028201.851249999, "carbon": 957.292117, "eui": 43.58538973, "image": "CHI_160046_streetview.jpg", "lat": 41.757335, "lon": -87.6327}, {"id": "CHI_101934", "address": "321 North Clark, Chicago, IL, 60654", "city": "Chicago", "state": "IL", "type": "Office", "vertical": "Commercial", "sqft": 981053.0, "opex": 526653.0481, "valuation": 6583163.10125, "carbon": 707.731191, "eui": 38.88257889, "image": "CHI_101934_streetview.jpg", "lat": 41.88583, "lon": -87.639806}, {"id": "DEN_2455", "address": "1705 17Th St, Denver, CO, 80202", "city": "Denver", "state": "CO", "type": "Office", "vertical": "Commercial", "sqft": 114945.0, "opex": 499629.523, "valuation": 6245369.0375, "carbon": 162.6967996, "eui": 64.11877768, "image": "DEN_2455_streetview.jpg", "lat": 39.7537276, "lon": -104.9992022}, {"id": "DC_5485365", "address": "One Franklin Square, 1301 K St NW, Washington, DC 20005", "city": "Washington", "state": "DC", "type": "Office", "vertical": "Commercial", "sqft": 694951.0, "opex": 483564.8513, "valuation": 6908069.3042857135, "carbon": 356.3216336, "eui": 59.15854459, "image": "DC_5485365_GooglePlaces.jpg", "lat": 38.90292621, "lon": -77.03052064}, {"id": "LA_485426841221", "address": "350 S Grand Ave, Los Angeles, CA 90071", "city": "Los Angeles", "state": "CA", "type": "Office", "vertical": "Commercial", "sqft": 1194205.0, "opex": 467458.773, "valuation": 6447707.213793104, "carbon": 86.81520797, "eui": 28.09175753, "image": "LA_485426841221_Citynational2cal.jpg", "lat": 34.0508345, "lon": -118.2517838}, {"id": "NYC_1010210026", "address": "742 7th Ave, New York, NY, 10019", "city": "New York", "state": "NY", "type": "Office", "vertical": "Commercial", "sqft": 561139.0, "opex": 465005.0052, "valuation": 6642928.645714285, "carbon": 1152.435558, "eui": 73.728427, "image": "NYC_1010210026_AWS.jpg", "lat": 40.7610027, "lon": -73.9839663}, {"id": "CA_25764236", "address": "3835 Freeport Boulevard, Sacramento, CA, 95822", "city": "Sacramento", "state": "CA", "type": "Higher Ed", "vertical": "Education", "sqft": 1285120.0, "opex": 462664.7968, "valuation": 0.0, "carbon": 599.3916743, "eui": 42.33138319, "image": "CA_25764236_GooglePlaces.jpg", "lat": 38.5415791, "lon": -121.4903529}, {"id": "SF_02630112024", "address": "101 California St, San Francisco, CA, 94111", "city": "San Francisco", "state": "CA", "type": "Office", "vertical": "Commercial", "sqft": 1464955.0, "opex": 455690.7843, "valuation": 6075877.124, "carbon": 482.7600801, "eui": 30.45154802, "image": "SF_02630112024_Wikipedia.jpg", "lat": 37.79294897, "lon": -122.3980986}, {"id": "CA_35530722", "address": "6600 N Topanga Canyon Blvd, Canoga Park, CA, 91303", "city": "Los Angeles", "state": "CA", "type": "Strip/Enclosed Mall", "vertical": "Commercial", "sqft": 1588050.0, "opex": 451426.8492, "valuation": 6019024.656, "carbon": 101.3145637, "eui": 29.8477614, "image": "CA_35530722_Serpapi.jpg", "lat": 34.19107244, "lon": -118.6042239}, {"id": "CA_3884363", "address": "17 Hacker Way, Menlo Park, CA, 94025", "city": "Menlo Park", "state": "CA", "type": "Office", "vertical": "Commercial", "sqft": 174128.0, "opex": 450618.021, "valuation": 6008240.28, "carbon": 295.1920743, "eui": 101.3822516, "image": "CA_3884363_Serpapi.jpg", "lat": 37.4849936, "lon": -122.1475057}, {"id": "CHI_101862", "address": "101 North Wacker Drive, Chicago, IL, 60606", "city": "Chicago", "state": "IL", "type": "Office", "vertical": "Commercial", "sqft": 667476.0, "opex": 447487.5415, "valuation": 5593594.26875, "carbon": 839.9619776, "eui": 56.44488085, "image": "CHI_101862_Serpapi.jpg", "lat": 42.015561, "lon": -87.665081}, {"id": "NYC_1008150026", "address": "1045 6th Ave, New York, NY, 10018", "city": "New York", "state": "NY", "type": "Office", "vertical": "Commercial", "sqft": 404413.0, "opex": 436318.9161, "valuation": 6233127.372857142, "carbon": 885.2498164, "eui": 113.141834, "image": "NYC_1008150026_AWS.jpg", "lat": 40.7532563, "lon": -73.9856363}, {"id": "DC_5480350", "address": "1240 F St NW, Washington, DC 20004", "city": "Washington", "state": "DC", "type": "Office", "vertical": "Commercial", "sqft": 739341.0, "opex": 433951.7751, "valuation": 6199311.072857142, "carbon": 154.4327653, "eui": 38.306194, "image": "DC_5480350_streetview.jpg", "lat": 38.89718936, "lon": -77.02863191}, {"id": "DEN_2557", "address": "1999 Broadway, Denver, CO, 80202", "city": "Denver", "state": "CO", "type": "Office", "vertical": "Commercial", "sqft": 749865.0, "opex": 430275.4437, "valuation": 5378443.04625, "carbon": 677.897662, "eui": 47.35978196, "image": "DEN_2557_streetview.jpg", "lat": 39.7477971, "lon": -104.9877172}, {"id": "CHI_103605", "address": "515 N. State Street, Chicago, IL, 60654", "city": "Chicago", "state": "IL", "type": "Office", "vertical": "Commercial", "sqft": 757990.0, "opex": 414171.4307, "valuation": 5177142.88375, "carbon": 538.3894659, "eui": 38.56350247, "image": "CHI_103605_streetview.jpg", "lat": 41.881937, "lon": -87.629253}, {"id": "NYC_1000480001", "address": "140 Broadway, New York, NY 10005", "city": "New York", "state": "NY", "type": "Office", "vertical": "Commercial", "sqft": 1272119.0, "opex": 394502.3899, "valuation": 5635748.427142857, "carbon": 387.7819749, "eui": 42.15725864, "image": "NYC_1000480001_AWS.jpg", "lat": 40.7086943, "lon": -74.0105695}, {"id": "DEN_2597", "address": "600 17Th Street, Denver, CO, 80202", "city": "Denver", "state": "CO", "type": "Office", "vertical": "Commercial", "sqft": 675937.0, "opex": 386270.9562, "valuation": 4828386.9525, "carbon": 431.4557492, "eui": 41.11521991, "image": "DEN_2597_Hines.jpg", "lat": 39.7451302, "lon": -104.9910321}, {"id": "SEA_942000345", "address": "925 4Th Ave, Seattle, WA, 98104", "city": "Seattle", "state": "WA", "type": "Office", "vertical": "Commercial", "sqft": 888049.0, "opex": 383141.5823, "valuation": 5108554.430666667, "carbon": 8.799313282, "eui": 32.82787999, "image": "SEA_942000345_places.jpg", "lat": 47.60549, "lon": -122.33319}, {"id": "STL_257", "address": "800 Washington Ave, Philadelphia, PA, 19147", "city": "Philadelphia", "state": "PA", "type": "Hotel", "vertical": "Commercial", "sqft": 1600000.0, "opex": 379003.0345, "valuation": 3989505.6263157898, "carbon": 230.6731447, "eui": 56.8, "image": "STL_257_yelp.jpg", "lat": 39.9357644, "lon": -75.1572391}, {"id": "CA_49235093", "address": "400 Capitol Mall, Sacramento, CA, 95814", "city": "Sacramento", "state": "CA", "type": "Office", "vertical": "Commercial", "sqft": 557862.0, "opex": 371489.621, "valuation": 4953194.946666666, "carbon": 81.84466662, "eui": 31.03116169, "image": "CA_49235093_streetview.jpg", "lat": 38.5782336, "lon": -121.5026066}, {"id": "CA_1142264", "address": "525 B Street, San Diego, CA, 92101", "city": "San Diego", "state": "CA", "type": "Office", "vertical": "Commercial", "sqft": 439756.0, "opex": 370052.8978, "valuation": 4934038.6373333335, "carbon": 84.62758018, "eui": 35.59326101, "image": "CA_1142264_energystar.jpg", "lat": 32.7176355, "lon": -117.1596266}, {"id": "CA_1125706", "address": "6230 Stoneridge Mall Road, Pleasanton, CA, 94588", "city": "Pleasanton", "state": "CA", "type": "Office", "vertical": "Commercial", "sqft": 152167.0, "opex": 360375.6308, "valuation": 4805008.410666667, "carbon": 470.1547531, "eui": 130.1337419, "image": "CA_1125706_energystar.jpg", "lat": 37.6943023, "lon": -121.9212663}, {"id": "NYC_1012980023", "address": "425 Lexington Ave, New York, NY 10017", "city": "New York", "state": "NY", "type": "Office", "vertical": "Commercial", "sqft": 675086.0, "opex": 357274.6611, "valuation": 5103923.7299999995, "carbon": 808.1639728, "eui": 62.57293974, "image": "NYC_1012980023_AWS.jpg", "lat": 40.7523927, "lon": -73.9751633}, {"id": "NYC_1005980058", "address": "91 Charlton St, New York, NY, 10013", "city": "New York", "state": "NY", "type": "Office", "vertical": "Commercial", "sqft": 797477.0, "opex": 352642.974, "valuation": 5037756.771428571, "carbon": 575.0248368, "eui": 46.16142171, "image": "NYC_1005980058_AWS.jpg", "lat": 40.7277612, "lon": -74.0078946}, {"id": "NYC_1002260001", "address": "431 Canal St, New York, NY, 10013", "city": "New York", "state": "NY", "type": "Office", "vertical": "Commercial", "sqft": 1000746.0, "opex": 335294.4795, "valuation": 4789921.135714285, "carbon": 588.0346764, "eui": 48.17435963, "image": "NYC_1002260001_AWS.jpg", "lat": 40.723457, "lon": -74.006827}, {"id": "ATL_417", "address": "1380 Atlantic Dr NW, Atlanta, GA, 30363", "city": "Atlanta", "state": "GA", "type": "Mixed Use", "vertical": "Commercial", "sqft": 1184037.0, "opex": 334084.91, "valuation": 4772641.571428571, "carbon": 129.7339811, "eui": 95.3, "image": "ATL_417_streetview.jpg", "lat": 33.7926941, "lon": -84.3981306}, {"id": "DEN_5681", "address": "1144 15Th Street, Denver, CO, 80202", "city": "Denver", "state": "CO", "type": "Office", "vertical": "Commercial", "sqft": 786400.0, "opex": 326357.8925, "valuation": 4079473.65625, "carbon": 445.4483725, "eui": 37.77328967, "image": "DEN_5681_streetview.jpg", "lat": 39.7470304, "lon": -104.9972984}, {"id": "DEN_5639", "address": "1601 Wewatta, Denver, CO, 80202", "city": "Denver", "state": "CO", "type": "Office", "vertical": "Commercial", "sqft": 318874.0, "opex": 322131.6754, "valuation": 4026645.9425, "carbon": 348.8259662, "eui": 50.20924189, "image": "DEN_5639_streetview.jpg", "lat": 39.7539602, "lon": -105.0026618}, {"id": "DC_5483667", "address": "2660 Woodley Rd NW, Washington, DC 20008", "city": "Washington", "state": "DC", "type": "Hotel", "vertical": "Commercial", "sqft": 1300000.0, "opex": 319829.1567, "valuation": 4264388.756, "carbon": 197.8104745, "eui": 73.80691216, "image": "DC_5483667_streetview.jpg", "lat": 38.924717, "lon": -77.054699}, {"id": "DC_5477520", "address": "2106 M St NW, Washington, DC, 20037", "city": "Washington", "state": "DC", "type": "Office", "vertical": "Commercial", "sqft": 231233.0, "opex": 277698.4227, "valuation": 3967120.324285714, "carbon": 117.115868, "eui": 75.61613403, "image": "DC_5477520_buildingurl.jpg", "lat": 38.90488235, "lon": -77.04709806}, {"id": "SEA_1974700175", "address": "1201 2Nd Ave, Seattle, WA, 98101", "city": "Seattle", "state": "WA", "type": "Office", "vertical": "Commercial", "sqft": 734127.0, "opex": 269678.5841, "valuation": 3595714.4546666667, "carbon": 260.6203276, "eui": 41.6739229, "image": "SEA_1974700175_Hines.jpg", "lat": 47.60669, "lon": -122.337}, {"id": "SF_37080952024", "address": "560 Mission St, San Francisco, CA, 94105", "city": "San Francisco", "state": "CA", "type": "Office", "vertical": "Commercial", "sqft": 778782.0, "opex": 261014.1806, "valuation": 3480189.074666667, "carbon": 68.79943193, "eui": 29.20696802, "image": "SF_37080952024_energystar.jpg", "lat": 37.78886473, "lon": -122.3993594}, {"id": "NYC_1005067501", "address": "160-170 Varick Street, New York, NY, 10013", "city": "New York", "state": "NY", "type": "Office", "vertical": "Commercial", "sqft": 306741.0, "opex": 258717.0781, "valuation": 3695958.258571428, "carbon": 320.8664204, "eui": 74.42066532, "image": "NYC_1005067501_Metromanhattanoffice.jpg", "lat": 40.726615, "lon": -74.005617}, {"id": "SF_02070322024", "address": "600 Montgomery St, San Francisco, CA, 94111", "city": "San Francisco", "state": "CA", "type": "Office", "vertical": "Commercial", "sqft": 650189.0, "opex": 251699.9735, "valuation": 3355999.6466666665, "carbon": 422.1239512, "eui": 45.61058069, "image": "SF_02070322024_energystar.jpg", "lat": 37.79515656, "lon": -122.4027323}, {"id": "DC_5478403", "address": "1015 Half St SE, Washington, DC, 20003", "city": "Washington", "state": "DC", "type": "Office", "vertical": "Commercial", "sqft": 440937.0, "opex": 245774.3356, "valuation": 3511061.937142857, "carbon": 73.07638619, "eui": 43.25711557, "image": "DC_5478403_energystar.jpg", "lat": 38.87795235, "lon": -77.00792537}, {"id": "ATL_40", "address": "3344 Peachtree Rd NE, Atlanta, GA, 30326", "city": "Atlanta", "state": "GA", "type": "Office", "vertical": "Commercial", "sqft": 816320.0, "opex": 242557.3194, "valuation": 3031966.4925, "carbon": 170.4618694, "eui": 37.8, "image": "ATL_40_streetview.jpg", "lat": 33.8468468, "lon": -84.3693778}, {"id": "DC_5483316", "address": "1015 Half St SE, Washington, DC 20003", "city": "Washington", "state": "DC", "type": "Office", "vertical": "Commercial", "sqft": 418422.0, "opex": 239387.445, "valuation": 3419820.6428571427, "carbon": 76.43289191, "eui": 36.99352517, "image": "DC_5483316_buildingurl.jpg", "lat": 38.87795235, "lon": -77.00792537}, {"id": "SEA_694000205", "address": "2101 4Th Ave, Seattle, WA, 98121", "city": "Seattle", "state": "WA", "type": "Office", "vertical": "Commercial", "sqft": 427155.0, "opex": 211481.0531, "valuation": 2819747.3746666666, "carbon": 5.196505455, "eui": 37.34663764, "image": "SEA_694000205_Martinseligrealestat.jpg", "lat": 47.61431, "lon": -122.34244}, {"id": "ATL_172", "address": "1230 Peachtree St NE, Atlanta, GA, 30309", "city": "Atlanta", "state": "GA", "type": "Office", "vertical": "Commercial", "sqft": 899558.0, "opex": 209867.2702, "valuation": 2623340.8775, "carbon": 133.3149115, "eui": 36.7, "image": "ATL_172_Reitnotes.jpg", "lat": 33.7879505, "lon": -84.3851742}, {"id": "CA_5917222", "address": "150 East Colorado Boulevard, Pasadena, CA, 91105", "city": "Pasadena", "state": "CA", "type": "Office", "vertical": "Commercial", "sqft": 62286.0, "opex": 205119.2482, "valuation": 2734923.3093333333, "carbon": 192.174881, "eui": 176.8688994, "image": "CA_5917222_Serpapi.jpg", "lat": 34.1455457, "lon": -118.1469105}, {"id": "SF_02350222024", "address": "50 California St, San Francisco, CA, 94111", "city": "San Francisco", "state": "CA", "type": "Office", "vertical": "Commercial", "sqft": 785149.0, "opex": 181173.9503, "valuation": 2415652.6706666667, "carbon": 193.3577315, "eui": 29.1450452, "image": "SF_02350222024_streetview.jpg", "lat": 37.7940532, "lon": -122.3973477}, {"id": "DEN_5858", "address": "1681 Chestnut Place, Denver, CO, 80202", "city": "Denver", "state": "CO", "type": "Office", "vertical": "Commercial", "sqft": 479262.0, "opex": 179284.518, "valuation": 2241056.475, "carbon": 417.9354013, "eui": 43.84653154, "image": "DEN_5858_streetview.jpg", "lat": 39.7548225, "lon": -105.0028451}, {"id": "ATL_405", "address": "3438 Peachtree Rd NE, Atlanta, GA, 30326", "city": "Atlanta", "state": "GA", "type": "Office", "vertical": "Commercial", "sqft": 481246.0, "opex": 167962.4692, "valuation": 2099530.865, "carbon": 118.0388889, "eui": 44.4, "image": "ATL_405_GooglePlaces.jpg", "lat": 33.8526191, "lon": -84.3642099}, {"id": "PHL_97317", "address": "1625 Chestnut St., Philadelphia, PA, 19103", "city": "Philadelphia", "state": "PA", "type": "Strip/Enclosed Mall", "vertical": "Commercial", "sqft": 144660.0, "opex": 166111.2741, "valuation": 2214816.9880000004, "carbon": 117.4019975, "eui": 173.1730993, "image": "PHL_97317_Alamy.jpg", "lat": 39.95185031, "lon": -75.16813922}, {"id": "NYC_1008060058", "address": "128 W 31st St, New York, NY 10001", "city": "New York", "state": "NY", "type": "Office", "vertical": "Commercial", "sqft": 384655.0, "opex": 164864.7904, "valuation": 2355211.291428571, "carbon": 361.5094712, "eui": 62.48571655, "image": "NYC_1008060058_AWS.jpg", "lat": 40.7482747, "lon": -73.9907169}, {"id": "NYC_1013130004", "address": "100 E 59th St, New York, NY, 10022", "city": "New York", "state": "NY", "type": "Office", "vertical": "Commercial", "sqft": 278921.0, "opex": 159852.8053, "valuation": 2283611.504285714, "carbon": 182.7814271, "eui": 59.39159188, "image": "NYC_1013130004_AWS.jpg", "lat": 40.7624801, "lon": -73.969562}, {"id": "DC_5486056", "address": "1200 19th St NW, Washington, DC 20036", "city": "Washington", "state": "DC", "type": "Office", "vertical": "Commercial", "sqft": 354926.0, "opex": 155799.3723, "valuation": 2225705.3185714283, "carbon": 164.564025, "eui": 44.8037851, "image": "DC_5486056_buildingurl.jpg", "lat": 38.90610705, "lon": -77.04386876}, {"id": "CA_12437126", "address": "1000 Town Center Drive, Oxnard, CA, 93036", "city": "Oxnard", "state": "CA", "type": "Office", "vertical": "Commercial", "sqft": 115439.0, "opex": 154102.9336, "valuation": 2054705.781333333, "carbon": 190.0392015, "eui": 79.67405729, "image": "CA_12437126_streetview.jpg", "lat": 34.243193, "lon": -119.1820447}, {"id": "CA_3884352", "address": "12 Hacker Way, Menlo Park, CA, 94025", "city": "Menlo Park", "state": "CA", "type": "Office", "vertical": "Commercial", "sqft": 142975.0, "opex": 153795.9418, "valuation": 2050612.5573333337, "carbon": 107.2122463, "eui": 53.15941337, "image": "CA_3884352_Businessinsider.jpg", "lat": 37.4851694, "lon": -122.1483319}, {"id": "CHI_101839", "address": "120 South Riverside Plaza, Chicago, IL, 60606", "city": "Chicago", "state": "IL", "type": "Office", "vertical": "Commercial", "sqft": 787045.0, "opex": 149557.7868, "valuation": 1869472.335, "carbon": 597.7706247, "eui": 38.49678345, "image": "CHI_101839_streetview.jpg", "lat": 41.874325, "lon": -87.665142}, {"id": "DC_5475293", "address": "1100 New York Ave NW, Washington, DC 20005", "city": "Washington", "state": "DC", "type": "Office", "vertical": "Commercial", "sqft": 561341.0, "opex": 148403.9378, "valuation": 2120056.254285714, "carbon": 90.96549033, "eui": 33.32166111, "image": "DC_5475293_energystar.jpg", "lat": 38.9006693, "lon": -77.0274437}, {"id": "CA_3884354", "address": "14 Hacker Way, Menlo Park, CA, 94025", "city": "Menlo Park", "state": "CA", "type": "Office", "vertical": "Commercial", "sqft": 143268.0, "opex": 147954.2803, "valuation": 1972723.7373333336, "carbon": 103.4450425, "eui": 51.45663861, "image": "CA_3884354_Serpapi.jpg", "lat": 37.4852189, "lon": -122.1487685}, {"id": "NYC_1012820034", "address": "59 E 46th St, New York, NY, 10017", "city": "New York", "state": "NY", "type": "Office", "vertical": "Commercial", "sqft": 519783.0, "opex": 146533.3866, "valuation": 2093334.094285714, "carbon": 107.1380852, "eui": 57.80582685, "image": "NYC_1012820034_AWS.jpg", "lat": 40.7551433, "lon": -73.9759763}, {"id": "PDX_Campus-31", "address": "111 SW Columbia St, Portland, OR, 97201", "city": "Portland", "state": "OR", "type": "Office", "vertical": "Commercial", "sqft": 339732.9282, "opex": 145085.6953, "valuation": 1706890.5329411763, "carbon": 144.5554077, "eui": 40.1, "image": "", "lat": 45.5134899, "lon": -122.6765631}, {"id": "CA_1408812", "address": "4120 Dublin Boulevard, Dublin, CA, 94568", "city": "Dublin", "state": "CA", "type": "Office", "vertical": "Commercial", "sqft": 146898.0, "opex": 142958.031, "valuation": 1906107.08, "carbon": 96.43874, "eui": 60.99932292, "image": "CA_1408812_streetview.jpg", "lat": 37.7037183, "lon": -121.8736055}, {"id": "CA_8240", "address": "6210 Stoneridge Mall Road, Pleasanton, CA, 94588", "city": "Pleasanton", "state": "CA", "type": "Office", "vertical": "Commercial", "sqft": 152167.0, "opex": 139671.7517, "valuation": 1862290.022666667, "carbon": 150.8414405, "eui": 69.45472816, "image": "CA_8240_streetview.jpg", "lat": 37.6952398, "lon": -121.9241111}, {"id": "DC_5492036", "address": "1210 Half St SE, Washington, DC 20003", "city": "Washington", "state": "DC", "type": "Office", "vertical": "Commercial", "sqft": 269974.0, "opex": 131210.7962, "valuation": 1874439.9457142856, "carbon": 39.9732713, "eui": 36.81167765, "image": "DC_5492036_energystar.jpg", "lat": 38.87598703, "lon": -77.00721122}, {"id": "DC_5476780", "address": "1305 G St NW, Washington, DC 20005", "city": "Washington", "state": "DC", "type": "Retail/Consumer Services", "vertical": "Commercial", "sqft": 280267.0, "opex": 129798.9281, "valuation": 2359980.5109090907, "carbon": 47.73079405, "eui": 41.23674096, "image": "DC_5476780_energystar.jpg", "lat": 38.89855378, "lon": -77.02999921}, {"id": "NYC_1006020068", "address": "435 Hudson St, New York, NY 10014", "city": "New York", "state": "NY", "type": "Office", "vertical": "Commercial", "sqft": 245330.0, "opex": 128716.9024, "valuation": 1838812.8914285712, "carbon": 225.0518873, "eui": 68.36203481, "image": "NYC_1006020068_AWS.jpg", "lat": 40.7306514, "lon": -74.0071517}, {"id": "NYC_1005810063", "address": "225 Varick St, New York, NY 10014", "city": "New York", "state": "NY", "type": "Office", "vertical": "Commercial", "sqft": 299592.0, "opex": 121316.4439, "valuation": 1733092.0557142857, "carbon": 213.671297, "eui": 61.78739052, "image": "NYC_1005810063_AWS.jpg", "lat": 40.7290919, "lon": -74.0054522}, {"id": "DC_5495969", "address": "55 M St SE, Washington, DC, 20003", "city": "Washington", "state": "DC", "type": "Office", "vertical": "Commercial", "sqft": 295059.0, "opex": 121025.6707, "valuation": 1728938.1528571427, "carbon": 86.53862401, "eui": 46.7214616, "image": "DC_5495969_buildingurl.jpg", "lat": 38.87627832, "lon": -77.00682398}, {"id": "NYC_1002250008", "address": "472 Canal St, New York, NY, 10013", "city": "New York", "state": "NY", "type": "Office", "vertical": "Commercial", "sqft": 321641.0, "opex": 120343.3744, "valuation": 1719191.0628571426, "carbon": 228.3171127, "eui": 55.72752106, "image": "NYC_1002250008_AWS.jpg", "lat": 40.7236336, "lon": -74.008458}, {"id": "CA_13054033", "address": "17877 Von Karman Ave, Irvine, CA, 92614", "city": "Irvine", "state": "CA", "type": "Office", "vertical": "Commercial", "sqft": 162456.0, "opex": 115169.8352, "valuation": 1535597.8026666667, "carbon": 39.32471593, "eui": 37.28799119, "image": "CA_13054033_energystar.jpg", "lat": 33.6855538, "lon": -117.848085}, {"id": "NYC_1004760007", "address": "100 6th Ave, New York, NY, 10013", "city": "New York", "state": "NY", "type": "Office", "vertical": "Commercial", "sqft": 303214.0, "opex": 115038.7662, "valuation": 1643410.9457142856, "carbon": 204.2803124, "eui": 63.49153403, "image": "NYC_1004760007_AWS.jpg", "lat": 40.7233382, "lon": -74.0044125}, {"id": "NYC_1006010052", "address": "110 Leroy Street, New York, NY, 10014", "city": "New York", "state": "NY", "type": "Office", "vertical": "Commercial", "sqft": 75000.0, "opex": 113586.791, "valuation": 1622668.4428571428, "carbon": 79.82246089, "eui": 92.85805733, "image": "NYC_1006010052_cyclomedia.jpg", "lat": 40.730268, "lon": -74.007393}, {"id": "CA_5199", "address": "650 Page Mill Road, Palo Alto, CA, 94304", "city": "Palo Alto", "state": "CA", "type": "Office", "vertical": "Commercial", "sqft": 184142.0, "opex": 112928.5024, "valuation": 1505713.3653333334, "carbon": 92.58507025, "eui": 46.50315331, "image": "CA_5199_streetview.jpg", "lat": 37.4213401, "lon": -122.145066}, {"id": "SF_37210892024", "address": "101 2Nd St, San Francisco, CA, 94105", "city": "San Francisco", "state": "CA", "type": "Office", "vertical": "Commercial", "sqft": 458438.0, "opex": 107912.3431, "valuation": 1438831.2413333333, "carbon": 27.1807397, "eui": 21.46640861, "image": "SF_37210892024_energystar.jpg", "lat": 37.78807978, "lon": -122.3991443}, {"id": "CA_15974316", "address": "2998 Douglas Boulevard, Roseville, CA, 95661", "city": "Roseville", "state": "CA", "type": "Office", "vertical": "Commercial", "sqft": 110056.0, "opex": 100565.5159, "valuation": 1340873.5453333333, "carbon": 97.16332052, "eui": 58.97220615, "image": "CA_15974316_streetview.jpg", "lat": 38.7435129, "lon": -121.2367925}, {"id": "CA_3385518", "address": "3421 Hillview Avenue, Palo Alto, CA, 94304", "city": "Palo Alto", "state": "CA", "type": "Office", "vertical": "Commercial", "sqft": 91739.0, "opex": 98620.72875, "valuation": 1314943.05, "carbon": 79.28989436, "eui": 58.46984004, "image": "CA_3385518_streetview.jpg", "lat": 37.3993591, "lon": -122.1435134}, {"id": "NYC_1012890052", "address": "527 Madison Ave, New York, NY 10022", "city": "New York", "state": "NY", "type": "Office", "vertical": "Commercial", "sqft": 197948.0, "opex": 91965.3246, "valuation": 1313790.3514285714, "carbon": 60.37546722, "eui": 51.69175137, "image": "NYC_1012890052_AWS.jpg", "lat": 40.7600589, "lon": -73.9734802}, {"id": "CA_3884358", "address": "16 Hacker Way, Menlo Park, CA, 94025", "city": "Menlo Park", "state": "CA", "type": "Office", "vertical": "Commercial", "sqft": 176029.0, "opex": 90651.28819, "valuation": 1208683.8425333337, "carbon": 64.39240605, "eui": 36.56270785, "image": "CA_3884358_mapillary.jpg", "lat": 37.4855134, "lon": -122.1481757}, {"id": "CA_56127393", "address": "1833 Alton Parkway, Irvine, CA, 92606", "city": "Irvine", "state": "CA", "type": "Office", "vertical": "Commercial", "sqft": 129263.0, "opex": 88219.43644, "valuation": 1176259.1525333335, "carbon": 31.28039795, "eui": 36.53453993, "image": "CA_56127393_streetview.jpg", "lat": 33.6977685, "lon": -117.8439582}, {"id": "NYC_1010190055", "address": "234 West 48Th Street, New York, NY, 10036", "city": "New York", "state": "NY", "type": "Hotel", "vertical": "Commercial", "sqft": 117102.0, "opex": 86253.48386, "valuation": 1232192.6265714285, "carbon": 82.25196816, "eui": 113.1832727, "image": "NYC_1010190055_cyclomedia.jpg", "lat": 40.760454, "lon": -73.985655}, {"id": "CA_6122310", "address": "220 Jefferson Dr, Menlo Park, CA, 94025", "city": "Menlo Park", "state": "CA", "type": "Office", "vertical": "Commercial", "sqft": 132952.0, "opex": 86071.21071, "valuation": 1147616.1428, "carbon": 46.07107978, "eui": 41.61023078, "image": "CA_6122310_Serpapi.jpg", "lat": 37.481421, "lon": -122.168838}, {"id": "DC_5472963", "address": "950 New York Ave NW, Washington, DC, 20001", "city": "Washington", "state": "DC", "type": "Hotel", "vertical": "Commercial", "sqft": 518978.0, "opex": 82379.69829, "valuation": 1098395.9772, "carbon": 27.61177474, "eui": 53.28389423, "image": "DC_5472963_buildingurl.jpg", "lat": 38.901443, "lon": -77.025404}, {"id": "NYC_1002210030", "address": "200 Hudson St, New York, NY 10013", "city": "New York", "state": "NY", "type": "Office", "vertical": "Commercial", "sqft": 328415.0, "opex": 78802.75773, "valuation": 1125753.6818571428, "carbon": 47.06760196, "eui": 52.72597537, "image": "NYC_1002210030_AWS.jpg", "lat": 40.7233891, "lon": -74.0081462}, {"id": "CA_39908092", "address": "1065 Link, Anaheim, CA, 92806", "city": "Anaheim", "state": "CA", "type": "Office", "vertical": "Commercial", "sqft": 95273.0, "opex": 78028.51212, "valuation": 1040380.1616, "carbon": 110.5912973, "eui": 61.38311754, "image": "CA_39908092_streetview.jpg", "lat": 33.853658, "lon": -117.839688}, {"id": "LA_381693886870", "address": "21281 W Burbank Blvd, Los Angeles, CA, 91367", "city": "Los Angeles", "state": "CA", "type": "Office", "vertical": "Commercial", "sqft": 184989.0, "opex": 77817.56088, "valuation": 1073345.667310345, "carbon": 15.16376895, "eui": 25.3, "image": "LA_381693886870_Commercialcafe.jpg", "lat": 34.172524, "lon": -118.6446436}, {"id": "NYC_1004910046", "address": "151 6th Ave, New York, NY, 10013", "city": "New York", "state": "NY", "type": "Office", "vertical": "Commercial", "sqft": 182655.0, "opex": 76436.22832, "valuation": 1091946.1188571427, "carbon": 139.476339, "eui": 60.7920473, "image": "NYC_1004910046_AWS.jpg", "lat": 40.7253648, "lon": -74.0049094}, {"id": "CA_3884190", "address": "10 Hacker Way, Menlo Park, CA, 94025", "city": "Menlo Park", "state": "CA", "type": "Office", "vertical": "Commercial", "sqft": 113425.0, "opex": 75019.86263, "valuation": 1000264.8350666668, "carbon": 56.06095481, "eui": 48.18576063, "image": "CA_3884190_streetview.jpg", "lat": 37.4835791, "lon": -122.1500939}, {"id": "CA_8239", "address": "6200 Stoneridge Mall Road, Pleasanton, CA, 94588", "city": "Pleasanton", "state": "CA", "type": "Office", "vertical": "Commercial", "sqft": 152167.0, "opex": 74100.53353, "valuation": 988007.1137333334, "carbon": 67.34254983, "eui": 39.45427938, "image": "CA_8239_streetview.jpg", "lat": 37.6958805, "lon": -121.9245177}, {"id": "CA_7136691", "address": "2750 Womble Road, San Diego, CA, 92106", "city": "San Diego", "state": "CA", "type": "Office", "vertical": "Commercial", "sqft": 63684.0, "opex": 70300.63736, "valuation": 937341.8314666668, "carbon": 37.28260298, "eui": 49.08385372, "image": "CA_7136691_Serpapi.jpg", "lat": 32.7348846, "lon": -117.2157076}, {"id": "CA_6392309", "address": "17875 Von Karman Ave, Irvine, CA, 92614", "city": "Irvine", "state": "CA", "type": "Office", "vertical": "Commercial", "sqft": 125390.0, "opex": 70101.63811, "valuation": 934688.5081333334, "carbon": 23.93618955, "eui": 31.07849649, "image": "CA_6392309_GooglePlaces.jpg", "lat": 33.686282, "lon": -117.8472948}, {"id": "LA_427272837756", "address": "1950 Sawtelle Blvd, Los Angeles, CA 90025", "city": "Los Angeles", "state": "CA", "type": "Office", "vertical": "Commercial", "sqft": 110832.0, "opex": 68844.95073, "valuation": 949585.5273103449, "carbon": 16.35131765, "eui": 33.0, "image": "LA_427272837756_EnergyStar.jpg", "lat": 34.0412578, "lon": -118.4437584}, {"id": "CHI_160229", "address": "110 N Wacker Drive, Chicago, IL 60606", "city": "Chicago", "state": "IL", "type": "Office", "vertical": "Commercial", "sqft": 221383.0, "opex": 67214.69318, "valuation": 840183.66475, "carbon": 204.6860406, "eui": 51.84010787, "image": "CHI_160229_streetview.jpg", "lat": 41.88376557, "lon": -87.63742034}, {"id": "NYC_1012890045", "address": "60 E. 54Th St., New York, NY, 10022", "city": "New York", "state": "NY", "type": "Hotel", "vertical": "Commercial", "sqft": 65452.0, "opex": 65826.73174, "valuation": 940381.882, "carbon": 41.96891965, "eui": 146.0942019, "image": "NYC_1012890045_cyclomedia.jpg", "lat": 40.760098, "lon": -73.973158}, {"id": "NYC_1005970055", "address": "333 Hudson St, New York, NY 10013", "city": "New York", "state": "NY", "type": "Office", "vertical": "Commercial", "sqft": 101280.0, "opex": 64331.78763, "valuation": 919025.5375714283, "carbon": 161.682375, "eui": 100.0736582, "image": "NYC_1005970055_AWS.jpg", "lat": 40.7271647, "lon": -74.0076274}, {"id": "CA_1408809", "address": "4140 Dublin Boulevard, Dublin, CA, 94568", "city": "Dublin", "state": "CA", "type": "Office", "vertical": "Commercial", "sqft": 146267.0, "opex": 63011.27077, "valuation": 840150.2769333334, "carbon": 45.86677294, "eui": 32.8495093, "image": "CA_1408809_streetview.jpg", "lat": 37.7025703, "lon": -121.8750511}, {"id": "NYC_1010127502", "address": "570 7th Ave, New York, NY, 10018", "city": "New York", "state": "NY", "type": "Office", "vertical": "Commercial", "sqft": 150338.0, "opex": 62469.01639, "valuation": 892414.5198571427, "carbon": 68.90071957, "eui": 63.35690311, "image": "NYC_1010127502_AWS.jpg", "lat": 40.7600359, "lon": -73.9818507}, {"id": "NYC_1008220031", "address": "154 5 Ave, New York, NY 10118", "city": "New York", "state": "NY", "type": "Office", "vertical": "Commercial", "sqft": 159009.0, "opex": 60825.25711, "valuation": 868932.2444285713, "carbon": 70.29286182, "eui": 61.13305851, "image": "NYC_1008220031_AWS.jpg", "lat": 40.7399202, "lon": -73.9912954}, {"id": "SEA_942000275", "address": "1000 4Th Ave, Seattle, WA, 98104", "city": "Seattle", "state": "WA", "type": "Library/Museum", "vertical": "Education", "sqft": 355000.0, "opex": 56806.99493, "valuation": 0.0, "carbon": 97.57839891, "eui": 38.92450423, "image": "SEA_942000275_Hines.jpg", "lat": 47.60649, "lon": -122.33297}, {"id": "CA_1408814", "address": "4160 Dublin Boulevard, Dublin, CA, 94568", "city": "Dublin", "state": "CA", "type": "Office", "vertical": "Commercial", "sqft": 147113.0, "opex": 55815.81817, "valuation": 744210.9089333334, "carbon": 54.88445102, "eui": 34.28413403, "image": "CA_1408814_streetview.jpg", "lat": 37.7036854, "lon": -121.8752063}, {"id": "CA_1223122", "address": "21281 Burbank Boulevard, Los Angeles, CA, 91367", "city": "Los Angeles", "state": "CA", "type": "Office", "vertical": "Commercial", "sqft": 184989.0, "opex": 55445.92289, "valuation": 739278.9718666667, "carbon": 9.67961135, "eui": 21.3066984, "image": "CA_1223122_Serpapi.jpg", "lat": 34.1757155, "lon": -118.5950387}, {"id": "CA_6165638", "address": "17838 Gillette Avenue, Irvine, CA, 92614", "city": "Irvine", "state": "CA", "type": "Office", "vertical": "Commercial", "sqft": 58619.0, "opex": 53052.93604, "valuation": 707372.4805333334, "carbon": 34.94151404, "eui": 55.6852652, "image": "CA_6165638_streetview.jpg", "lat": 33.6867086, "lon": -117.8486344}, {"id": "CA_6052888", "address": "17360 Brookhurst Street, Fountain Valley, CA, 92708", "city": "Fountain Valley", "state": "CA", "type": "Office", "vertical": "Commercial", "sqft": 102942.0, "opex": 50909.07008, "valuation": 678787.6010666667, "carbon": 15.04423588, "eui": 33.3079345, "image": "CA_6052888_streetview.jpg", "lat": 33.7121162, "lon": -117.952542}, {"id": "ATL_57", "address": "1420 Peachtree St NE, Atlanta, GA, 30309", "city": "Atlanta", "state": "GA", "type": "Office", "vertical": "Commercial", "sqft": 201847.0, "opex": 49281.40405, "valuation": 616017.5506249999, "carbon": 33.30217602, "eui": 34.2, "image": "ATL_57_EnergyStar.jpg", "lat": 33.7932426, "lon": -84.3874311}, {"id": "CA_8241", "address": "6220 Stoneridge Mall Road, Pleasanton, CA, 94588", "city": "Pleasanton", "state": "CA", "type": "Office", "vertical": "Commercial", "sqft": 152167.0, "opex": 48026.77831, "valuation": 640357.0441333334, "carbon": 48.47922293, "eui": 28.97522808, "image": "CA_8241_streetview.jpg", "lat": 37.6954878, "lon": -121.9217997}, {"id": "CA_26639129", "address": "751 East Daily Drive, Camarillo, CA, 93010", "city": "Camarillo", "state": "CA", "type": "Office", "vertical": "Commercial", "sqft": 82754.0, "opex": 47699.87122, "valuation": 635998.2829333334, "carbon": 68.52924282, "eui": 53.65591988, "image": "CA_26639129_streetview.jpg", "lat": 34.2194059, "lon": -119.0591767}, {"id": "CA_6799023", "address": "2800 28Th Street, Santa Monica, CA, 90405", "city": "Santa Monica", "state": "CA", "type": "Gym", "vertical": "Commercial", "sqft": 111003.0, "opex": 47163.2789, "valuation": 628843.7186666667, "carbon": 56.78304013, "eui": 46.91760334, "image": "CA_6799023_streetview.jpg", "lat": 34.016627, "lon": -118.4548811}, {"id": "CA_6455910", "address": "400 R Street, Sacramento, CA, 95811", "city": "Sacramento", "state": "CA", "type": "Office", "vertical": "Commercial", "sqft": 223440.0, "opex": 41769.73145, "valuation": 556929.7526666666, "carbon": 34.3745789, "eui": 22.74360082, "image": "CA_6455910_Serpapi.jpg", "lat": 38.57312, "lon": -121.5049712}, {"id": "LA_422051878235", "address": "15060 Ventura Blvd, Los Angeles, CA, 91403", "city": "Los Angeles", "state": "CA", "type": "Office", "vertical": "Commercial", "sqft": 55632.0, "opex": 41205.64757, "valuation": 568353.759586207, "carbon": 10.49809929, "eui": 37.04061691, "image": "LA_422051878235_streetview.jpg", "lat": 34.1525905, "lon": -118.4614106}, {"id": "NYC_1005980042", "address": "111 Charlton St, New York, NY, 10014", "city": "New York", "state": "NY", "type": "Office", "vertical": "Commercial", "sqft": 266467.0, "opex": 39983.50336, "valuation": 571192.9051428571, "carbon": 18.57010802, "eui": 15.02893754, "image": "NYC_1005980042_AWS.jpg", "lat": 40.7277621, "lon": -74.0084797}, {"id": "CA_1469129", "address": "3721 Douglas Boulevard, Roseville, CA, 95661", "city": "Roseville", "state": "CA", "type": "Office", "vertical": "Commercial", "sqft": 94265.0, "opex": 38966.68459, "valuation": 519555.79453333333, "carbon": 31.99736871, "eui": 42.53752517, "image": "CA_1469129_streetview.jpg", "lat": 38.7453661, "lon": -121.2305318}, {"id": "CA_1469125", "address": "3741 Douglas Boulevard, Roseville, CA, 95661", "city": "Roseville", "state": "CA", "type": "Office", "vertical": "Commercial", "sqft": 93343.0, "opex": 38775.98901, "valuation": 517013.1868, "carbon": 30.54832217, "eui": 39.55678302, "image": "CA_1469125_energystar.jpg", "lat": 38.7463779, "lon": -121.2301705}, {"id": "NYC_1008440042", "address": "91 5 Ave, New York, NY 10003", "city": "New York", "state": "NY", "type": "Office", "vertical": "Commercial", "sqft": 51838.0, "opex": 35622.50419, "valuation": 508892.917, "carbon": 66.35755761, "eui": 87.90664956, "image": "NYC_1008440042_AWS.jpg", "lat": 40.7375772, "lon": -73.9919627}, {"id": "SF_0261010A2024", "address": "351 California St, San Francisco, CA, 94104", "city": "San Francisco", "state": "CA", "type": "Office", "vertical": "Commercial", "sqft": 155025.0, "opex": 34873.63132, "valuation": 464981.75093333336, "carbon": 48.66243354, "eui": 29.54338954, "image": "SF_0261010A2024_streetview.jpg", "lat": 37.79287076, "lon": -122.4007475}, {"id": "CA_6867523", "address": "3400 Douglas Boulevard, Roseville, CA, 95661", "city": "Roseville", "state": "CA", "type": "Office", "vertical": "Commercial", "sqft": 71789.0, "opex": 34638.27066, "valuation": 461843.6088000001, "carbon": 7.055119345, "eui": 26.00696343, "image": "CA_6867523_streetview.jpg", "lat": 38.743018, "lon": -121.2319629}, {"id": "CA_7136706", "address": "2280 Historic Decatur Road, San Diego, CA, 92106", "city": "San Diego", "state": "CA", "type": "Office", "vertical": "Commercial", "sqft": 50568.0, "opex": 33964.42016, "valuation": 452858.9354666667, "carbon": 18.42448787, "eui": 32.94762648, "image": "CA_7136706_streetview.jpg", "lat": 32.7341831, "lon": -117.2173755}, {"id": "DC_5480884", "address": "1050 17th St NW, Washington, DC 20036", "city": "Washington", "state": "DC", "type": "Office", "vertical": "Commercial", "sqft": 175681.0, "opex": 33096.59054, "valuation": 472808.4362857142, "carbon": 22.25943878, "eui": 26.03912609, "image": "DC_5480884_streetview.jpg", "lat": 38.90336326, "lon": -77.03882636}, {"id": "SF_02610052024", "address": "216 Pine St, San Francisco, CA, 94104", "city": "San Francisco", "state": "CA", "type": "Office", "vertical": "Commercial", "sqft": 45000.0, "opex": 30216.75419, "valuation": 402890.05586666666, "carbon": 59.18175249, "eui": 83.9270582, "image": "SF_02610052024_streetview.jpg", "lat": 37.7923668, "lon": -122.4001483}, {"id": "CA_6173822", "address": "162 Jefferson Drive, Menlo Park, CA, 94025", "city": "Menlo Park", "state": "CA", "type": "Office", "vertical": "Commercial", "sqft": 135307.0, "opex": 29965.69497, "valuation": 399542.5996, "carbon": 11.58406652, "eui": 13.60190013, "image": "CA_6173822_streetview.jpg", "lat": 37.4801243, "lon": -122.1722989}, {"id": "CA_56133692", "address": "1733 Alton Parkway, Irvine, CA, 92606", "city": "Irvine", "state": "CA", "type": "Office", "vertical": "Commercial", "sqft": 80088.0, "opex": 29151.87865, "valuation": 388691.71533333336, "carbon": 8.614726965, "eui": 27.71596339, "image": "CA_56133692_Loopnet.jpg", "lat": 33.6982784, "lon": -117.8447882}, {"id": "NYC_1007890040", "address": "552 7Th Ave, New York, NY, 10018", "city": "New York", "state": "NY", "type": "Office", "vertical": "Commercial", "sqft": 30528.0, "opex": 28970.9252, "valuation": 413870.36, "carbon": 16.81721278, "eui": 58.17750262, "image": "NYC_1007890040_cyclomedia.jpg", "lat": 40.754515, "lon": -73.988071}, {"id": "NYC_1012900028", "address": "59 East 54Th Street, New York, NY, 10022", "city": "New York", "state": "NY", "type": "Office", "vertical": "Commercial", "sqft": 44150.0, "opex": 27885.99216, "valuation": 398371.31657142856, "carbon": 41.28446857, "eui": 68.42494451, "image": "NYC_1012900028_cyclomedia.jpg", "lat": 40.76009, "lon": -73.9731}, {"id": "CA_36106115", "address": "2868 Prospect Park Drive, Rancho Cordova, CA, 95670", "city": "Rancho Cordova", "state": "CA", "type": "Office", "vertical": "Commercial", "sqft": 164278.0, "opex": 27154.17337, "valuation": 362055.6449333334, "carbon": 30.75535713, "eui": 22.6444135, "image": "CA_36106115_streetview.jpg", "lat": 38.5924946, "lon": -121.2823959}, {"id": "CA_1219380", "address": "21271 Burbank Boulevard, Los Angeles, CA, 91367", "city": "Los Angeles", "state": "CA", "type": "Office", "vertical": "Commercial", "sqft": 184989.0, "opex": 23986.28878, "valuation": 319817.1837333333, "carbon": 4.674041911, "eui": 7.387650076, "image": "CA_1219380_energystar.jpg", "lat": 34.1750961, "lon": -118.5944406}, {"id": "LA_381936886628", "address": "21271 W Burbank Blvd, Los Angeles, CA, 91367", "city": "Los Angeles", "state": "CA", "type": "Office", "vertical": "Commercial", "sqft": 184989.0, "opex": 22760.86761, "valuation": 313943.0015172414, "carbon": 4.435252577, "eui": 7.4, "image": "LA_381936886628_Commercialcafe.jpg", "lat": 34.172524, "lon": -118.6446436}, {"id": "LA_439145842080", "address": "9911 W Pico Blvd, Los Angeles, CA 90035", "city": "Los Angeles", "state": "CA", "type": "Office", "vertical": "Commercial", "sqft": 245394.0, "opex": 22626.07279, "valuation": 312083.76262068964, "carbon": 4.885632905, "eui": 5.986579541, "image": "LA_439145842080_Serpapi.jpg", "lat": 34.0534368, "lon": -118.4046509}, {"id": "NYC_1013110020", "address": "139 East 56Th Street, New York, NY, 10022", "city": "New York", "state": "NY", "type": "Residential Care Facility", "vertical": "Healthcare", "sqft": 135689.0, "opex": 18857.96017, "valuation": 0.0, "carbon": 22.70830438, "eui": 70.34250676, "image": "NYC_1013110020_cyclomedia.jpg", "lat": 40.760158, "lon": -73.969382}, {"id": "CA_6392338", "address": "17872 Gillette Avenue, Irvine, CA, 92614", "city": "Irvine", "state": "CA", "type": "Office", "vertical": "Commercial", "sqft": 87120.0, "opex": 17773.58088, "valuation": 236981.07840000003, "carbon": 14.76796693, "eui": 22.46994077, "image": "CA_6392338_streetview.jpg", "lat": 33.6859032, "lon": -117.8486344}, {"id": "SF_02600022024", "address": "233 Sansome St, San Francisco, CA, 94104", "city": "San Francisco", "state": "CA", "type": "Office", "vertical": "Commercial", "sqft": 53743.0, "opex": 16495.26684, "valuation": 219936.8912, "carbon": 39.26462323, "eui": 47.19372266, "image": "SF_02600022024_mapillary.jpg", "lat": 37.79260942, "lon": -122.4013149}, {"id": "NYC_1002200031", "address": "174 Hudson Street, New York, NY, 10013", "city": "New York", "state": "NY", "type": "Office", "vertical": "Commercial", "sqft": 51750.0, "opex": 14985.28478, "valuation": 214075.49685714283, "carbon": 19.73630222, "eui": 45.10339517, "image": "NYC_1002200031_streetview.jpg", "lat": 40.722374, "lon": -74.00815}, {"id": "NYC_1004917502", "address": "145 6 Avenue, New York, NY, 10013", "city": "New York", "state": "NY", "type": "Office", "vertical": "Commercial", "sqft": 61152.0, "opex": 13085.0404, "valuation": 186929.14857142855, "carbon": 24.57692283, "eui": 41.35632686, "image": "NYC_1004917502_Serpapi.jpg", "lat": 40.724971, "lon": -74.004477}, {"id": "NYC_1008320053", "address": "12 West 31 Street, New York, NY, 10001", "city": "New York", "state": "NY", "type": "Office", "vertical": "Commercial", "sqft": 27400.0, "opex": 12154.72685, "valuation": 173638.95499999996, "carbon": 10.17437582, "eui": 53.02882482, "image": "NYC_1008320053_cyclomedia.jpg", "lat": 40.746838, "lon": -73.986683}, {"id": "ATL_285", "address": "1230 W Peachtree St NW, Atlanta, GA, 30309", "city": "Atlanta", "state": "GA", "type": "Mixed Use", "vertical": "Commercial", "sqft": 66070.0, "opex": 11616.04189, "valuation": 165943.45557142855, "carbon": 4.667713335, "eui": 64.6, "image": "ATL_285_streetview.jpg", "lat": 33.7881153, "lon": -84.3882485}, {"id": "CA_6052890", "address": "17330 Brookhurst Street, Fountain Valley, CA, 92708", "city": "Fountain Valley", "state": "CA", "type": "Office", "vertical": "Commercial", "sqft": 100000.0, "opex": 10351.87261, "valuation": 138024.96813333334, "carbon": 3.532605419, "eui": 8.816748, "image": "CA_6052890_GooglePlaces.jpg", "lat": 33.71195, "lon": -117.9535487}, {"id": "SEA_2738100010", "address": "5701 6Th Ave S, Seattle, WA, 98108", "city": "Seattle", "state": "WA", "type": "Strip/Enclosed Mall", "vertical": "Commercial", "sqft": 156188.0, "opex": 3771.80789, "valuation": 50290.77186666667, "carbon": 6.798502763, "eui": 8.47043947, "image": "SEA_2738100010_EnergyStar.jpg", "lat": 47.55146, "lon": -122.32832}]