[{"id": "NYC_4017870020", "address": "41 Seaver Way, New York, NY, 11368", "city": "New York", "state": "NY", "type": "Entertainment Venue", "vertical": "Commercial", "sqft": 1241443.0, "opex": 2755997.049, "valuation": 36746627.32, "carbon": 1942.812921, "eui": 92.71009777, "image": "NYC_4017870020_streetview.jpg", "lat": 40.758072, "lon": -73.844628}, {"id": "NYC_1013087502", "address": "101 E 53rd St, New York, NY, 10022", "city": "New York", "state": "NY", "type": "Office", "vertical": "Commercial", "sqft": 1526121.0, "opex": 1177786.38, "valuation": 16825519.714285713, "carbon": 782.4172787, "eui": 82.32424369, "image": "NYC_1013087502_AWS.jpg", "lat": 40.758582, "lon": -73.9701792}, {"id": "NYC_1013087501", "address": "139 E 53rd St, Brooklyn, NY 11203", "city": "Brooklyn", "state": "NY", "type": "Office", "vertical": "Commercial", "sqft": 1654020.0, "opex": 746282.6397, "valuation": 10661180.567142855, "carbon": 1464.502599, "eui": 78.67590162, "image": "NYC_1013087501_AWS.jpg", "lat": 40.7526335, "lon": -73.9878958}, {"id": "LA_433123837872", "address": "10680 W Pico Blvd, Los Angeles, CA, 90064", "city": "Los Angeles", "state": "CA", "type": "Office", "vertical": "Commercial", "sqft": 32000.0, "opex": 98877.48095, "valuation": 1363827.323448276, "carbon": 27.32511791, "eui": 154.7, "image": "LA_433123837872_streetview.jpg", "lat": 34.041766, "lon": -118.4242968}, {"id": "BOS_102965", "address": "25-55 Court St, Boston, MA, 02108", "city": "Boston", "state": "MA", "type": "Retail/Consumer Services", "vertical": "Commercial", "sqft": 49591.0, "opex": 37559.30422, "valuation": 577835.4495384615, "carbon": 52.48774654, "eui": 99.47922405, "image": "BOS_102965_Serpapi.jpg", "lat": 42.3593088, "lon": -71.0588515}, {"id": "CA_9292", "address": "501 Santa Monica Boulevard, Santa Monica, CA, 90401", "city": "Santa Monica", "state": "CA", "type": "Office", "vertical": "Commercial", "sqft": 78509.0, "opex": 28746.43936, "valuation": 383285.8581333333, "carbon": 40.76467938, "eui": 48.13407044, "image": "CA_9292_energystar.jpg", "lat": 34.0175344, "lon": -118.4942902}, {"id": "LA_393701891307", "address": "19355 Victory Blvd, Los Angeles, CA, 91335", "city": "Los Angeles", "state": "CA", "type": "Retail/Consumer Services", "vertical": "Commercial", "sqft": 26866.0, "opex": 20396.52879, "valuation": 354722.23982608697, "carbon": 5.170075979, "eui": 96.7, "image": "LA_393701891307_streetview.jpg", "lat": 34.1881934, "lon": -118.5553963}, {"id": "NYC_2031740005", "address": "29-39 East Fordham Rd., New York, NY, 10468", "city": "New York", "state": "NY", "type": "Retail/Consumer Services", "vertical": "Commercial", "sqft": 74282.0, "opex": 17300.23231, "valuation": 346004.64619999996, "carbon": 28.79082525, "eui": 41.59710159, "image": "NYC_2031740005_streetview.jpg", "lat": 40.862337, "lon": -73.899908}, {"id": "NYC_3066420045", "address": "1001 Quentin Rd, New York, NY, 11223", "city": "New York", "state": "NY", "type": "Retail/Consumer Services", "vertical": "Commercial", "sqft": 27000.0, "opex": 17007.90903, "valuation": 261660.13892307688, "carbon": 10.33410796, "eui": 77.43710741, "image": "NYC_3066420045_streetview.jpg", "lat": 40.607755, "lon": -73.962822}, {"id": "DC_5481593", "address": "3224 16th St NW, Washington, DC 20010", "city": "Washington", "state": "DC", "type": "Retail/Consumer Services", "vertical": "Commercial", "sqft": 48000.0, "opex": 7686.4493, "valuation": 118253.06615384616, "carbon": 9.418698316, "eui": 38.93109044, "image": "DC_5481593_streetview.jpg", "lat": 38.93149974, "lon": -77.03703984}]