[{"id": "NYC_1013070001", "address": "375 Park Ave, New York, NY 10152", "city": "New York", "state": "NY", "type": "Office", "vertical": "Commercial", "sqft": 824906.0, "opex": 848301.124, "valuation": 12118587.485714285, "carbon": 2270.739169, "eui": 100.5695271, "image": "NYC_1013070001_AWS.jpg", "lat": 40.7585212, "lon": -73.9724896}, {"id": "NYC_1000090029", "address": "24 State St, New York, NY 10004", "city": "New York", "state": "NY", "type": "Office", "vertical": "Commercial", "sqft": 835356.0, "opex": 738408.3239, "valuation": 10548690.34142857, "carbon": 1228.299508, "eui": 87.05600642, "image": "NYC_1000090029_AWS.jpg", "lat": 40.7034516, "lon": -74.0141291}, {"id": "NYC_1012750069", "address": "471 5th Ave, Brooklyn, NY 11215", "city": "Brooklyn", "state": "NY", "type": "Office", "vertical": "Commercial", "sqft": 260000.0, "opex": 625922.4802, "valuation": 8941749.717142856, "carbon": 1305.65927, "eui": 213.8342504, "image": "NYC_1012750069_AWS.jpg", "lat": 40.7524722, "lon": -73.9811408}, {"id": "NYC_1012597502", "address": "522 Fifth Avenue, New York, NY, 10036", "city": "New York", "state": "NY", "type": "Office", "vertical": "Commercial", "sqft": 541827.0, "opex": 418030.3132, "valuation": 5971861.617142856, "carbon": 510.351712, "eui": 54.52837935, "image": "NYC_1012597502_Cushman.jpg", "lat": 40.754514, "lon": -73.980145}, {"id": "NYC_1008237506", "address": "162 5Th Avenue, New York, NY, 10010", "city": "New York", "state": "NY", "type": "Office", "vertical": "Commercial", "sqft": 135000.0, "opex": 251642.4627, "valuation": 3594892.324285714, "carbon": 195.9893161, "eui": 104.032977, "image": "NYC_1008237506_GooglePlaces.jpg", "lat": 40.740358, "lon": -73.990459}, {"id": "NYC_1000090014", "address": "17 State St, New York, NY 10004", "city": "New York", "state": "NY", "type": "Office", "vertical": "Commercial", "sqft": 575860.0, "opex": 235322.8004, "valuation": 3361754.291428571, "carbon": 336.9577262, "eui": 52.56601587, "image": "NYC_1000090014_AWS.jpg", "lat": 40.7028885, "lon": -74.0138771}, {"id": "NYC_1000937501", "address": "156 William Street, New York, NY, 10038", "city": "New York", "state": "NY", "type": "Medical Office/Lab", "vertical": "Healthcare", "sqft": 247929.0, "opex": 158765.0795, "valuation": 2116867.7266666666, "carbon": 123.4742883, "eui": 53.35762174, "image": "NYC_1000937501_Rudderpropertygroup.jpg", "lat": 40.709944, "lon": -74.006045}, {"id": "NYC_1010180006", "address": "235 West 46Th Street, New York, NY, 10036", "city": "New York", "state": "NY", "type": "Hotel", "vertical": "Commercial", "sqft": 221700.0, "opex": 145790.778, "valuation": 2082725.3999999997, "carbon": 153.3122034, "eui": 105.8389648, "image": "NYC_1010180006_Flickr.jpg", "lat": 40.759132, "lon": -73.986348}, {"id": "NYC_3000630001", "address": "55 Prospect Street, New York, NY, 11201", "city": "New York", "state": "NY", "type": "Office", "vertical": "Commercial", "sqft": 254356.0, "opex": 119010.8379, "valuation": 1700154.827142857, "carbon": 138.4830002, "eui": 45.7166668, "image": "NYC_3000630001_cyclomedia.jpg", "lat": 40.700704, "lon": -73.988463}, {"id": "NYC_3000760001", "address": "117 Adams Street, New York, NY, 11201", "city": "New York", "state": "NY", "type": "Office", "vertical": "Commercial", "sqft": 183297.0, "opex": 98420.9199, "valuation": 1406013.1414285712, "carbon": 119.9780233, "eui": 53.53825213, "image": "NYC_3000760001_streetview.jpg", "lat": 40.700633, "lon": -73.988661}, {"id": "NYC_3000770001", "address": "77 Sands Street, New York, NY, 11201", "city": "New York", "state": "NY", "type": "Office", "vertical": "Commercial", "sqft": 224016.0, "opex": 90185.22604, "valuation": 1288360.3719999995, "carbon": 108.1243359, "eui": 42.18059514, "image": "NYC_3000770001_cyclomedia.jpg", "lat": 40.700092, "lon": -73.987529}, {"id": "NYC_1013910014", "address": "974 Madison Ave, New York, NY 10075", "city": "New York", "state": "NY", "type": "Strip/Enclosed Mall", "vertical": "Commercial", "sqft": 118635.0, "opex": 87628.46861, "valuation": 1168379.581466667, "carbon": 158.3039006, "eui": 104.4386362, "image": "NYC_1013910014_AWS.jpg", "lat": 40.774782, "lon": -73.963475}, {"id": "NYC_1006030028", "address": "117 Barrow St, New York, NY, 10014", "city": "New York", "state": "NY", "type": "Office", "vertical": "Commercial", "sqft": 154328.0, "opex": 84148.09951, "valuation": 1202115.707285714, "carbon": 93.3020686, "eui": 84.14400757, "image": "NYC_1006030028_AWS.jpg", "lat": 40.7314635, "lon": -74.0085745}, {"id": "NYC_1008770018", "address": "2 Lexington Avenue, New York, NY, 10010", "city": "New York", "state": "NY", "type": "Hotel", "vertical": "Commercial", "sqft": 200000.0, "opex": 77034.80319, "valuation": 1100497.1884285714, "carbon": 22.39928124, "eui": 68.4400695, "image": "NYC_1008770018_cyclomedia.jpg", "lat": 40.738315, "lon": -73.985616}, {"id": "NYC_1008227507", "address": "160 5th Ave, New York, NY, 10010", "city": "New York", "state": "NY", "type": "Office", "vertical": "Commercial", "sqft": 214027.0, "opex": 64789.58722, "valuation": 925565.5317142856, "carbon": 38.81836128, "eui": 48.82723675, "image": "NYC_1008227507_AWS.jpg", "lat": 40.740231, "lon": -73.990942}, {"id": "NYC_1012870021", "address": "477 Madison Ave, New York, NY 10022", "city": "New York", "state": "NY", "type": "Office", "vertical": "Commercial", "sqft": 262297.0, "opex": 59258.35328, "valuation": 846547.904, "carbon": 73.0543517, "eui": 34.56562294, "image": "NYC_1012870021_AWS.jpg", "lat": 40.758558, "lon": -73.9746236}, {"id": "NYC_1006460027", "address": "428 W 14th St, New York, NY 10014", "city": "New York", "state": "NY", "type": "Office", "vertical": "Commercial", "sqft": 53658.0, "opex": 50571.34626, "valuation": 722447.8037142856, "carbon": 33.50240778, "eui": 75.41283499, "image": "NYC_1006460027_AWS.jpg", "lat": 40.7304603, "lon": -73.9811192}, {"id": "NYC_1004827504", "address": "194 Lafayette St, New York, NY, 10012", "city": "New York", "state": "NY", "type": "Office", "vertical": "Commercial", "sqft": 81696.0, "opex": 47388.91429, "valuation": 676984.4898571428, "carbon": 73.56235973, "eui": 77.18385723, "image": "NYC_1004827504_AWS.jpg", "lat": 40.7213859, "lon": -73.9982481}, {"id": "NYC_1008490002", "address": "137 5Th Avenue, New York, NY, 10010", "city": "New York", "state": "NY", "type": "Office", "vertical": "Commercial", "sqft": 40003.0, "opex": 13722.04174, "valuation": 196029.1677142857, "carbon": 18.93258452, "eui": 45.47121966, "image": "NYC_1008490002_streetview.jpg", "lat": 40.739828, "lon": -73.990823}, {"id": "NYC_1006457501", "address": "837 Washington St, New York, NY, 10014", "city": "New York", "state": "NY", "type": "Office", "vertical": "Commercial", "sqft": 55497.0, "opex": 4921.424656, "valuation": 70306.0665142857, "carbon": 20.74770125, "eui": 34.56218715, "image": "NYC_1006457501_streetview.jpg", "lat": 40.740454, "lon": -74.007816}]