[{"id": "DC_5494809", "address": "3270 M St NW, Washington, DC 20007", "city": "Washington", "state": "DC", "type": "Office", "vertical": "Commercial", "sqft": 251442.0, "opex": 1302074.181, "valuation": 18601059.72857143, "carbon": 465.3260347, "eui": 128.5635412, "image": "DC_5494809_buildingurl.jpg", "lat": 38.90495278, "lon": -77.0647889}, {"id": "DC_5479708", "address": "3040 M St NW, Washington, DC, 20007", "city": "Washington", "state": "DC", "type": "Office", "vertical": "Commercial", "sqft": 42850.0, "opex": 144407.6243, "valuation": 2062966.0614285711, "carbon": 0.966454006, "eui": 5.374095085, "image": "DC_5479708_buildingurl.jpg", "lat": 38.90494706, "lon": -77.06043049}, {"id": "DC_5472736", "address": "1060 Brentwood Rd NE, Washington, DC, 20018", "city": "Washington", "state": "DC", "type": "Retail/Consumer Services", "vertical": "Commercial", "sqft": 57529.0, "opex": 126447.1645, "valuation": 2299039.3545454545, "carbon": 65.24214497, "eui": 94.56764578, "image": "DC_5472736_streetview.jpg", "lat": 38.91977531, "lon": -76.99287256}, {"id": "DC_5482247", "address": "3222 M St NW, Washington, DC 20007", "city": "Washington", "state": "DC", "type": "Retail/Consumer Services", "vertical": "Commercial", "sqft": 342866.0, "opex": 104180.4011, "valuation": 1894189.1109090908, "carbon": 33.22535373, "eui": 34.868754, "image": "DC_5482247_buildingurl.jpg", "lat": 38.90469038, "lon": -77.06369525}, {"id": "NYC_1004260005", "address": "225 Bowery, New York, NY, 10002", "city": "New York", "state": "NY", "type": "Hotel", "vertical": "Commercial", "sqft": 63599.0, "opex": 69490.67104, "valuation": 992723.872, "carbon": 34.51881349, "eui": 130.0149877, "image": "NYC_1004260005_Serpapi.jpg", "lat": 40.722009, "lon": -73.993376}, {"id": "CAM_1859", "address": "340 River St, Cambridge, MA 02139", "city": "Cambridge", "state": "MA", "type": "Grocery/Supercenter", "vertical": "Commercial", "sqft": 40000.0, "opex": 49620.73088, "valuation": 827012.1813333334, "carbon": 42.31181613, "eui": 401.1984425, "image": "CAM_1859_streetview.jpg", "lat": 42.361, "lon": -71.1139}, {"id": "BOS_108126", "address": "149 Newbury St, Boston, MA, 02116", "city": "Boston", "state": "MA", "type": "Office", "vertical": "Commercial", "sqft": 43500.0, "opex": 49027.10422, "valuation": 700387.2031428571, "carbon": 15.27650695, "eui": 46.49450115, "image": "BOS_108126_streetview.jpg", "lat": 42.3510358, "lon": -71.0780973}, {"id": "BOS_100609", "address": "369-375 Congress St, Boston, MA, 02127", "city": "Boston", "state": "MA", "type": "Office", "vertical": "Commercial", "sqft": 57800.0, "opex": 30213.70027, "valuation": 431624.28957142856, "carbon": 74.03230783, "eui": 71.29057958, "image": "BOS_100609_Reitnotes.jpg", "lat": 42.3498117, "lon": -71.0480654}, {"id": "DC_5493270", "address": "1060 Brentwood Rd NE, Washington, DC 20018", "city": "Washington", "state": "DC", "type": "Retail/Consumer Services", "vertical": "Commercial", "sqft": 58129.0, "opex": 25508.36455, "valuation": 463788.4463636363, "carbon": 23.18122602, "eui": 64.61143782, "image": "DC_5493270_streetview.jpg", "lat": 38.92024343, "lon": -76.99287256}, {"id": "SF_37810032024", "address": "555 9Th St, San Francisco, CA, 94103", "city": "San Francisco", "state": "CA", "type": "Strip/Enclosed Mall", "vertical": "Commercial", "sqft": 257165.0, "opex": 20251.56734, "valuation": 300023.21985185187, "carbon": 10.37089063, "eui": 11.73028217, "image": "SF_37810032024_Reitnotes.jpg", "lat": 37.77102781, "lon": -122.4073142}, {"id": "NYC_2023620013", "address": "2914 3Rd Avenue, New York, NY, 10455", "city": "New York", "state": "NY", "type": "Gym", "vertical": "Commercial", "sqft": 45428.0, "opex": 16083.01192, "valuation": 229757.3131428571, "carbon": 18.53367279, "eui": 52.26714141, "image": "NYC_2023620013_streetview.jpg", "lat": 40.81698, "lon": -73.916248}, {"id": "CHI_173764", "address": "1500 W Belmont Ave, Chicago, IL, 60657", "city": "Chicago", "state": "IL", "type": "PreK-12", "vertical": "Education", "sqft": 64000.0, "opex": 11653.32141, "valuation": 0.0, "carbon": 90.13615375, "eui": 53.57431059, "image": "CHI_173764_places.jpg", "lat": 41.93983797, "lon": -87.66636622}, {"id": "NYC_1004740026", "address": "38 Greene Street, New York, NY, 10013", "city": "New York", "state": "NY", "type": "Office", "vertical": "Commercial", "sqft": 45000.0, "opex": 11430.84464, "valuation": 163297.78057142854, "carbon": 3.018552642, "eui": 19.01830889, "image": "NYC_1004740026_streetview.jpg", "lat": 40.721757, "lon": -74.002078}, {"id": "NYC_3085590016", "address": "2520 Flatbush Avenue, New York, NY, 11234", "city": "New York", "state": "NY", "type": "Retail/Consumer Services", "vertical": "Commercial", "sqft": 31737.0, "opex": 10573.12719, "valuation": 211462.5438, "carbon": 6.016274298, "eui": 38.54367142, "image": "NYC_3085590016_Flickr.jpg", "lat": 40.608994, "lon": -73.921605}, {"id": "NYC_1002317501", "address": "22 Mercer Street, New York, NY, 10013", "city": "New York", "state": "NY", "type": "Hospital/Clinic", "vertical": "Healthcare", "sqft": 59244.0, "opex": 8004.229594, "valuation": 0.0, "carbon": 8.479530066, "eui": 60.38710249, "image": "NYC_1002317501_streetview.jpg", "lat": 40.720739, "lon": -74.001872}, {"id": "NYC_1008447501", "address": "5 East 16Th Street, New York, NY, 10003", "city": "New York", "state": "NY", "type": "Office", "vertical": "Commercial", "sqft": 59812.0, "opex": 7952.788129, "valuation": 113611.25898571427, "carbon": 21.44492647, "eui": 34.87017823, "image": "NYC_1008447501_streetview.jpg", "lat": 40.737196, "lon": -73.992307}, {"id": "NYC_5026380050", "address": "145 East Service Rd., New York, NY, 10314", "city": "New York", "state": "NY", "type": "Gym", "vertical": "Commercial", "sqft": 51609.0, "opex": 5363.180683, "valuation": 76616.8669, "carbon": 1.468222197, "eui": 7.056141371, "image": "NYC_5026380050_Reitnotes.jpg", "lat": 40.587884, "lon": -74.192373}, {"id": "NYC_1004570005", "address": "315 Bowery, New York, NY, 10003", "city": "New York", "state": "NY", "type": "Residential Care Facility", "vertical": "Healthcare", "sqft": 32358.0, "opex": 4784.270925, "valuation": 0.0, "carbon": 6.957394124, "eui": 90.70780951, "image": "NYC_1004570005_Flickr.jpg", "lat": 40.725292, "lon": -73.992182}, {"id": "DC_5497234", "address": "1718 Connecticut Ave NW, Washington, DC 20009", "city": "Washington", "state": "DC", "type": "Office", "vertical": "Commercial", "sqft": 47569.0, "opex": 3288.41351, "valuation": 46977.33585714285, "carbon": 1.408589546, "eui": 9.285110051, "image": "DC_5497234_streetview.jpg", "lat": 38.91325608, "lon": -77.04589669}]