[{"id": "SF_03140182024", "address": "170 O'Farrell St, San Francisco, CA, 94102", "city": "San Francisco", "state": "CA", "type": "Retail/Consumer Services", "vertical": "Commercial", "sqft": 922758.0, "opex": 316622.2305, "valuation": 5756767.827272727, "carbon": 294.0533072, "eui": 43.44191881, "image": "SF_03140182024_GooglePlaces.jpg", "lat": 37.78699736, "lon": -122.4071749}, {"id": "SJ_474", "address": "2801 Stevens Creek Blvd, San Jose, CA, 95050", "city": "San Jose", "state": "CA", "type": "Retail/Consumer Services", "vertical": "Commercial", "sqft": 396383.0, "opex": 131612.0094, "valuation": 2193533.49, "carbon": 48.01907991, "eui": 29.10983049, "image": "SJ_474_Serpapi.jpg", "lat": 37.325693, "lon": -121.9428171}, {"id": "CA_6570457", "address": "5200 Ramon Road, Palm Springs, CA, 92264", "city": "Palm Springs", "state": "CA", "type": "Retail/Consumer Services", "vertical": "Commercial", "sqft": 114927.0, "opex": 113412.2563, "valuation": 1814596.1008, "carbon": 39.48379283, "eui": 58.5952844, "image": "CA_6570457_Serpapi.jpg", "lat": 33.8176714, "lon": -116.4909051}, {"id": "CA_6057194", "address": "24235 Magic Mountain Parkway, Santa Clarita, CA, 91355", "city": "Santa Clarita", "state": "CA", "type": "Mixed Use", "vertical": "Commercial", "sqft": 275048.0, "opex": 93535.57095, "valuation": 1336222.442142857, "carbon": 58.5293932, "eui": 54.43753887, "image": "CA_6057194_streetview.jpg", "lat": 34.4197963, "lon": -118.5585046}, {"id": "SJ_646", "address": "5411 Thornwood Dr, San Jose, CA, 95123", "city": "San Jose", "state": "CA", "type": "Retail/Consumer Services", "vertical": "Commercial", "sqft": 235939.0, "opex": 57782.8138, "valuation": 963046.8966666668, "carbon": 22.09031209, "eui": 24.8327567, "image": "SJ_646_Reddit.jpg", "lat": 37.2532392, "lon": -121.8631991}]