[{"id": "NYC_1005710001", "address": "63 5Th Avenue, New York, NY, 10003", "city": "New York", "state": "NY", "type": "Higher Ed", "vertical": "Education", "sqft": 379032.0, "opex": 180211.115, "valuation": 0.0, "carbon": 209.8924325, "eui": 64.62471823, "image": "NYC_1005710001_UniversityofMontanaB.jpg", "lat": 40.735412, "lon": -73.994035}, {"id": "NYC_1005770071", "address": "55 W 13th St, New York, NY, 10011", "city": "New York", "state": "NY", "type": "Higher Ed", "vertical": "Education", "sqft": 86117.0, "opex": 81300.06154, "valuation": 0.0, "carbon": 113.9190036, "eui": 109.1944413, "image": "NYC_1005770071_AWS.jpg", "lat": 40.736593, "lon": -73.996548}, {"id": "NYC_1005717502", "address": "25 E.13Th Street, New York, NY, 10003", "city": "New York", "state": "NY", "type": "Higher Ed", "vertical": "Education", "sqft": 78740.0, "opex": 70174.60652, "valuation": 0.0, "carbon": 54.64746054, "eui": 87.96467488, "image": "NYC_1005717502_Wikiwand.jpg", "lat": 40.734795, "lon": -73.992863}, {"id": "NYC_1005750017", "address": "66 W.12Th Street, New York, NY, 10011", "city": "New York", "state": "NY", "type": "Higher Ed", "vertical": "Education", "sqft": 120467.0, "opex": 61381.73406, "valuation": 0.0, "carbon": 130.1091668, "eui": 76.70526451, "image": "NYC_1005750017_cyclomedia.jpg", "lat": 40.735744, "lon": -73.997139}, {"id": "NYC_1005760036", "address": "2 West 13Th Street, New York, NY, 10011", "city": "New York", "state": "NY", "type": "Higher Ed", "vertical": "Education", "sqft": 196016.0, "opex": 56925.10456, "valuation": 0.0, "carbon": 131.4802073, "eui": 51.67907314, "image": "NYC_1005760036_streetview.jpg", "lat": 40.735511, "lon": -73.994605}, {"id": "NYC_1005770019", "address": "34 W 14th St, New York, NY 10011", "city": "New York", "state": "NY", "type": "Higher Ed", "vertical": "Education", "sqft": 151541.0, "opex": 26875.1415, "valuation": 0.0, "carbon": 84.06560456, "eui": 67.34793554, "image": "NYC_1005770019_AWS.jpg", "lat": 40.7365632, "lon": -73.9955135}, {"id": "NYC_1005760042", "address": "66 5Th Ave, New York, NY, 10003", "city": "New York", "state": "NY", "type": "Higher Ed", "vertical": "Education", "sqft": 49391.0, "opex": 20041.59866, "valuation": 0.0, "carbon": 9.039817462, "eui": 41.02975846, "image": "NYC_1005760042_cyclomedia.jpg", "lat": 40.735044, "lon": -73.994328}]