[{"id": "LA_482575839753", "address": "800 S Figueroa St, Los Angeles, CA 90017", "city": "Los Angeles", "state": "CA", "type": "Office", "vertical": "Commercial", "sqft": 214679.0, "opex": 119370.3042, "valuation": 1646486.9544827589, "carbon": 30.5953649, "eui": 34.80243806, "image": "LA_482575839753_streetview.jpg", "lat": 34.0475017, "lon": -118.2611591}, {"id": "LA_400217885422", "address": "18401 Burbank Blvd, Los Angeles, CA, 91356", "city": "Los Angeles", "state": "CA", "type": "Office", "vertical": "Commercial", "sqft": 32256.0, "opex": 22418.63469, "valuation": 309222.54744827584, "carbon": 4.914293439, "eui": 42.0, "image": "LA_400217885422_streetview.jpg", "lat": 34.172065, "lon": -118.5337767}, {"id": "SF_37940222024", "address": "135 Townsend Street, San Francisco, CA, 94107", "city": "San Francisco", "state": "CA", "type": "Office", "vertical": "Commercial", "sqft": 54952.0, "opex": 17276.23917, "valuation": 230349.8556, "carbon": 13.49073073, "eui": 29.7927546, "image": "SF_37940222024_GooglePlaces.jpg", "lat": 37.7798088, "lon": -122.3910019}, {"id": "SF_37030762024", "address": "1019 Market St, San Francisco, CA, 94103", "city": "San Francisco", "state": "CA", "type": "Office", "vertical": "Commercial", "sqft": 75210.0, "opex": 13629.5136, "valuation": 181726.848, "carbon": 15.19845698, "eui": 22.92347193, "image": "SF_37030762024_GooglePlaces.jpg", "lat": 37.78156056, "lon": -122.4104178}, {"id": "LA_415940879652", "address": "16001 Ventura Blvd, Los Angeles, CA, 91436", "city": "Los Angeles", "state": "CA", "type": "Office", "vertical": "Commercial", "sqft": 32293.0, "opex": 10973.47476, "valuation": 151358.27255172413, "carbon": 3.497866784, "eui": 32.2, "image": "LA_415940879652_EnergyStar.jpg", "lat": 34.1565219, "lon": -118.4816933}]