[{"id": "NYC_1006460001", "address": "40 10 Ave, New York, NY 10034", "city": "New York", "state": "NY", "type": "Office", "vertical": "Commercial", "sqft": 158847.0, "opex": 251819.2443, "valuation": 3597417.775714285, "carbon": 320.1198077, "eui": 117.9099234, "image": "NYC_1006460001_AWS.jpg", "lat": 40.8650333, "lon": -73.918518}, {"id": "NYC_1006440043", "address": "63 Gansevoort Street, New York, NY, 10014", "city": "New York", "state": "NY", "type": "Office", "vertical": "Commercial", "sqft": 25963.0, "opex": 200509.927, "valuation": 2864427.5285714283, "carbon": 240.2445198, "eui": 541.2068212, "image": "NYC_1006440043_streetview.jpg", "lat": 40.739397, "lon": -74.007282}, {"id": "NYC_1005110001", "address": "568 Broadway, New York, NY 10012", "city": "New York", "state": "NY", "type": "Office", "vertical": "Commercial", "sqft": 332256.0, "opex": 185977.1156, "valuation": 2656815.937142857, "carbon": 327.1826553, "eui": 74.14373977, "image": "NYC_1005110001_AWS.jpg", "lat": 40.7243392, "lon": -73.9973799}, {"id": "NYC_1006430043", "address": "809 Washington Street, New York, NY, 10014", "city": "New York", "state": "NY", "type": "Office", "vertical": "Commercial", "sqft": 83365.0, "opex": 51740.87505, "valuation": 739155.3578571428, "carbon": 26.96099143, "eui": 46.83213699, "image": "NYC_1006430043_cyclomedia.jpg", "lat": 40.739159, "lon": -74.008058}, {"id": "NYC_1012770069", "address": "511 5 Ave, New York, NY 10017", "city": "New York", "state": "NY", "type": "Office", "vertical": "Commercial", "sqft": 125632.0, "opex": 25250.53302, "valuation": 360721.90028571425, "carbon": 12.82958453, "eui": 27.13523306, "image": "NYC_1012770069_AWS.jpg", "lat": 40.7537084, "lon": -73.9802093}, {"id": "NYC_4049490023", "address": "3338 Farrington St, New York, NY, 11354", "city": "New York", "state": "NY", "type": "Office", "vertical": "Commercial", "sqft": 26100.0, "opex": 2370.008111, "valuation": 33857.258728571425, "carbon": 6.017576062, "eui": 26.91032184, "image": "NYC_4049490023_streetview.jpg", "lat": 40.766345, "lon": -73.832559}]