[{"id": "DC_5478070", "address": "1818 H St NW, Washington, DC 20433", "city": "Washington", "state": "DC", "type": "Office", "vertical": "Commercial", "sqft": 1872507.0, "opex": 13238419.68, "valuation": 189120281.14285713, "carbon": 1997.557606, "eui": 84.90433211, "image": "DC_5478070_Kpf.jpg", "lat": 38.89895653, "lon": -77.0425596}, {"id": "CA_17806270", "address": "5241 North Maple Avenue, Fresno, CA, 93740", "city": "Fresno", "state": "CA", "type": "Higher Ed", "vertical": "Education", "sqft": 3290567.0, "opex": 3177655.599, "valuation": 0.0, "carbon": 4099.261798, "eui": 81.40800148, "image": "CA_17806270_streetview.jpg", "lat": 36.8113663, "lon": -119.7461043}, {"id": "DC_5476768", "address": "601 New Jersey Ave NW, Washington, DC 20001", "city": "Washington", "state": "DC", "type": "Office", "vertical": "Commercial", "sqft": 277727.0, "opex": 3046106.702, "valuation": 43515810.02857143, "carbon": 105.5091358, "eui": 51.21767333, "image": "DC_5476768_energystar.jpg", "lat": 38.8978527, "lon": -77.01153315}, {"id": "NYC_1012657501", "address": "1242 6th Ave, New York, NY, 10020", "city": "New York", "state": "NY", "type": "Office", "vertical": "Commercial", "sqft": 2122138.0, "opex": 2983907.024, "valuation": 42627243.2, "carbon": 1811.048653, "eui": 163.8319844, "image": "NYC_1012657501_AWS.jpg", "lat": 40.7455172, "lon": -73.9884558}, {"id": "NYC_3075520100", "address": "2895 Bedford Ave, New York, NY, 11210", "city": "New York", "state": "NY", "type": "Higher Ed", "vertical": "Education", "sqft": 2518921.0, "opex": 2459638.734, "valuation": 0.0, "carbon": 8298.313297, "eui": 168.0170186, "image": "NYC_3075520100_TrademarkVisual.jpg", "lat": 40.631818, "lon": -73.952656}, {"id": "CA_5046136", "address": "10202 Washington Boulevard, Culver City, CA, 90232", "city": "Culver City", "state": "CA", "type": "Entertainment Venue", "vertical": "Commercial", "sqft": 2048713.0, "opex": 2252054.701, "valuation": 30027396.01333333, "carbon": 1651.716464, "eui": 50.73559064, "image": "CA_5046136_Serpapi.jpg", "lat": 34.0176159, "lon": -118.4005186}, {"id": "NYC_1008700024", "address": "4 Irving Place, New York, NY, 10003", "city": "New York", "state": "NY", "type": "Office", "vertical": "Commercial", "sqft": 1251237.0, "opex": 2097445.314, "valuation": 29963504.48571428, "carbon": 2247.764098, "eui": 109.7458562, "image": "NYC_1008700024_cyclomedia.jpg", "lat": 40.734163, "lon": -73.988627}, {"id": "CA_17806278", "address": "6000 J Street, Sacramento, CA, 95819", "city": "Sacramento", "state": "CA", "type": "Higher Ed", "vertical": "Education", "sqft": 3819969.0, "opex": 1698431.632, "valuation": 0.0, "carbon": 4125.617499, "eui": 73.46889231, "image": "CA_17806278_streetview.jpg", "lat": 38.5647187, "lon": -121.4275416}, {"id": "NYC_1010870005", "address": "524 West 59Th St, New York, NY, 10019", "city": "New York", "state": "NY", "type": "Office", "vertical": "Commercial", "sqft": 1344824.0, "opex": 1658725.18, "valuation": 23696073.999999996, "carbon": 2751.872115, "eui": 79.37518478, "image": "NYC_1010870005_cyclomedia.jpg", "lat": 40.770786, "lon": -73.988512}, {"id": "CA_1060081", "address": "515 Flower Street, Los Angeles, CA, 90071", "city": "Los Angeles", "state": "CA", "type": "Office", "vertical": "Commercial", "sqft": 3607789.0, "opex": 1640453.124, "valuation": 21872708.32, "carbon": 368.3823383, "eui": 34.4438738, "image": "CA_1060081_energystar.jpg", "lat": 34.0508972, "lon": -118.2572534}, {"id": "CA_17806281", "address": "1600 Holloway Avenue, San Francisco, CA, 94132", "city": "San Francisco", "state": "CA", "type": "Higher Ed", "vertical": "Education", "sqft": 4819013.0, "opex": 1590859.882, "valuation": 0.0, "carbon": 1883.624006, "eui": 41.63270919, "image": "CA_17806281_streetview.jpg", "lat": 37.7209524, "lon": -122.4767648}, {"id": "CA_17806273", "address": "5151 State University Drive, Los Angeles, CA, 90032", "city": "Los Angeles", "state": "CA", "type": "Higher Ed", "vertical": "Education", "sqft": 3122970.0, "opex": 1461151.042, "valuation": 0.0, "carbon": 1975.014053, "eui": 61.40610188, "image": "CA_17806273_Wikipedia.jpg", "lat": 34.0655688, "lon": -118.1693016}, {"id": "DC_5492900", "address": "2401 Pennsylvania Ave NW, Washington, DC 20037", "city": "Washington", "state": "DC", "type": "Mixed Use", "vertical": "Commercial", "sqft": 140237.0, "opex": 1458815.078, "valuation": 20840215.4, "carbon": 60.31304462, "eui": 54.1606623, "image": "DC_5492900_streetview.jpg", "lat": 38.90348021, "lon": -77.05184954}, {"id": "CA_17806272", "address": "1 Harpst Street, Arcata, CA, 95521", "city": "Arcata", "state": "CA", "type": "Higher Ed", "vertical": "Education", "sqft": 2020351.0, "opex": 1276616.238, "valuation": 0.0, "carbon": 2978.833577, "eui": 73.95509389, "image": "CA_17806272_streetview.jpg", "lat": 40.8744392, "lon": -124.0790979}, {"id": "NYC_1009620100", "address": "462 1St Ave, New York, NY, 10016", "city": "New York", "state": "NY", "type": "Hospital/Clinic", "vertical": "Healthcare", "sqft": 3472597.0, "opex": 1252084.144, "valuation": 0.0, "carbon": 2544.877991, "eui": 177.5745729, "image": "NYC_1009620100_6sqft.jpg", "lat": 40.739497, "lon": -73.976624}, {"id": "DEN_5635", "address": "1290 Broadway, Denver, CO, 80203", "city": "Denver", "state": "CO", "type": "Office", "vertical": "Commercial", "sqft": 308238.0, "opex": 1041806.212, "valuation": 13022577.65, "carbon": 354.5870495, "eui": 57.79644204, "image": "DEN_5635_streetview.jpg", "lat": 39.736578, "lon": -104.9868224}, {"id": "SF_37110052020", "address": "245 Market Street, San Francisco, CA, 94105", "city": "San Francisco", "state": "CA", "type": "Office", "vertical": "Commercial", "sqft": 1948626.0, "opex": 985483.3519, "valuation": 13139778.025333334, "carbon": 1282.214606, "eui": 48.17879739, "image": "SF_37110052020_GooglePlaces.jpg", "lat": 37.79210935, "lon": -122.3958039}, {"id": "CHI_101716", "address": "311 South Wacker, Chicago, IL, 60606", "city": "Chicago", "state": "IL", "type": "Office", "vertical": "Commercial", "sqft": 1433821.0, "opex": 949453.6738, "valuation": 11868170.9225, "carbon": 1275.902573, "eui": 45.20758766, "image": "CHI_101716_streetview.jpg", "lat": 41.89454, "lon": -87.624095}, {"id": "CA_23870629", "address": "1100 North Grand Ave, Walnut, CA, 91789", "city": "Walnut", "state": "CA", "type": "Higher Ed", "vertical": "Education", "sqft": 1986507.0, "opex": 887186.4685, "valuation": 0.0, "carbon": 1419.786879, "eui": 60.52940161, "image": "CA_23870629_Serpapi.jpg", "lat": 34.0482035, "lon": -117.845125}, {"id": "ATL_465", "address": "675 W Peachtree St NW, Atlanta, GA, 30308", "city": "Atlanta", "state": "GA", "type": "Office", "vertical": "Commercial", "sqft": 1524892.0, "opex": 837750.3369, "valuation": 10471879.21125, "carbon": 690.5848039, "eui": 62.2, "image": "ATL_465_GooglePlaces.jpg", "lat": 33.7728513, "lon": -84.3865214}, {"id": "NYC_1014809010", "address": "1230 York Avenue, New York, NY, 10065", "city": "New York", "state": "NY", "type": "Medical Office/Lab", "vertical": "Healthcare", "sqft": 1546119.0, "opex": 834633.9362, "valuation": 0.0, "carbon": 2271.233562, "eui": 323.833131, "image": "", "lat": 40.763134, "lon": -73.956451}, {"id": "CA_4226787", "address": "1 Market Place, San Diego, CA, 92101", "city": "San Diego", "state": "CA", "type": "Hotel", "vertical": "Commercial", "sqft": 1711889.0, "opex": 773502.3511, "valuation": 9668779.38875, "carbon": 177.7030997, "eui": 40.23644549, "image": "CA_4226787_Serpapi.jpg", "lat": 32.710052, "lon": -117.168372}, {"id": "CA_17806284", "address": "333 South Twin Oaks Valley Road, San Marcos, CA, 92096", "city": "San Marcos", "state": "CA", "type": "Higher Ed", "vertical": "Education", "sqft": 1586697.0, "opex": 769023.7972, "valuation": 0.0, "carbon": 1889.508019, "eui": 69.05562165, "image": "CA_17806284_Alamy.jpg", "lat": 33.129054, "lon": -117.1596579}, {"id": "CHI_101717", "address": "55 East Monroe Street, Chicago, IL, 60603", "city": "Chicago", "state": "IL", "type": "Office", "vertical": "Commercial", "sqft": 1609901.0, "opex": 763602.8506, "valuation": 9545035.6325, "carbon": 1986.723523, "eui": 48.94717495, "image": "CHI_101717_Serpapi.jpg", "lat": 41.867398, "lon": -87.622701}, {"id": "SD_276", "address": "100 Park Blvd, San Diego, CA 92101", "city": "San Diego", "state": "CA", "type": "Retail/Consumer Services", "vertical": "Commercial", "sqft": 1600000.0, "opex": 701262.4465, "valuation": 11220199.144, "carbon": 138.6401593, "eui": 24.4, "image": "SD_276_Ticketmasterblog.jpg", "lat": 32.70647952, "lon": -117.1563283}, {"id": "DC_5495798", "address": "110 Irving St NW, Washington, DC 20010", "city": "Washington", "state": "DC", "type": "Hospital/Clinic", "vertical": "Healthcare", "sqft": 1459375.0, "opex": 661026.8001, "valuation": 0.0, "carbon": 2439.128779, "eui": 287.5, "image": "DC_5495798_streetview.jpg", "lat": 38.93055031, "lon": -77.01334577}, {"id": "CA_2551220", "address": "9961 Sierra Avenue, Fontana, CA, 92335", "city": "Fontana", "state": "CA", "type": "Hospital/Clinic", "vertical": "Healthcare", "sqft": 1547423.0, "opex": 648747.6301, "valuation": 0.0, "carbon": 1236.835709, "eui": 233.5113887, "image": "CA_2551220_streetview.jpg", "lat": 34.072642, "lon": -117.4324711}, {"id": "DC_5495381", "address": "110 Irving St NW, Washington, DC, 20010", "city": "Washington", "state": "DC", "type": "Hospital/Clinic", "vertical": "Healthcare", "sqft": 1459375.0, "opex": 647522.3305, "valuation": 0.0, "carbon": 1429.683746, "eui": 287.5066667, "image": "DC_5495381_streetview.jpg", "lat": 38.93055031, "lon": -77.01334577}, {"id": "CA_17806275", "address": "100 Campus Center, Seaside, CA, 93955", "city": "Seaside", "state": "CA", "type": "Higher Ed", "vertical": "Education", "sqft": 1564346.0, "opex": 631041.4849, "valuation": 0.0, "carbon": 1031.852282, "eui": 51.47753918, "image": "CA_17806275_Royalelectriccompany.jpg", "lat": 36.6538224, "lon": -121.801697}, {"id": "DC_5473324", "address": "2401 Pennsylvania Ave NW, Washington, DC, 20037", "city": "Washington", "state": "DC", "type": "Office", "vertical": "Commercial", "sqft": 146301.0, "opex": 624913.4728, "valuation": 8927335.325714285, "carbon": 152.8391233, "eui": 76.83658879, "image": "DC_5473324_streetview.jpg", "lat": 38.90347935, "lon": -77.0519104}, {"id": "ATL_75", "address": "230 Spring St NW, Atlanta, GA, 30303", "city": "Atlanta", "state": "GA", "type": "Entertainment Venue", "vertical": "Commercial", "sqft": 2285681.0, "opex": 616395.3835, "valuation": 8218605.113333333, "carbon": 304.8710339, "eui": 25.7, "image": "", "lat": 33.7607065, "lon": -84.3893232}, {"id": "SEA_942000640", "address": "701 5Th Ave, Seattle, WA, 98104", "city": "Seattle", "state": "WA", "type": "Office", "vertical": "Commercial", "sqft": 1632820.0, "opex": 602603.2796, "valuation": 8034710.394666667, "carbon": 410.3272354, "eui": 44.9917223, "image": "SEA_942000640_GooglePlaces.jpg", "lat": 47.60454, "lon": -122.33072}, {"id": "CA_4844044", "address": "1501 Mendocino Avenue, Santa Rosa, CA, 95401", "city": "Santa Rosa", "state": "CA", "type": "Higher Ed", "vertical": "Education", "sqft": 1313404.0, "opex": 601872.5715, "valuation": 0.0, "carbon": 857.7497855, "eui": 51.03557611, "image": "CA_4844044_Santarosajuniorcolle.jpg", "lat": 38.454581, "lon": -122.7198213}, {"id": "NYC_1000800001", "address": "195 Broadway, New York, NY, 10007", "city": "New York", "state": "NY", "type": "Office", "vertical": "Commercial", "sqft": 1094861.0, "opex": 577491.7554, "valuation": 8249882.22, "carbon": 1306.367106, "eui": 56.0753133, "image": "NYC_1000800001_AWS.jpg", "lat": 40.7109225, "lon": -74.009805}, {"id": "CHI_101830", "address": "555 West Monroe Street, Chicago, IL, 60661", "city": "Chicago", "state": "IL", "type": "Office", "vertical": "Commercial", "sqft": 454346.0, "opex": 535343.4514, "valuation": 6691793.1425, "carbon": 1044.69909, "eui": 85.77379649, "image": "CHI_101830_streetview.jpg", "lat": 41.88030693, "lon": -87.64186748}, {"id": "CA_17806268", "address": "1000 East Victoria Street, Carson, CA, 90747", "city": "Carson", "state": "CA", "type": "Higher Ed", "vertical": "Education", "sqft": 1506526.0, "opex": 503995.5119, "valuation": 0.0, "carbon": 764.1953036, "eui": 47.28168581, "image": "CA_17806268_HGA.jpg", "lat": 33.8663957, "lon": -118.2538329}, {"id": "CA_27461830", "address": "21250 Stevens Creek Boulevard, Cupertino, CA, 95014", "city": "Cupertino", "state": "CA", "type": "Higher Ed", "vertical": "Education", "sqft": 1446304.0, "opex": 430811.3296, "valuation": 0.0, "carbon": 667.4636594, "eui": 39.12252134, "image": "CA_27461830_Serpapi.jpg", "lat": 37.3194857, "lon": -122.0451064}, {"id": "SF_02910122024", "address": "44 Montgomery St, San Francisco, CA, 94104", "city": "San Francisco", "state": "CA", "type": "Office", "vertical": "Commercial", "sqft": 781262.0, "opex": 393901.185, "valuation": 5252015.8, "carbon": 510.6713607, "eui": 48.84640384, "image": "SF_02910122024_Sanfranciscoyimby.jpg", "lat": 37.78980767, "lon": -122.4017669}, {"id": "LA_483130840965", "address": "601 S Figueroa St, Los Angeles, CA 90017", "city": "Los Angeles", "state": "CA", "type": "Office", "vertical": "Commercial", "sqft": 1118941.0, "opex": 369480.1838, "valuation": 5096278.39724138, "carbon": 75.42005877, "eui": 26.04603773, "image": "LA_483130840965_energystar.jpg", "lat": 34.0504835, "lon": -118.259211}, {"id": "CA_17806266", "address": "1 University Drive, Camarillo, CA, 93012", "city": "Camarillo", "state": "CA", "type": "Higher Ed", "vertical": "Education", "sqft": 1318598.0, "opex": 305123.4957, "valuation": 0.0, "carbon": 671.6188849, "eui": 42.73361282, "image": "CA_17806266_Acmartin.jpg", "lat": 34.1647699, "lon": -119.0437206}, {"id": "SEA_7666207220", "address": "2401 Utah Ave S, Seattle, WA, 98134", "city": "Seattle", "state": "WA", "type": "Retail/Consumer Services", "vertical": "Commercial", "sqft": 1750319.0, "opex": 271214.4833, "valuation": 4520241.388333334, "carbon": 135.0998507, "eui": 33.92148688, "image": "SEA_7666207220_Tripadvisor.jpg", "lat": 47.58181, "lon": -122.33534}, {"id": "CHI_101868", "address": "300 South Wacker Drive, Chicago, IL, 60606", "city": "Chicago", "state": "IL", "type": "Office", "vertical": "Commercial", "sqft": 598410.0, "opex": 260989.8387, "valuation": 3262372.9837499997, "carbon": 946.033441, "eui": 60.63035451, "image": "CHI_101868_streetview.jpg", "lat": 41.940413, "lon": -87.651223}, {"id": "SJ_409", "address": "225 W Santa Clara St, San Jose, CA, 95113", "city": "San Jose", "state": "CA", "type": "Office", "vertical": "Commercial", "sqft": 379083.0, "opex": 219587.6982, "valuation": 2927835.9760000003, "carbon": 199.7799047, "eui": 47.33277707, "image": "SJ_409_energystar.jpg", "lat": 37.3348091, "lon": -121.8944062}, {"id": "SEA_1976700155", "address": "600 University St, Seattle, WA, 98101", "city": "Seattle", "state": "WA", "type": "Office", "vertical": "Commercial", "sqft": 757986.0, "opex": 149980.6566, "valuation": 1999742.088, "carbon": 98.1216025, "eui": 26.62934408, "image": "SEA_1976700155_Tatleygrund.jpg", "lat": 47.60967, "lon": -122.33229}, {"id": "CA_4274091", "address": "860 West California Avenue, Sunnyvale, CA, 94086", "city": "Sunnyvale", "state": "CA", "type": "Office", "vertical": "Commercial", "sqft": 107900.0, "opex": 149882.4156, "valuation": 1998432.208, "carbon": 87.26024387, "eui": 75.6480412, "image": "CA_4274091_energystar.jpg", "lat": 37.3817279, "lon": -122.0369884}, {"id": "CA_34585672", "address": "1025 Westminster Mall, Westminster, CA, 92683", "city": "Westminster", "state": "CA", "type": "Strip/Enclosed Mall", "vertical": "Commercial", "sqft": 1214785.0, "opex": 144540.2186, "valuation": 1927202.9146666664, "carbon": 41.73634431, "eui": 11.83066706, "image": "CA_34585672_Serpapi.jpg", "lat": 33.747549, "lon": -118.0116211}, {"id": "SEA_5342900030", "address": "701 Pike St, Seattle, WA, 98101", "city": "Seattle", "state": "WA", "type": "Office", "vertical": "Commercial", "sqft": 454273.0, "opex": 120830.3632, "valuation": 1611071.5093333337, "carbon": 77.16646748, "eui": 27.43280362, "image": "SEA_5342900030_streetview.jpg", "lat": 47.6115, "lon": -122.33278}, {"id": "CA_1605668", "address": "6700 Koll Center Parkway, Pleasanton, CA, 94566", "city": "Pleasanton", "state": "CA", "type": "Office", "vertical": "Commercial", "sqft": 112059.0, "opex": 112706.8141, "valuation": 1502757.521333333, "carbon": 189.8360975, "eui": 72.08480249, "image": "CA_1605668_energystar.jpg", "lat": 37.6581176, "lon": -121.9008174}, {"id": "DC_5479134", "address": "1129 20th St NW, Washington, DC 20036", "city": "Washington", "state": "DC", "type": "Office", "vertical": "Commercial", "sqft": 182220.0, "opex": 103579.5243, "valuation": 1479707.49, "carbon": 79.70656663, "eui": 52.33971086, "image": "DC_5479134_Serpapi.jpg", "lat": 38.90455127, "lon": -77.04450824}, {"id": "CA_1605696", "address": "6701 Koll Center Parkway, Pleasanton, CA, 94566", "city": "Pleasanton", "state": "CA", "type": "Office", "vertical": "Commercial", "sqft": 126315.0, "opex": 91463.93025, "valuation": 1219519.07, "carbon": 85.50508752, "eui": 54.53365231, "image": "CA_1605696_energystar.jpg", "lat": 37.6596925, "lon": -121.8994391}, {"id": "CA_1604862", "address": "6800 Koll Center Parkway, Pleasanton, CA, 94566", "city": "Pleasanton", "state": "CA", "type": "Office", "vertical": "Commercial", "sqft": 111316.0, "opex": 91163.55358, "valuation": 1215514.0477333334, "carbon": 122.0993894, "eui": 60.67326772, "image": "CA_1604862_energystar.jpg", "lat": 37.6584911, "lon": -121.9020622}, {"id": "NYC_1000240029", "address": "30 Broad St, New York, NY 10004", "city": "New York", "state": "NY", "type": "Office", "vertical": "Commercial", "sqft": 370000.0, "opex": 88251.50504, "valuation": 1260735.7862857142, "carbon": 112.0626988, "eui": 42.3053473, "image": "NYC_1000240029_AWS.jpg", "lat": 40.7061944, "lon": -74.0116611}, {"id": "CA_2014980", "address": "680 West California Avenue, Sunnyvale, CA, 94086", "city": "Sunnyvale", "state": "CA", "type": "Office", "vertical": "Commercial", "sqft": 69000.0, "opex": 85932.66004, "valuation": 1145768.800533333, "carbon": 89.18825485, "eui": 76.06683006, "image": "CA_2014980_GooglePlaces.jpg", "lat": 37.3810224, "lon": -122.0358879}, {"id": "CA_1325192", "address": "6425 Christie Avenue, Emeryville, CA, 94608", "city": "Emeryville", "state": "CA", "type": "Office", "vertical": "Commercial", "sqft": 121762.0, "opex": 79408.31838, "valuation": 1058777.5784, "carbon": 70.62336545, "eui": 40.5171625, "image": "CA_1325192_energystar.jpg", "lat": 37.8440252, "lon": -122.2962677}, {"id": "CA_1605586", "address": "6801 Koll Center Parkway, Pleasanton, CA, 94566", "city": "Pleasanton", "state": "CA", "type": "Office", "vertical": "Commercial", "sqft": 122442.0, "opex": 77997.79449, "valuation": 1039970.5932, "carbon": 87.15589432, "eui": 45.33600964, "image": "CA_1605586_energystar.jpg", "lat": 37.6593314, "lon": -121.9000171}, {"id": "CA_1333220", "address": "5000 Hopyard Road, Pleasanton, CA, 94588", "city": "Pleasanton", "state": "CA", "type": "Office", "vertical": "Commercial", "sqft": 163385.0, "opex": 61697.0449, "valuation": 822627.2653333334, "carbon": 96.96411804, "eui": 44.17936898, "image": "CA_1333220_streetview.jpg", "lat": 37.6948934, "lon": -121.9049074}, {"id": "DC_5478220", "address": "1129 20th St NW, Washington, DC, 20036", "city": "Washington", "state": "DC", "type": "Office", "vertical": "Commercial", "sqft": 185337.0, "opex": 60981.22709, "valuation": 871160.3869999999, "carbon": 44.42585776, "eui": 33.79827525, "image": "DC_5478220_Serpapi.jpg", "lat": 38.90455127, "lon": -77.04450824}, {"id": "ORL_134001", "address": "3403 E Colonial Dr, Orlando, FL 32803", "city": "Orlando", "state": "FL", "type": "Strip/Enclosed Mall", "vertical": "Commercial", "sqft": 1385794.0, "opex": 58758.62571, "valuation": 783448.3428, "carbon": 62.38731764, "eui": 7.6, "image": "ORL_134001_Serpapi.jpg", "lat": 28.56970914, "lon": -81.35633825}, {"id": "CA_1333219", "address": "4900 Hopyard Road, Pleasanton, CA, 94588", "city": "Pleasanton", "state": "CA", "type": "Office", "vertical": "Commercial", "sqft": 100404.0, "opex": 50582.19995, "valuation": 674429.3326666667, "carbon": 73.12401019, "eui": 51.26218079, "image": "CA_1333219_GooglePlaces.jpg", "lat": 37.6936006, "lon": -121.9047296}, {"id": "SF_37170212024", "address": "150 Spear St, San Francisco, CA, 94105", "city": "San Francisco", "state": "CA", "type": "Office", "vertical": "Commercial", "sqft": 286510.0, "opex": 47030.28015, "valuation": 627070.402, "carbon": 56.95640869, "eui": 23.25817791, "image": "SF_37170212024_energystar.jpg", "lat": 37.79175339, "lon": -122.3936139}, {"id": "SEA_1117080020", "address": "1601 2Nd Ave, Seattle, WA, 98101", "city": "Seattle", "state": "WA", "type": "Office", "vertical": "Commercial", "sqft": 132998.0, "opex": 38961.81307, "valuation": 519490.8409333333, "carbon": 47.84620095, "eui": 33.67570941, "image": "SEA_1117080020_GooglePlaces.jpg", "lat": 47.61036, "lon": -122.34037}, {"id": "CA_1978332", "address": "640 West California Avenue, Sunnyvale, CA, 94086", "city": "Sunnyvale", "state": "CA", "type": "Office", "vertical": "Commercial", "sqft": 58908.0, "opex": 31370.0529, "valuation": 418267.372, "carbon": 27.42487752, "eui": 44.61869685, "image": "CA_1978332_streetview.jpg", "lat": 37.3821642, "lon": -122.0363319}, {"id": "CA_1979435", "address": "840 West California Avenue, Sunnyvale, CA, 94086", "city": "Sunnyvale", "state": "CA", "type": "Office", "vertical": "Commercial", "sqft": 59000.0, "opex": 31096.2631, "valuation": 414616.84133333334, "carbon": 30.35410262, "eui": 47.13808083, "image": "CA_1979435_streetview.jpg", "lat": 37.3815825, "lon": -122.037886}, {"id": "CA_1979389", "address": "800 West California Avenue, Sunnyvale, CA, 94086", "city": "Sunnyvale", "state": "CA", "type": "Office", "vertical": "Commercial", "sqft": 60332.0, "opex": 19619.80648, "valuation": 261597.41973333337, "carbon": 18.00930358, "eui": 32.45656613, "image": "CA_1979389_energystar.jpg", "lat": 37.3824375, "lon": -122.037664}, {"id": "SEA_939000130", "address": "615 2Nd Ave, Seattle, WA, 98104", "city": "Seattle", "state": "WA", "type": "Office", "vertical": "Commercial", "sqft": 89550.0, "opex": 13994.14572, "valuation": 186588.60960000005, "carbon": 17.16574734, "eui": 23.82331658, "image": "SEA_939000130_Serpapi.jpg", "lat": 47.60266, "lon": -122.33332}, {"id": "CA_1979546", "address": "600 West California Avenue, Sunnyvale, CA, 94086", "city": "Sunnyvale", "state": "CA", "type": "Office", "vertical": "Commercial", "sqft": 76379.0, "opex": 13838.75614, "valuation": 184516.74853333333, "carbon": 10.34606319, "eui": 17.49855697, "image": "CA_1979546_energystar.jpg", "lat": 37.3820276, "lon": -122.0356658}, {"id": "CA_2014937", "address": "430 West California Avenue, Sunnyvale, CA, 94086", "city": "Sunnyvale", "state": "CA", "type": "Office", "vertical": "Commercial", "sqft": 51851.0, "opex": 6762.605604, "valuation": 90168.07472, "carbon": 1.844131751, "eui": 8.844220941, "image": "CA_2014937_streetview.jpg", "lat": 37.3814755, "lon": -122.0345113}, {"id": "SEA_1975700330", "address": "1417 4Th Ave, Seattle, WA, 98101", "city": "Seattle", "state": "WA", "type": "Office", "vertical": "Commercial", "sqft": 60660.0, "opex": 5493.55084, "valuation": 73247.34453333334, "carbon": 0.173142958, "eui": 14.19197165, "image": "SEA_1975700330_streetview.jpg", "lat": 47.60953, "lon": -122.33647}, {"id": "CA_2014954", "address": "490 West California Avenue, Sunnyvale, CA, 94086", "city": "Sunnyvale", "state": "CA", "type": "Office", "vertical": "Commercial", "sqft": 52964.0, "opex": 3789.165192, "valuation": 50522.20256, "carbon": 2.767307564, "eui": 6.07131259, "image": "CA_2014954_energystar.jpg", "lat": 37.3805213, "lon": -122.034689}]