[{"id": "DEN_3780", "address": "2525 S Downing St., Denver, CO, 80210", "city": "Denver", "state": "CO", "type": "Hospital/Clinic", "vertical": "Healthcare", "sqft": 735291.0, "opex": 224626.3048, "valuation": 0.0, "carbon": 1349.703377, "eui": 308.3038715, "image": "DEN_3780_Directoryofinhouseph.jpg", "lat": 39.6694481, "lon": -104.9756418}, {"id": "CA_6734593", "address": "726 4Th Street, Marysville, CA, 95901", "city": "Marysville", "state": "CA", "type": "Hospital/Clinic", "vertical": "Healthcare", "sqft": 446000.0, "opex": 195517.7363, "valuation": 0.0, "carbon": 266.8879139, "eui": 210.4892323, "image": "CA_6734593_Adventisthealth.jpg", "lat": 39.138174, "lon": -121.5942279}, {"id": "CA_6343015", "address": "1524 27Th Street, Bakersfield, CA, 93301", "city": "Bakersfield", "state": "CA", "type": "Medical Office/Lab", "vertical": "Healthcare", "sqft": 55686.0, "opex": 179092.9759, "valuation": 2387906.345333333, "carbon": 175.3798158, "eui": 194.5719858, "image": "CA_6343015_streetview.jpg", "lat": 35.3840791, "lon": -119.0199325}, {"id": "CA_6343010", "address": "450 Greenfield Avenue, Hanford, CA, 93230", "city": "Hanford", "state": "CA", "type": "Medical Office/Lab", "vertical": "Healthcare", "sqft": 90571.0, "opex": 173834.6278, "valuation": 2317795.0373333334, "carbon": 239.405964, "eui": 125.6937683, "image": "CA_6343010_GooglePlaces.jpg", "lat": 36.3289433, "lon": -119.6597853}, {"id": "CA_6395637", "address": "900 Mono Way, Sonora, CA, 95370", "city": "Sonora", "state": "CA", "type": "Medical Office/Lab", "vertical": "Healthcare", "sqft": 74100.0, "opex": 162582.1145, "valuation": 2167761.526666667, "carbon": 106.1057933, "eui": 133.9818731, "image": "CA_6395637_streetview.jpg", "lat": 37.9764911, "lon": -120.3685013}, {"id": "CA_6331858", "address": "2615 Chester Avenue, Bakersfield, CA, 93301", "city": "Bakersfield", "state": "CA", "type": "Hospital/Clinic", "vertical": "Healthcare", "sqft": 261950.0, "opex": 156748.818, "valuation": 0.0, "carbon": 174.1068935, "eui": 271.9878263, "image": "CA_6331858_Americanhospitalasso.jpg", "lat": 35.3833744, "lon": -119.0206543}, {"id": "CA_34393543", "address": "5400 West Hillsdale Avenue, Visalia, CA, 93291", "city": "Visalia", "state": "CA", "type": "Medical Office/Lab", "vertical": "Healthcare", "sqft": 95590.0, "opex": 126770.7043, "valuation": 1690276.0573333334, "carbon": 128.2884077, "eui": 99.7667653, "image": "CA_34393543_streetview.jpg", "lat": 36.3302126, "lon": -119.3517236}, {"id": "CA_6331857", "address": "975 South Fairmont Avenue, Lodi, CA, 95240", "city": "Lodi", "state": "CA", "type": "Hospital/Clinic", "vertical": "Healthcare", "sqft": 262008.0, "opex": 125918.096, "valuation": 0.0, "carbon": 183.8857709, "eui": 267.041881, "image": "CA_6331857_AdventistHealth.jpg", "lat": 38.1214679, "lon": -121.2869098}, {"id": "CA_6349448", "address": "1509 Wilson Terrace, Glendale, CA, 91206", "city": "Glendale", "state": "CA", "type": "Hospital/Clinic", "vertical": "Healthcare", "sqft": 1350010.0, "opex": 125888.1848, "valuation": 0.0, "carbon": 191.9483167, "eui": 99.50094844, "image": "CA_6349448_AdventistHealth.jpg", "lat": 34.1507443, "lon": -118.2291341}, {"id": "CA_12427695", "address": "1500 East Chevy Chase Drive, Glendale, CA, 91206", "city": "Glendale", "state": "CA", "type": "Medical Office/Lab", "vertical": "Healthcare", "sqft": 76197.0, "opex": 120369.4002, "valuation": 1604925.336, "carbon": 298.8446773, "eui": 207.1258349, "image": "CA_12427695_AdventistHealth.jpg", "lat": 34.1517311, "lon": -118.2321381}, {"id": "PDX_Campus-16", "address": "10000 SE Main St, Portland, OR, 97216", "city": "Portland", "state": "OR", "type": "Hospital/Clinic", "vertical": "Healthcare", "sqft": 698310.2479, "opex": 119211.7299, "valuation": 0.0, "carbon": 303.0521379, "eui": 170.1, "image": "", "lat": 45.512909, "lon": -122.5601394}, {"id": "CA_6343016", "address": "2620 Chester Avenue, Bakersfield, CA, 93301", "city": "Bakersfield", "state": "CA", "type": "Medical Office/Lab", "vertical": "Healthcare", "sqft": 59332.0, "opex": 111144.8498, "valuation": 1481931.3306666666, "carbon": 73.85774155, "eui": 98.65686139, "image": "CA_6343016_streetview.jpg", "lat": 35.383569, "lon": -119.017902}, {"id": "CA_6331859", "address": "2975 Sycamore Drive, Simi Valley, CA, 93065", "city": "Simi Valley", "state": "CA", "type": "Hospital/Clinic", "vertical": "Healthcare", "sqft": 207294.0, "opex": 111102.0869, "valuation": 0.0, "carbon": 197.7933732, "eui": 298.0526692, "image": "CA_6331859_GooglePlaces.jpg", "lat": 34.2891994, "lon": -118.7449442}, {"id": "CA_6331863", "address": "10 Woodland Road, St. Helena, CA, 94574", "city": "Woodland", "state": "CA", "type": "Hospital/Clinic", "vertical": "Healthcare", "sqft": 261911.0, "opex": 99868.42177, "valuation": 0.0, "carbon": 136.4265772, "eui": 202.3817343, "image": "CA_6331863_streetview.jpg", "lat": 38.5425498, "lon": -122.4748281}, {"id": "CA_6343011", "address": "1700 East Cesar E Chavez Avenue, Los Angeles, CA, 90033", "city": "Los Angeles", "state": "CA", "type": "Medical Office/Lab", "vertical": "Healthcare", "sqft": 85497.0, "opex": 93291.7389, "valuation": 1243889.852, "carbon": 65.60650913, "eui": 81.26134193, "image": "CA_6343011_Adventisthealth.jpg", "lat": 34.0509288, "lon": -118.2173883}, {"id": "CA_6344314", "address": "125 Mall Drive, Hanford, CA, 93230", "city": "Hanford", "state": "CA", "type": "Medical Office/Lab", "vertical": "Healthcare", "sqft": 54911.0, "opex": 73860.05509, "valuation": 984800.7345333332, "carbon": 101.395169, "eui": 121.7162226, "image": "CA_6344314_streetview.jpg", "lat": 36.3244813, "lon": -119.6669943}, {"id": "CA_6331860", "address": "115 Mall Drive, Hanford, CA, 93230", "city": "Hanford", "state": "CA", "type": "Hospital/Clinic", "vertical": "Healthcare", "sqft": 202000.0, "opex": 71314.53514, "valuation": 0.0, "carbon": 110.4181513, "eui": 244.2725262, "image": "CA_6331860_AdventistHealth.jpg", "lat": 36.3232171, "lon": -119.667877}, {"id": "CA_6343013", "address": "2700 Chester Avenue, Bakersfield, CA, 93301", "city": "Bakersfield", "state": "CA", "type": "Medical Office/Lab", "vertical": "Healthcare", "sqft": 59692.0, "opex": 62517.88636, "valuation": 833571.8181333333, "carbon": 36.76161815, "eui": 66.03356061, "image": "CA_6343013_streetview.jpg", "lat": 35.3841715, "lon": -119.0179049}, {"id": "CA_6343317", "address": "1560 East Chevy Chase Drive, Glendale, CA, 91206", "city": "Glendale", "state": "CA", "type": "Medical Office/Lab", "vertical": "Healthcare", "sqft": 54217.0, "opex": 62283.19646, "valuation": 830442.6194666667, "carbon": 26.86055379, "eui": 72.19464915, "image": "CA_6343317_AdventistHealth.jpg", "lat": 34.1527044, "lon": -118.2300936}, {"id": "CA_6344313", "address": "1025 North Douty Street, Hanford, CA, 93230", "city": "Hanford", "state": "CA", "type": "Medical Office/Lab", "vertical": "Healthcare", "sqft": 103661.0, "opex": 61740.88548, "valuation": 823211.8064, "carbon": 52.97700181, "eui": 67.00178919, "image": "CA_6344313_GooglePlaces.jpg", "lat": 36.3364863, "lon": -119.6452531}, {"id": "CA_6334378", "address": "1 Marcela Drive, Willits, CA, 95490", "city": "Willits", "state": "CA", "type": "Hospital/Clinic", "vertical": "Healthcare", "sqft": 74000.0, "opex": 59815.79163, "valuation": 0.0, "carbon": 94.43701087, "eui": 347.9761789, "image": "CA_6334378_places.jpg", "lat": 39.3897448, "lon": -123.3387068}, {"id": "CA_6331861", "address": "1100 Magellan Drive, Tehachapi, CA, 93561", "city": "Tehachapi", "state": "CA", "type": "Hospital/Clinic", "vertical": "Healthcare", "sqft": 77791.0, "opex": 59774.6375, "valuation": 0.0, "carbon": 109.2504994, "eui": 361.4552444, "image": "CA_6331861_Adventisthealth.jpg", "lat": 35.1476985, "lon": -118.4509007}, {"id": "CA_6876086", "address": "869 North Cherry Street, Tulare, CA, 93274", "city": "Tulare", "state": "CA", "type": "Hospital/Clinic", "vertical": "Healthcare", "sqft": 169277.0, "opex": 58788.22882, "valuation": 0.0, "carbon": 69.81520284, "eui": 177.4411112, "image": "CA_6876086_streetview.jpg", "lat": 36.2211168, "lon": -119.3385333}, {"id": "PDX_1S2E04A-90000-B1", "address": "10123 SE Market St, Portland, OR, 97216", "city": "Portland", "state": "OR", "type": "Medical Office/Lab", "vertical": "Healthcare", "sqft": 55693.13586, "opex": 43301.33051, "valuation": 577351.0734666667, "carbon": 117.5145643, "eui": 128.4, "image": "", "lat": 45.5128537, "lon": -122.5585121}, {"id": "PDX_1S2E03BC-1201-B1", "address": "10201 SE Main St, Portland, OR, 97216", "city": "Portland", "state": "OR", "type": "Medical Office/Lab", "vertical": "Healthcare", "sqft": 45094.57359, "opex": 40268.45746, "valuation": 536912.7661333333, "carbon": 125.3123378, "eui": 151.9, "image": "", "lat": 45.5146431, "lon": -122.5581796}, {"id": "CA_6334379", "address": "275 Hospital Drive, Ukiah, CA, 95482", "city": "Ukiah", "state": "CA", "type": "Hospital/Clinic", "vertical": "Healthcare", "sqft": 101170.0, "opex": 39148.10728, "valuation": 0.0, "carbon": 50.67880134, "eui": 234.8387764, "image": "CA_6334379_Adventisthealth.jpg", "lat": 39.1530652, "lon": -123.2028906}, {"id": "CA_6343009", "address": "1701 East Cesar E Chavez Avenue, Los Angeles, CA, 90033", "city": "Los Angeles", "state": "CA", "type": "Medical Office/Lab", "vertical": "Healthcare", "sqft": 104012.0, "opex": 35113.38315, "valuation": 468178.442, "carbon": 17.39139254, "eui": 42.85845569, "image": "CA_6343009_AdventistHealth.jpg", "lat": 34.0513785, "lon": -118.2171632}, {"id": "CA_6343083", "address": "800 South Lower Sacramento Road, Lodi, CA, 95242", "city": "Lodi", "state": "CA", "type": "Hospital/Clinic", "vertical": "Healthcare", "sqft": 52398.0, "opex": 31498.21322, "valuation": 0.0, "carbon": 40.30952907, "eui": 86.04965451, "image": "CA_6343083_AdventistHealth.jpg", "lat": 38.1238368, "lon": -121.305638}, {"id": "CA_7533573", "address": "1 Adventist Health Way, Roseville, CA, 95661", "city": "Roseville", "state": "CA", "type": "Hospital/Clinic", "vertical": "Healthcare", "sqft": 276772.0, "opex": 28954.08059, "valuation": 386054.4078666667, "carbon": 18.98616746, "eui": 47.39533118, "image": "CA_7533573_GooglePlaces.jpg", "lat": 38.7564544, "lon": -121.2519709}, {"id": "CA_6349269", "address": "1141 Rose Avenue, Selma, CA, 93662", "city": "Selma", "state": "CA", "type": "Hospital/Clinic", "vertical": "Healthcare", "sqft": 75681.0, "opex": 23315.35209, "valuation": 0.0, "carbon": 23.35756681, "eui": 200.5632089, "image": "CA_6349269_Adventisthealth.jpg", "lat": 36.5673321, "lon": -119.597979}, {"id": "CA_6734601", "address": "1260 Williams Way, Yuba City, CA, 95991", "city": "Yuba City", "state": "CA", "type": "Residential Care Facility", "vertical": "Healthcare", "sqft": 59530.0, "opex": 7716.496682, "valuation": 0.0, "carbon": 14.70687363, "eui": 98.1153704, "image": "CA_6734601_Adventisthealth.jpg", "lat": 39.14997, "lon": -121.6333012}]