[{"id": "CA_34522567", "address": "1019 S. Peach Ave., Fresno, CA, 93727", "city": "Fresno", "state": "CA", "type": "PreK-12", "vertical": "Education", "sqft": 281069.0, "opex": 224688.112, "valuation": 0.0, "carbon": 411.3319009, "eui": 78.70042659, "image": "CA_34522567_Wikiwand.jpg", "lat": 36.7331466, "lon": -119.7169942}, {"id": "CA_34522558", "address": "4250 E. Tulare St., Fresno, CA, 93702", "city": "Fresno", "state": "CA", "type": "PreK-12", "vertical": "Education", "sqft": 267490.0, "opex": 177730.6805, "valuation": 0.0, "carbon": 276.0199211, "eui": 65.80567984, "image": "CA_34522558_places.jpg", "lat": 36.742471, "lon": -119.753492}, {"id": "CA_34522527", "address": "5550 N. First St., Fresno, CA, 93710", "city": "Fresno", "state": "CA", "type": "PreK-12", "vertical": "Education", "sqft": 229236.0, "opex": 157050.3619, "valuation": 0.0, "carbon": 283.5025201, "eui": 76.09423956, "image": "CA_34522527_Wikimediacommons.jpg", "lat": 36.8173917, "lon": -119.7716016}, {"id": "CA_34522508", "address": "2309 Tulare Street, Fresno, CA, 93721", "city": "Fresno", "state": "CA", "type": "PreK-12", "vertical": "Education", "sqft": 85213.0, "opex": 151724.7669, "valuation": 2022996.892, "carbon": 124.6503572, "eui": 84.45883121, "image": "CA_34522508_streetview.jpg", "lat": 36.7367063, "lon": -119.7868896}, {"id": "CA_23992587", "address": "4100 Grantland Avenue, Fresno, CA, 93723", "city": "Fresno", "state": "CA", "type": "PreK-12", "vertical": "Education", "sqft": 415901.0, "opex": 147979.0023, "valuation": 0.0, "carbon": 273.1737653, "eui": 44.92824927, "image": "CA_23992587_Wikipedia.jpg", "lat": 36.7945611, "lon": -119.9125674}, {"id": "CA_34522544", "address": "2727 N. Cedar Ave., Fresno, CA, 93703", "city": "Fresno", "state": "CA", "type": "PreK-12", "vertical": "Education", "sqft": 281087.0, "opex": 121793.077, "valuation": 0.0, "carbon": 222.5906594, "eui": 53.45339984, "image": "CA_34522544_Wikimediacommons.jpg", "lat": 36.7748982, "lon": -119.7558434}, {"id": "CA_34522504", "address": "4330 E. Garland Ave., Fresno, CA, 93726", "city": "Fresno", "state": "CA", "type": "PreK-12", "vertical": "Education", "sqft": 119690.0, "opex": 84217.2991, "valuation": 0.0, "carbon": 118.6479889, "eui": 66.37701857, "image": "CA_34522504_En.jpg", "lat": 36.7843134, "lon": -119.7513728}, {"id": "CA_34522570", "address": "630 N Augusta Street, Fresno, CA, 93701", "city": "Fresno", "state": "CA", "type": "PreK-12", "vertical": "Education", "sqft": 101701.0, "opex": 73120.5529, "valuation": 0.0, "carbon": 94.8364709, "eui": 58.2558143, "image": "CA_34522570_Homes.jpg", "lat": 36.752158, "lon": -119.7791553}, {"id": "CA_34522487", "address": "588 N. Helm, Fresno, CA, 93727", "city": "Fresno", "state": "CA", "type": "PreK-12", "vertical": "Education", "sqft": 64574.0, "opex": 50572.35145, "valuation": 0.0, "carbon": 46.54992674, "eui": 53.81081861, "image": "CA_34522487_Homes.jpg", "lat": 36.7513816, "lon": -119.7217002}, {"id": "CA_34522532", "address": "5117 E. Tulare St., Fresno, CA, 93727", "city": "Fresno", "state": "CA", "type": "PreK-12", "vertical": "Education", "sqft": 92793.0, "opex": 49792.78104, "valuation": 0.0, "carbon": 59.07855969, "eui": 47.08325889, "image": "CA_34522532_Homes.jpg", "lat": 36.743534, "lon": -119.680952}, {"id": "CA_34522480", "address": "2117 W. Mckinley Ave., Fresno, CA, 93728", "city": "Fresno", "state": "CA", "type": "PreK-12", "vertical": "Education", "sqft": 65138.0, "opex": 43743.11667, "valuation": 0.0, "carbon": 44.41392316, "eui": 48.68844965, "image": "CA_34522480_Homes.jpg", "lat": 36.7643706, "lon": -119.8373101}, {"id": "CA_34522535", "address": "4730 E. Lowe Ave., Fresno, CA, 93702", "city": "Fresno", "state": "CA", "type": "PreK-12", "vertical": "Education", "sqft": 58329.0, "opex": 43667.6434, "valuation": 0.0, "carbon": 43.50288745, "eui": 53.70633392, "image": "CA_34522535_Homes.jpg", "lat": 36.7308553, "lon": -119.7403192}, {"id": "CA_34522511", "address": "4873 E. Olive Ave., Fresno, CA, 93727", "city": "Fresno", "state": "CA", "type": "PreK-12", "vertical": "Education", "sqft": 68808.0, "opex": 41771.76639, "valuation": 0.0, "carbon": 42.68928626, "eui": 48.8770329, "image": "CA_34522511_places.jpg", "lat": 36.7589743, "lon": -119.7338945}, {"id": "CA_34522493", "address": "166 N. Sierra Vista Ave., Fresno, CA, 93702", "city": "Fresno", "state": "CA", "type": "PreK-12", "vertical": "Education", "sqft": 62224.0, "opex": 38534.4945, "valuation": 0.0, "carbon": 55.72031761, "eui": 61.3241177, "image": "CA_34522493_Homes.jpg", "lat": 36.743919, "lon": -119.7401156}, {"id": "CA_34522545", "address": "410 E Dennett Avenue, Fresno, CA, 93728", "city": "Fresno", "state": "CA", "type": "PreK-12", "vertical": "Education", "sqft": 52709.0, "opex": 37726.49261, "valuation": 0.0, "carbon": 48.58000619, "eui": 59.68703013, "image": "CA_34522545_Serpapi.jpg", "lat": 36.7553187, "lon": -119.8071089}, {"id": "CA_34522546", "address": "4636 E. Weldon Ave., Fresno, CA, 93703", "city": "Fresno", "state": "CA", "type": "PreK-12", "vertical": "Education", "sqft": 63229.0, "opex": 36600.88778, "valuation": 0.0, "carbon": 41.00733939, "eui": 49.1097262, "image": "CA_34522546_Homes.jpg", "lat": 36.7675045, "lon": -119.7437603}, {"id": "CA_34522583", "address": "3722 E. Lowe St., Fresno, CA, 93702", "city": "Fresno", "state": "CA", "type": "PreK-12", "vertical": "Education", "sqft": 65443.0, "opex": 35865.29811, "valuation": 0.0, "carbon": 36.97391163, "eui": 44.33920859, "image": "CA_34522583_Serpapi.jpg", "lat": 36.7309784, "lon": -119.7621022}, {"id": "CA_34522537", "address": "4420 E. Thomas Ave., Fresno, CA, 93702", "city": "Fresno", "state": "CA", "type": "PreK-12", "vertical": "Education", "sqft": 67224.0, "opex": 35404.08077, "valuation": 0.0, "carbon": 34.11718166, "eui": 41.05244124, "image": "CA_34522537_Homes.jpg", "lat": 36.7520736, "lon": -119.750951}, {"id": "CA_34522513", "address": "1302 E. Dakota Ave., Fresno, CA, 93704", "city": "Fresno", "state": "CA", "type": "PreK-12", "vertical": "Education", "sqft": 84167.0, "opex": 34358.86606, "valuation": 0.0, "carbon": 39.63249533, "eui": 40.215498, "image": "CA_34522513_streetview.jpg", "lat": 36.786036, "lon": -119.7951435}, {"id": "CA_34522574", "address": "3232 E. Fairmont Ave., Fresno, CA, 93726", "city": "Fresno", "state": "CA", "type": "PreK-12", "vertical": "Education", "sqft": 88243.0, "opex": 34290.74967, "valuation": 0.0, "carbon": 33.52200191, "eui": 38.0034335, "image": "CA_34522574_Kmph.jpg", "lat": 36.806174, "lon": -119.76744}, {"id": "CA_34522522", "address": "1533 N. San Pablo Ave., Fresno, CA, 93728", "city": "Fresno", "state": "CA", "type": "PreK-12", "vertical": "Education", "sqft": 53804.0, "opex": 33746.24574, "valuation": 0.0, "carbon": 40.17586783, "eui": 55.14476623, "image": "CA_34522522_Homes.jpg", "lat": 36.7635914, "lon": -119.795641}, {"id": "CA_34522483", "address": "1050 N Glenn Avenue, Fresno, CA, 93728", "city": "Fresno", "state": "CA", "type": "PreK-12", "vertical": "Education", "sqft": 59336.0, "opex": 33328.56777, "valuation": 0.0, "carbon": 33.70070042, "eui": 44.95636728, "image": "", "lat": 36.7561834, "lon": -119.7926116}, {"id": "CA_34522561", "address": "4050 E. Hamilton Ave., Fresno, CA, 93702", "city": "Fresno", "state": "CA", "type": "PreK-12", "vertical": "Education", "sqft": 96014.0, "opex": 33200.48256, "valuation": 0.0, "carbon": 54.07399714, "eui": 42.07193118, "image": "CA_34522561_Homes.jpg", "lat": 36.7238842, "lon": -119.756719}, {"id": "CA_34522579", "address": "4524 N. Thorne Ave., Fresno, CA, 93704", "city": "Fresno", "state": "CA", "type": "PreK-12", "vertical": "Education", "sqft": 82271.0, "opex": 33009.26767, "valuation": 0.0, "carbon": 41.2201533, "eui": 41.296266, "image": "", "lat": 36.7995889, "lon": -119.8126674}, {"id": "CA_34522573", "address": "4444 N. Millbrook Ave., Fresno, CA, 93726", "city": "Fresno", "state": "CA", "type": "PreK-12", "vertical": "Education", "sqft": 51586.0, "opex": 31287.82382, "valuation": 0.0, "carbon": 32.22994477, "eui": 49.04916545, "image": "CA_34522573_Homes.jpg", "lat": 36.7985208, "lon": -119.7640218}, {"id": "CA_34522524", "address": "3550 E. Thomas Ave., Fresno, CA, 93702", "city": "Fresno", "state": "CA", "type": "PreK-12", "vertical": "Education", "sqft": 66264.0, "opex": 31004.27703, "valuation": 0.0, "carbon": 39.78830629, "eui": 43.0457142, "image": "CA_34522524_Homes.jpg", "lat": 36.7518266, "lon": -119.7648164}, {"id": "CA_34522520", "address": "5081 E. Ln. Ave., Fresno, CA, 93727", "city": "Fresno", "state": "CA", "type": "PreK-12", "vertical": "Education", "sqft": 75135.0, "opex": 30784.73443, "valuation": 0.0, "carbon": 28.90253058, "eui": 39.22195185, "image": "CA_34522520_Homes.jpg", "lat": 36.7331942, "lon": -119.7233518}, {"id": "CA_34522559", "address": "3460 E. Mckenzie St., Fresno, CA, 93702", "city": "Fresno", "state": "CA", "type": "PreK-12", "vertical": "Education", "sqft": 59637.0, "opex": 30391.55512, "valuation": 0.0, "carbon": 46.50776121, "eui": 52.33285209, "image": "CA_34522559_Rowell.jpg", "lat": 36.7455388, "lon": -119.7662074}, {"id": "CA_34522505", "address": "5211 E. Tulare St., Fresno, CA, 93727", "city": "Fresno", "state": "CA", "type": "PreK-12", "vertical": "Education", "sqft": 63236.0, "opex": 30074.8635, "valuation": 0.0, "carbon": 35.17460638, "eui": 47.23281732, "image": "CA_34522505_Mapquest.jpg", "lat": 36.74382418, "lon": -119.6746767}, {"id": "CA_34522482", "address": "1127 E. Escalon Ave., Fresno, CA, 93710", "city": "Fresno", "state": "CA", "type": "PreK-12", "vertical": "Education", "sqft": 99046.0, "opex": 29263.00109, "valuation": 0.0, "carbon": 55.22726148, "eui": 39.73386709, "image": "CA_34522482_Wikimediacommons.jpg", "lat": 36.8261526, "lon": -119.7698148}, {"id": "CA_34522571", "address": "1239 W. Mesa Ave., Fresno, CA, 93711", "city": "Fresno", "state": "CA", "type": "PreK-12", "vertical": "Education", "sqft": 92081.0, "opex": 29149.3306, "valuation": 0.0, "carbon": 38.36698029, "eui": 36.44622995, "image": "CA_34522571_Mapquest.jpg", "lat": 36.8237753, "lon": -119.8132892}, {"id": "CA_34522586", "address": "2323 E. Mckenzie, Fresno, CA, 93701", "city": "Fresno", "state": "CA", "type": "PreK-12", "vertical": "Education", "sqft": 64390.0, "opex": 28093.91254, "valuation": 0.0, "carbon": 29.82890723, "eui": 38.78300668, "image": "CA_34522586_streetview.jpg", "lat": 36.7474777, "lon": -119.7827737}, {"id": "CA_34522560", "address": "3216 N. Sierra Vista, Fresno, CA, 93726", "city": "Fresno", "state": "CA", "type": "PreK-12", "vertical": "Education", "sqft": 89241.0, "opex": 27192.11604, "valuation": 0.0, "carbon": 36.72151882, "eui": 35.64524602, "image": "CA_34522560_Homes.jpg", "lat": 36.7814348, "lon": -119.7397536}, {"id": "CA_34522496", "address": "3830 E. Saginaw Way, Fresno, CA, 93726", "city": "Fresno", "state": "CA", "type": "PreK-12", "vertical": "Education", "sqft": 53210.0, "opex": 27013.51454, "valuation": 0.0, "carbon": 33.58394365, "eui": 45.81154351, "image": "CA_34522496_Centennial.jpg", "lat": 36.7883512, "lon": -119.7604737}, {"id": "CA_34522555", "address": "4140 N. Augusta Ave., Fresno, CA, 93726", "city": "Fresno", "state": "CA", "type": "PreK-12", "vertical": "Education", "sqft": 59334.0, "opex": 26813.78127, "valuation": 0.0, "carbon": 24.36447941, "eui": 37.06544654, "image": "CA_34522555_Homes.jpg", "lat": 36.7937763, "lon": -119.7782055}, {"id": "CA_34522575", "address": "5218 E. Clay Ave., Fresno, CA, 93727", "city": "Fresno", "state": "CA", "type": "PreK-12", "vertical": "Education", "sqft": 51619.0, "opex": 26433.84994, "valuation": 0.0, "carbon": 30.71935785, "eui": 44.3846183, "image": "CA_34522575_Homes.jpg", "lat": 36.7548004, "lon": -119.717492}, {"id": "CA_34522577", "address": "4251 N. Winery Ave., Fresno, CA, 93726", "city": "Fresno", "state": "CA", "type": "PreK-12", "vertical": "Education", "sqft": 51829.0, "opex": 26076.09654, "valuation": 0.0, "carbon": 28.94052306, "eui": 42.45053559, "image": "CA_34522577_Serpapi.jpg", "lat": 36.7949578, "lon": -119.7324222}, {"id": "CA_34522542", "address": "3305 E. Home Ave., Fresno, CA, 93703", "city": "Fresno", "state": "CA", "type": "PreK-12", "vertical": "Education", "sqft": 53445.0, "opex": 25870.18997, "valuation": 0.0, "carbon": 10.24750425, "eui": 34.01912927, "image": "CA_34522542_Homes.jpg", "lat": 36.7633921, "lon": -119.769425}, {"id": "CA_23992589", "address": "2045 N Dickenson Ave., Fresno, CA, 93723", "city": "Fresno", "state": "CA", "type": "PreK-12", "vertical": "Education", "sqft": 136926.0, "opex": 25741.4919, "valuation": 0.0, "carbon": 9.036730991, "eui": 20.60403941, "image": "CA_23992589_Serpapi.jpg", "lat": 36.7652147, "lon": -119.9704852}, {"id": "CA_34522488", "address": "4625 E. Florence Ave., Fresno, CA, 93725", "city": "Fresno", "state": "CA", "type": "PreK-12", "vertical": "Education", "sqft": 61944.0, "opex": 25442.21166, "valuation": 0.0, "carbon": 22.37120346, "eui": 38.01033768, "image": "CA_34522488_Homes.jpg", "lat": 36.7184954, "lon": -119.7420158}, {"id": "CA_34522510", "address": "4774 E. Yale Ave., Fresno, CA, 93703", "city": "Fresno", "state": "CA", "type": "PreK-12", "vertical": "Education", "sqft": 53005.0, "opex": 23511.89356, "valuation": 0.0, "carbon": 37.10630068, "eui": 52.86645788, "image": "CA_34522510_Homes.jpg", "lat": 36.7695777, "lon": -119.7374674}, {"id": "CA_34522548", "address": "550 S. Garden Ave., Fresno, CA, 93727", "city": "Fresno", "state": "CA", "type": "PreK-12", "vertical": "Education", "sqft": 66014.0, "opex": 22113.47919, "valuation": 0.0, "carbon": 8.759424348, "eui": 31.79122004, "image": "CA_34522548_Homes.jpg", "lat": 36.7378257, "lon": -119.735003}, {"id": "CA_34522514", "address": "1005 W Weldon Avenue, Fresno, CA, 93705", "city": "Fresno", "state": "CA", "type": "PreK-12", "vertical": "Education", "sqft": 50397.0, "opex": 21910.11686, "valuation": 0.0, "carbon": 17.69537482, "eui": 38.5681007, "image": "CA_34522514_Fremont.jpg", "lat": 36.7673955, "lon": -119.8225869}, {"id": "CA_27555207", "address": "1850 S. Fowler Ave, Fresno, CA, 93727", "city": "Fresno", "state": "CA", "type": "PreK-12", "vertical": "Education", "sqft": 298403.0, "opex": 19575.39427, "valuation": 0.0, "carbon": 43.30237693, "eui": 16.69101388, "image": "CA_27555207_places.jpg", "lat": 36.7092613, "lon": -119.6813648}, {"id": "CA_6456790", "address": "1820 S. Armstrong Ave., Fresno, CA, 93727", "city": "Fresno", "state": "CA", "type": "PreK-12", "vertical": "Education", "sqft": 56243.0, "opex": 19276.22241, "valuation": 0.0, "carbon": 7.20130224, "eui": 33.36429245, "image": "CA_6456790_Homes.jpg", "lat": 36.7101475, "lon": -119.6720075}, {"id": "CA_6456778", "address": "6350 E. Ln. Ave., Fresno, CA, 93727", "city": "Fresno", "state": "CA", "type": "PreK-12", "vertical": "Education", "sqft": 54393.0, "opex": 19016.00539, "valuation": 0.0, "carbon": 22.98586072, "eui": 36.84076444, "image": "CA_6456778_Homes.jpg", "lat": 36.7341825, "lon": -119.6760813}, {"id": "CA_34522484", "address": "5272 E. Lowe Ave., Fresno, CA, 93727", "city": "Fresno", "state": "CA", "type": "PreK-12", "vertical": "Education", "sqft": 62804.0, "opex": 18975.64284, "valuation": 0.0, "carbon": 7.089010304, "eui": 30.40358098, "image": "CA_34522484_Homes.jpg", "lat": 36.7304939, "lon": -119.7142565}, {"id": "CA_34522490", "address": "3034 E. Cornell Ave., Fresno, CA, 93703", "city": "Fresno", "state": "CA", "type": "PreK-12", "vertical": "Education", "sqft": 59576.0, "opex": 16602.82327, "valuation": 0.0, "carbon": 23.40168404, "eui": 33.49492077, "image": "CA_34522490_Birney.jpg", "lat": 36.777256, "lon": -119.7742993}, {"id": "CA_34522523", "address": "5090 E Church Avenue, Fresno, CA, 93725", "city": "Fresno", "state": "CA", "type": "PreK-12", "vertical": "Education", "sqft": 85242.0, "opex": 16034.82087, "valuation": 0.0, "carbon": 20.41822009, "eui": 29.55614838, "image": "CA_34522523_Publicschoolreview.jpg", "lat": 36.7131464, "lon": -119.7241234}, {"id": "CA_34522576", "address": "4100 E. Heaton Ave., Fresno, CA, 93702", "city": "Fresno", "state": "CA", "type": "PreK-12", "vertical": "Education", "sqft": 65791.0, "opex": 14506.94191, "valuation": 0.0, "carbon": 15.50285431, "eui": 31.27291575, "image": "CA_34522576_Homes.jpg", "lat": 36.7262829, "lon": -119.7555364}, {"id": "CA_34522581", "address": "525 W. Saginaw, Fresno, CA, 93705", "city": "Fresno", "state": "CA", "type": "PreK-12", "vertical": "Education", "sqft": 58334.0, "opex": 13972.11185, "valuation": 0.0, "carbon": 4.695167805, "eui": 29.43445161, "image": "CA_34522581_Homes.jpg", "lat": 36.788018, "lon": -119.8179385}, {"id": "CA_23992576", "address": "6265 N. Grantland Ave., Fresno, CA, 93723", "city": "Fresno", "state": "CA", "type": "PreK-12", "vertical": "Education", "sqft": 54039.0, "opex": 8154.495787, "valuation": 0.0, "carbon": 8.439045672, "eui": 19.74163104, "image": "CA_23992576_Homes.jpg", "lat": 36.8269165, "lon": -119.9184416}, {"id": "CA_23992593", "address": "4055 N. Bryan Ave., Fresno, CA, 93723", "city": "Fresno", "state": "CA", "type": "PreK-12", "vertical": "Education", "sqft": 98977.0, "opex": 6136.782461, "valuation": 0.0, "carbon": 10.44980168, "eui": 8.05115734, "image": "CA_23992593_Homes.jpg", "lat": 36.7952805, "lon": -119.9094043}, {"id": "CA_23992579", "address": "6514 W. Gettysburg Ave., Fresno, CA, 93723", "city": "Fresno", "state": "CA", "type": "PreK-12", "vertical": "Education", "sqft": 64166.0, "opex": 3620.868411, "valuation": 0.0, "carbon": 6.16566695, "eui": 7.327564442, "image": "CA_23992579_Homes.jpg", "lat": 36.8000069, "lon": -119.9088248}]