[{"id": "CA_34287239", "address": "824 Washington St., Fairfield, CA, 94533", "city": "Fairfield", "state": "CA", "type": "PreK-12", "vertical": "Education", "sqft": 248537.0, "opex": 32834.89611, "valuation": 0.0, "carbon": 11.03378994, "eui": 12.02277549, "image": "CA_34287239_En.jpg", "lat": 38.250141, "lon": -122.0361543}, {"id": "CA_34287237", "address": "1975 Blossom Ave., Fairfield, CA, 94533", "city": "Fairfield", "state": "CA", "type": "PreK-12", "vertical": "Education", "sqft": 93598.0, "opex": 29222.46527, "valuation": 0.0, "carbon": 11.35594369, "eui": 23.14584881, "image": "CA_34287237_Homes.jpg", "lat": 38.264089, "lon": -122.0164706}, {"id": "CA_34287240", "address": "205 E. Atlantic Ave., Fairfield, CA, 94533", "city": "Fairfield", "state": "CA", "type": "PreK-12", "vertical": "Education", "sqft": 166999.0, "opex": 28875.81547, "valuation": 0.0, "carbon": 9.703386327, "eui": 15.73549937, "image": "", "lat": 38.2758264, "lon": -122.0310478}, {"id": "CA_34287246", "address": "230 Atlantic Ave., Fairfield, CA, 94533", "city": "Fairfield", "state": "CA", "type": "PreK-12", "vertical": "Education", "sqft": 82863.0, "opex": 12017.32634, "valuation": 0.0, "carbon": 4.038284571, "eui": 13.19797632, "image": "CA_34287246_Homes.jpg", "lat": 38.2774622, "lon": -122.0388061}, {"id": "CA_34287217", "address": "1600 Kidder Ave., Fairfield, CA, 94533", "city": "Fairfield", "state": "CA", "type": "PreK-12", "vertical": "Education", "sqft": 58656.0, "opex": 6179.572792, "valuation": 0.0, "carbon": 2.076574503, "eui": 9.587118112, "image": "CA_34287217_Fairfieldsuisununifi.jpg", "lat": 38.2589844, "lon": -122.028228}]