[{"id": "CA_6331455", "address": "3030 Plaza Bonita Road, National City, CA, 91950", "city": "National City", "state": "CA", "type": "Strip/Enclosed Mall", "vertical": "Commercial", "sqft": 816000.0, "opex": 579358.7272, "valuation": 7724783.029333333, "carbon": 405.1717158, "eui": 56.33664338, "image": "CA_6331455_streetview.jpg", "lat": 32.6562124, "lon": -117.0658009}, {"id": "CA_4417990", "address": "8500 Beverly Boulevard, Los Angeles, CA, 90048", "city": "Los Angeles", "state": "CA", "type": "Strip/Enclosed Mall", "vertical": "Commercial", "sqft": 860748.0, "opex": 536235.1346, "valuation": 7149801.794666667, "carbon": 122.6626336, "eui": 52.17334899, "image": "CA_4417990_streetview.jpg", "lat": 34.0753309, "lon": -118.3774933}, {"id": "CA_18459995", "address": "4200 Chino Hills Pkwy, Chino Hills, CA, 91709", "city": "Chino Hills", "state": "CA", "type": "Strip/Enclosed Mall", "vertical": "Commercial", "sqft": 128599.0, "opex": 346158.8834, "valuation": 5128279.754074073, "carbon": 1130.284818, "eui": 698.4504615, "image": "CA_18459995_streetview.jpg", "lat": 33.9843087, "lon": -117.7146733}, {"id": "CA_6265489", "address": "7677 Balboa Avenue, San Diego, CA, 92111", "city": "San Diego", "state": "CA", "type": "Gym", "vertical": "Commercial", "sqft": 117410.0, "opex": 313451.2011, "valuation": 4477874.301428571, "carbon": 309.2790258, "eui": 154.5834445, "image": "CA_6265489_Serpapi.jpg", "lat": 32.8213365, "lon": -117.1587817}, {"id": "LA_451220858019", "address": "8000 W Sunset Blvd, Los Angeles, CA 90046", "city": "Los Angeles", "state": "CA", "type": "Strip/Enclosed Mall", "vertical": "Commercial", "sqft": 169775.0, "opex": 286303.1867, "valuation": 4241528.6918518515, "carbon": 60.4061684, "eui": 103.3, "image": "LA_451220858019_Google.jpg", "lat": 34.0977093, "lon": -118.3651435}, {"id": "CA_18079334", "address": "4112 Fremont Hub, Fremont, CA, 94538", "city": "Fremont", "state": "CA", "type": "Strip/Enclosed Mall", "vertical": "Commercial", "sqft": 121677.0, "opex": 282202.1448, "valuation": 4180772.515555555, "carbon": 131.4932549, "eui": 128.531322, "image": "CA_18079334_Serpapi.jpg", "lat": 37.5464965, "lon": -121.9884544}, {"id": "DC_5482604", "address": "3100 14th St NW, Washington, DC 20010", "city": "Washington", "state": "DC", "type": "Strip/Enclosed Mall", "vertical": "Commercial", "sqft": 546000.0, "opex": 278300.1996, "valuation": 3710669.328, "carbon": 239.970345, "eui": 73.32432941, "image": "DC_5482604_streetview.jpg", "lat": 38.92930077, "lon": -77.03298372}, {"id": "LA_392489910908", "address": "19500 Plummer St, Los Angeles, CA, 91324", "city": "Los Angeles", "state": "CA", "type": "Strip/Enclosed Mall", "vertical": "Commercial", "sqft": 112040.0, "opex": 200640.7805, "valuation": 2972456.0074074073, "carbon": 46.82993233, "eui": 121.3509559, "image": "LA_392489910908_streetview.jpg", "lat": 34.2415026, "lon": -118.5590062}, {"id": "NYC_5024600098", "address": "2845 Richmond Avenue, New York, NY, 10314", "city": "New York", "state": "NY", "type": "Strip/Enclosed Mall", "vertical": "Commercial", "sqft": 268362.0, "opex": 190141.6876, "valuation": 2816913.8903703704, "carbon": 172.4557759, "eui": 93.13388595, "image": "NYC_5024600098_cyclomedia.jpg", "lat": 40.576529, "lon": -74.169752}, {"id": "CA_6735882", "address": "2055 Sebastopol Road, Santa Rosa, CA, 95407", "city": "Santa Rosa", "state": "CA", "type": "Strip/Enclosed Mall", "vertical": "Commercial", "sqft": 194569.0, "opex": 188618.4489, "valuation": 2794347.391111111, "carbon": 142.0901807, "eui": 85.42168932, "image": "CA_6735882_Serpapi.jpg", "lat": 38.4269128, "lon": -122.742122}, {"id": "CA_17951825", "address": "302 West El Norte Parkway, Escondido, CA, 92026", "city": "Escondido", "state": "CA", "type": "Strip/Enclosed Mall", "vertical": "Commercial", "sqft": 131437.0, "opex": 183845.7957, "valuation": 2723641.4177777776, "carbon": 89.38853412, "eui": 92.32978667, "image": "CA_17951825_Yelp.jpg", "lat": 33.1404639, "lon": -117.0937961}, {"id": "CA_21027414", "address": "35730 Fremont Boulevard, Fremont, CA, 94536", "city": "Fremont", "state": "CA", "type": "Strip/Enclosed Mall", "vertical": "Commercial", "sqft": 123192.0, "opex": 179333.882, "valuation": 2656798.251851852, "carbon": 78.74120209, "eui": 90.40654125, "image": "CA_21027414_Serpapi.jpg", "lat": 37.5678224, "lon": -122.0239981}, {"id": "CA_19390291", "address": "1757 Capitol Expressway, San Jose, CA, 95121", "city": "San Jose", "state": "CA", "type": "Strip/Enclosed Mall", "vertical": "Commercial", "sqft": 102994.0, "opex": 179093.2003, "valuation": 2653232.597037037, "carbon": 155.3010546, "eui": 147.0374859, "image": "CA_19390291_streetview.jpg", "lat": 37.3092204, "lon": -121.8114866}, {"id": "DC_5486533", "address": "5335 Wisconsin Ave NW, Washington, DC, 20015", "city": "Washington", "state": "DC", "type": "Hospital/Clinic", "vertical": "Healthcare", "sqft": 527731.0, "opex": 176896.1754, "valuation": 0.0, "carbon": 208.5823535, "eui": 153.0833943, "image": "DC_5486533_Loopnet.jpg", "lat": 38.96045493, "lon": -77.08467313}, {"id": "CA_18059114", "address": "9910 Mission Gorge Road, Santee, CA, 92071", "city": "Santee", "state": "CA", "type": "Strip/Enclosed Mall", "vertical": "Commercial", "sqft": 118560.0, "opex": 165207.6606, "valuation": 2447520.8977777776, "carbon": 222.1245402, "eui": 165.0541479, "image": "CA_18059114_Loopnet.jpg", "lat": 32.8407412, "lon": -116.9801396}, {"id": "CA_7069937", "address": "3305 Rosecrans Street, San Diego, CA, 92110", "city": "San Diego", "state": "CA", "type": "Strip/Enclosed Mall", "vertical": "Commercial", "sqft": 125615.0, "opex": 149228.8022, "valuation": 2210797.0696296296, "carbon": 88.83537941, "eui": 86.83407173, "image": "CA_7069937_Yelp.jpg", "lat": 32.747893, "lon": -117.2071832}, {"id": "CA_21375421", "address": "32413 California 79, Temecula, CA, 92592", "city": "Temecula", "state": "CA", "type": "Strip/Enclosed Mall", "vertical": "Commercial", "sqft": 86666.0, "opex": 145378.853, "valuation": 2153760.7851851853, "carbon": 92.63019019, "eui": 112.1798537, "image": "CA_21375421_streetview.jpg", "lat": 33.4809362, "lon": -117.0918195}, {"id": "DC_5480030", "address": "5335 Wisconsin Ave NW, Washington, DC 20015", "city": "Washington", "state": "DC", "type": "Strip/Enclosed Mall", "vertical": "Commercial", "sqft": 407391.0, "opex": 138112.4512, "valuation": 1841499.3493333336, "carbon": 115.5014192, "eui": 54.30025987, "image": "DC_5480030_streetview.jpg", "lat": 38.9601254, "lon": -77.08484432}, {"id": "CA_21642364", "address": "6633 Westminster, Westminster, CA, 92683", "city": "Westminster", "state": "CA", "type": "Retail/Consumer Services", "vertical": "Commercial", "sqft": 102220.0, "opex": 135284.1123, "valuation": 2164545.7968, "carbon": 273.3919548, "eui": 177.1520145, "image": "CA_21642364_Serpapi.jpg", "lat": 33.7612141, "lon": -118.0129011}, {"id": "CA_6735876", "address": "6755 Westminster Blvd, Westminster, CA, 92683", "city": "Westminster", "state": "CA", "type": "Strip/Enclosed Mall", "vertical": "Commercial", "sqft": 174747.0, "opex": 113749.6844, "valuation": 1685180.5096296296, "carbon": 65.09459371, "eui": 62.74667371, "image": "CA_6735876_Serpapi.jpg", "lat": 33.7604604, "lon": -118.0089116}, {"id": "CA_17738484", "address": "5864 Edinger Avenue, Huntington Beach, CA, 92649", "city": "Huntington Beach", "state": "CA", "type": "Strip/Enclosed Mall", "vertical": "Commercial", "sqft": 90579.0, "opex": 104971.7279, "valuation": 1555136.7096296295, "carbon": 90.31729153, "eui": 111.5684829, "image": "CA_17738484_Serpapi.jpg", "lat": 33.7295927, "lon": -118.0250643}, {"id": "CA_18459988", "address": "4200 Chino Hills Parkway, Chino Hills, CA, 91709", "city": "Chino Hills", "state": "CA", "type": "Strip/Enclosed Mall", "vertical": "Commercial", "sqft": 97320.0, "opex": 99554.32688, "valuation": 1474878.9167407406, "carbon": 202.3661813, "eui": 187.7482445, "image": "CA_18459988_streetview.jpg", "lat": 33.9843885, "lon": -117.7144368}, {"id": "CA_18028402", "address": "1076 Irvine Boulevard, Tustin, CA, 92780", "city": "Tustin", "state": "CA", "type": "Strip/Enclosed Mall", "vertical": "Commercial", "sqft": 124411.0, "opex": 94734.98409, "valuation": 1403481.2457777776, "carbon": 76.55634576, "eui": 79.87481407, "image": "CA_18028402_streetview.jpg", "lat": 33.7478322, "lon": -117.8110964}, {"id": "CA_17976067", "address": "2500 Vista Way, Oceanside, CA, 92054", "city": "Oceanside", "state": "CA", "type": "Strip/Enclosed Mall", "vertical": "Commercial", "sqft": 60439.0, "opex": 90851.47636, "valuation": 1345947.7979259258, "carbon": 58.26310326, "eui": 106.2389064, "image": "CA_17976067_Serpapi.jpg", "lat": 33.1839061, "lon": -117.3335057}, {"id": "CA_18069748", "address": "19800 Hawthorne Boulevard, Torrance, CA, 90503", "city": "Torrance", "state": "CA", "type": "Strip/Enclosed Mall", "vertical": "Commercial", "sqft": 246125.0, "opex": 80694.39507, "valuation": 1195472.5195555554, "carbon": 39.85183265, "eui": 37.00626495, "image": "CA_18069748_Serpapi.jpg", "lat": 33.8534432, "lon": -118.3525699}, {"id": "CA_41108492", "address": "13925 City Center Drive, Chino Hills, CA, 91709", "city": "Chino Hills", "state": "CA", "type": "Strip/Enclosed Mall", "vertical": "Commercial", "sqft": 85427.0, "opex": 80164.65472, "valuation": 1187624.5143703704, "carbon": 82.82408108, "eui": 101.850627, "image": "CA_41108492_Serpapi.jpg", "lat": 34.0005043, "lon": -117.7295703}, {"id": "CA_17976084", "address": "1340 Artesia Boulevard, Gardena, CA, 90248", "city": "Gardena", "state": "CA", "type": "Strip/Enclosed Mall", "vertical": "Commercial", "sqft": 57030.0, "opex": 75262.60284, "valuation": 1115001.5235555556, "carbon": 61.21582572, "eui": 122.9813602, "image": "CA_17976084_streetview.jpg", "lat": 33.872055, "lon": -118.2971515}, {"id": "CA_18059060", "address": "9884 Mission Gorge Road, Santee, CA, 92071", "city": "Santee", "state": "CA", "type": "Strip/Enclosed Mall", "vertical": "Commercial", "sqft": 87295.0, "opex": 73348.85617, "valuation": 1086649.721037037, "carbon": 34.20855312, "eui": 65.57472213, "image": "CA_18059060_streetview.jpg", "lat": 32.8419955, "lon": -116.9803877}, {"id": "CA_18057836", "address": "2514 Jamacha Road, El Cajon, CA, 92019", "city": "El Cajon", "state": "CA", "type": "Strip/Enclosed Mall", "vertical": "Commercial", "sqft": 69330.0, "opex": 70520.4663, "valuation": 1044747.6488888888, "carbon": 49.3411114, "eui": 91.03806145, "image": "CA_18057836_streetview.jpg", "lat": 32.7459959, "lon": -116.930147}, {"id": "CA_3640221", "address": "440 North Euclid Street, Anaheim, CA, 92801", "city": "Anaheim", "state": "CA", "type": "Grocery/Supercenter", "vertical": "Commercial", "sqft": 149908.0, "opex": 70370.50847, "valuation": 1223834.9299130435, "carbon": 48.34841867, "eui": 68.55353877, "image": "CA_3640221_Reitnotes.jpg", "lat": 33.8363509, "lon": -117.9378978}, {"id": "CA_21311409", "address": "7884 Dublin Boulevard, Dublin, CA, 94568", "city": "Dublin", "state": "CA", "type": "Strip/Enclosed Mall", "vertical": "Commercial", "sqft": 155821.0, "opex": 60080.08653, "valuation": 890075.3559999999, "carbon": 26.82727574, "eui": 36.29582792, "image": "CA_21311409_streetview.jpg", "lat": 37.7024673, "lon": -121.931012}, {"id": "CA_17831442", "address": "20800 Mission Boulevard, Hayward, CA, 94541", "city": "Hayward", "state": "CA", "type": "Strip/Enclosed Mall", "vertical": "Commercial", "sqft": 68556.0, "opex": 53594.4139, "valuation": 793991.317037037, "carbon": 70.7923561, "eui": 102.1547111, "image": "CA_17831442_streetview.jpg", "lat": 37.6853262, "lon": -122.0987453}, {"id": "CA_17976119", "address": "25850 Mcbean Parkway, Santa Clarita, CA, 91355", "city": "Santa Clarita", "state": "CA", "type": "Strip/Enclosed Mall", "vertical": "Commercial", "sqft": 103267.0, "opex": 49220.8498, "valuation": 729197.7748148148, "carbon": 60.16716771, "eui": 73.91290743, "image": "CA_17976119_Serpapi.jpg", "lat": 34.4030055, "lon": -118.5504105}, {"id": "CA_21642572", "address": "6721 Westminster, Westminster, CA, 92683", "city": "Westminster", "state": "CA", "type": "Strip/Enclosed Mall", "vertical": "Commercial", "sqft": 77619.0, "opex": 48176.5381, "valuation": 713726.4903703703, "carbon": 45.1386662, "eui": 77.16825706, "image": "CA_21642572_streetview.jpg", "lat": 33.7596163, "lon": -118.0107406}, {"id": "CA_17808650", "address": "15210 Rosecrans Ave, La Mirada, CA, 90638", "city": "La Mirada", "state": "CA", "type": "Retail/Consumer Services", "vertical": "Commercial", "sqft": 84069.0, "opex": 41236.01277, "valuation": 659776.20432, "carbon": 30.54331627, "eui": 51.98986956, "image": "CA_17808650_streetview.jpg", "lat": 33.8970611, "lon": -118.0069894}, {"id": "CA_6265536", "address": "2320 Foothill Boulevard, La Verne, CA, 91750", "city": "La Verne", "state": "CA", "type": "Strip/Enclosed Mall", "vertical": "Commercial", "sqft": 69353.0, "opex": 40653.53646, "valuation": 602274.6142222222, "carbon": 48.23254767, "eui": 83.3099503, "image": "CA_6265536_Serpapi.jpg", "lat": 34.1107546, "lon": -117.7617895}, {"id": "PHL_96671", "address": "7301 Castor Avenue, Philadelphia, PA, 19152", "city": "Philadelphia", "state": "PA", "type": "Strip/Enclosed Mall", "vertical": "Commercial", "sqft": 182289.0, "opex": 40377.46317, "valuation": 598184.6395555555, "carbon": 36.6058937, "eui": 49.78966498, "image": "PHL_96671_Serpapi.jpg", "lat": 40.05144229, "lon": -75.06434916}, {"id": "CA_17817613", "address": "1822 Marron Road, Carlsbad, CA, 92008", "city": "Carlsbad", "state": "CA", "type": "Strip/Enclosed Mall", "vertical": "Commercial", "sqft": 92730.0, "opex": 39427.3006, "valuation": 584108.1570370371, "carbon": 13.34959607, "eui": 35.11731822, "image": "CA_17817613_streetview.jpg", "lat": 33.178605, "lon": -117.3390725}, {"id": "CA_6285687", "address": "11900 South Street, Cerritos, CA, 90703", "city": "Cerritos", "state": "CA", "type": "Strip/Enclosed Mall", "vertical": "Commercial", "sqft": 91334.0, "opex": 35679.02594, "valuation": 528578.162074074, "carbon": 9.672939661, "eui": 36.51183218, "image": "CA_6285687_streetview.jpg", "lat": 33.8581047, "lon": -118.0804897}, {"id": "CA_17951850", "address": "15100 Hesperian Boulevard, San Leandro, CA, 94578", "city": "San Leandro", "state": "CA", "type": "Retail/Consumer Services", "vertical": "Commercial", "sqft": 59830.0, "opex": 30829.7465, "valuation": 493275.944, "carbon": 7.204716712, "eui": 32.88737423, "image": "CA_17951850_streetview.jpg", "lat": 37.700949, "lon": -122.1294505}, {"id": "NYC_3083520001", "address": "2231 Ralph Avenue, New York, NY, 11234", "city": "New York", "state": "NY", "type": "Strip/Enclosed Mall", "vertical": "Commercial", "sqft": 46562.0, "opex": 30036.56924, "valuation": 444986.21096296294, "carbon": 13.64793275, "eui": 74.40548516, "image": "NYC_3083520001_Serpapi.jpg", "lat": 40.623369, "lon": -73.917658}, {"id": "CA_6681923", "address": "7100 Santa Monica Boulevard, West Hollywood, CA, 90046", "city": "West Hollywood", "state": "CA", "type": "Retail/Consumer Services", "vertical": "Commercial", "sqft": 50211.0, "opex": 29703.5089, "valuation": 475256.1424, "carbon": 10.41204917, "eui": 43.21611607, "image": "CA_6681923_Loopnet.jpg", "lat": 34.0901536, "lon": -118.3458103}, {"id": "NYC_5003940001", "address": "1520 Forest Avenue, New York, NY, 10302", "city": "New York", "state": "NY", "type": "Strip/Enclosed Mall", "vertical": "Commercial", "sqft": 46093.0, "opex": 29532.60557, "valuation": 437520.0825185185, "carbon": 26.38108067, "eui": 100.1094938, "image": "NYC_5003940001_Serpapi.jpg", "lat": 40.62434, "lon": -74.139152}, {"id": "CA_6262420", "address": "9080 Brooks Road South, Windsor, CA, 95492", "city": "Windsor", "state": "CA", "type": "Grocery/Supercenter", "vertical": "Commercial", "sqft": 70778.0, "opex": 29220.02405, "valuation": 487000.4008333334, "carbon": 21.56318955, "eui": 157.2383532, "image": "CA_6262420_Serpapi.jpg", "lat": 38.5516553, "lon": -122.8065101}, {"id": "CA_7105182", "address": "4421 University Avenue, San Diego, CA, 92105", "city": "San Diego", "state": "CA", "type": "Grocery/Supercenter", "vertical": "Commercial", "sqft": 77009.0, "opex": 25997.70343, "valuation": 433295.0571666667, "carbon": 14.86634079, "eui": 123.2536359, "image": "CA_7105182_Serpapi.jpg", "lat": 32.7484831, "lon": -117.0993645}, {"id": "CA_17984509", "address": "282 South Mountain Avenue, Upland, CA, 91786", "city": "Upland", "state": "CA", "type": "Strip/Enclosed Mall", "vertical": "Commercial", "sqft": 89159.0, "opex": 25606.4495, "valuation": 379354.8074074074, "carbon": 15.65130196, "eui": 38.59276378, "image": "CA_17984509_streetview.jpg", "lat": 34.0907439, "lon": -117.6698125}, {"id": "CA_6424649", "address": "91 Colma Boulevard, Colma, CA, 94014", "city": "Colma", "state": "CA", "type": "Retail/Consumer Services", "vertical": "Commercial", "sqft": 81366.0, "opex": 23464.02566, "valuation": 375424.41056, "carbon": 26.11061841, "eui": 50.77760686, "image": "CA_6424649_Reitnotes.jpg", "lat": 37.6784016, "lon": -122.4651011}, {"id": "PHL_97157", "address": "2101-41 Cottman Ave., Philadelphia, PA, 19149", "city": "Philadelphia", "state": "PA", "type": "Strip/Enclosed Mall", "vertical": "Commercial", "sqft": 82732.0, "opex": 22723.2233, "valuation": 336640.3451851852, "carbon": 12.96945545, "eui": 46.803215, "image": "PHL_97157_GooglePlaces.jpg", "lat": 40.0505382, "lon": -75.0616622}, {"id": "CA_6265560", "address": "1401 North Montebello Boulevard, Montebello, CA, 90640", "city": "Montebello", "state": "CA", "type": "Strip/Enclosed Mall", "vertical": "Commercial", "sqft": 192016.0, "opex": 22108.39154, "valuation": 327531.7265185185, "carbon": 10.46881195, "eui": 13.01369469, "image": "CA_6265560_Serpapi.jpg", "lat": 34.0331988, "lon": -118.095582}, {"id": "CA_6262401", "address": "1407 Fulton Road, Santa Rosa, CA, 95403", "city": "Santa Rosa", "state": "CA", "type": "Grocery/Supercenter", "vertical": "Commercial", "sqft": 76826.0, "opex": 20558.47727, "valuation": 342641.28783333336, "carbon": 10.62573255, "eui": 105.7655532, "image": "CA_6262401_streetview.jpg", "lat": 38.4539553, "lon": -122.7712408}, {"id": "CA_18079344", "address": "4020 Fremont Hub, Fremont, CA, 94538", "city": "Fremont", "state": "CA", "type": "Strip/Enclosed Mall", "vertical": "Commercial", "sqft": 66364.0, "opex": 20357.65425, "valuation": 301594.8777777777, "carbon": 12.21051105, "eui": 36.27420657, "image": "CA_18079344_Serpapi.jpg", "lat": 37.5470532, "lon": -121.988099}, {"id": "CA_17463842", "address": "4304 Las Positas Road, Livermore, CA, 94550", "city": "Livermore", "state": "CA", "type": "Strip/Enclosed Mall", "vertical": "Commercial", "sqft": 59372.0, "opex": 20254.41551, "valuation": 300065.4149629629, "carbon": 9.367821519, "eui": 35.44941947, "image": "CA_17463842_streetview.jpg", "lat": 37.7016524, "lon": -121.7457102}, {"id": "CA_18184329", "address": "15740 La Forge Street, Whittier, CA, 90603", "city": "Whittier", "state": "CA", "type": "Grocery/Supercenter", "vertical": "Commercial", "sqft": 60137.0, "opex": 18162.56578, "valuation": 302709.42966666666, "carbon": 15.02602256, "eui": 147.9350892, "image": "CA_18184329_Serpapi.jpg", "lat": 33.9409539, "lon": -117.9943627}, {"id": "CA_17984238", "address": "494 East 1St Street, Tustin, CA, 92780", "city": "Tustin", "state": "CA", "type": "Strip/Enclosed Mall", "vertical": "Commercial", "sqft": 77568.0, "opex": 15613.55038, "valuation": 231311.85748148148, "carbon": 10.3908214, "eui": 28.0804818, "image": "CA_17984238_streetview.jpg", "lat": 33.7453692, "lon": -117.8184221}, {"id": "CA_6265590", "address": "26419 Ynez Road, Temecula, CA, 92591", "city": "Temecula", "state": "CA", "type": "Grocery/Supercenter", "vertical": "Commercial", "sqft": 96810.0, "opex": 15348.23347, "valuation": 255803.89116666667, "carbon": 8.783112174, "eui": 84.72105258, "image": "CA_6265590_GooglePlaces.jpg", "lat": 33.522769, "lon": -117.1608495}, {"id": "CA_6735884", "address": "655 South Rancho Santa Fe Road, San Marcos, CA, 92078", "city": "San Marcos", "state": "CA", "type": "Strip/Enclosed Mall", "vertical": "Commercial", "sqft": 64411.0, "opex": 13355.23451, "valuation": 197855.32607407405, "carbon": 16.66938039, "eui": 42.4520734, "image": "CA_6735884_Serpapi.jpg", "lat": 33.1329062, "lon": -117.2050726}, {"id": "CA_21326511", "address": "2455 Vista Way, Oceanside, CA, 92054", "city": "Oceanside", "state": "CA", "type": "Strip/Enclosed Mall", "vertical": "Commercial", "sqft": 107692.0, "opex": 12876.43628, "valuation": 190762.01896296296, "carbon": 9.351233558, "eui": 15.5247377, "image": "CA_21326511_streetview.jpg", "lat": 33.1826897, "lon": -117.3334911}, {"id": "NYC_3067770050", "address": "1401 Kings Highway, New York, NY, 11229", "city": "New York", "state": "NY", "type": "Retail/Consumer Services", "vertical": "Commercial", "sqft": 25700.0, "opex": 12811.82944, "valuation": 256236.58879999997, "carbon": 13.05196146, "eui": 62.07464591, "image": "NYC_3067770050_Serpapi.jpg", "lat": 40.608445, "lon": -73.959033}, {"id": "CA_6265598", "address": "16450 Beach Boulevard, Westminster, CA, 92683", "city": "Westminster", "state": "CA", "type": "Grocery/Supercenter", "vertical": "Commercial", "sqft": 137989.0, "opex": 10030.75862, "valuation": 167179.31033333336, "carbon": 9.556836956, "eui": 42.67418391, "image": "CA_6265598_Serpapi.jpg", "lat": 33.7243174, "lon": -117.9877745}, {"id": "NYC_5039010017", "address": "2424 Hylan Boulevard, New York, NY, 10306", "city": "New York", "state": "NY", "type": "Retail/Consumer Services", "vertical": "Commercial", "sqft": 57835.0, "opex": 9449.275026, "valuation": 188985.50051999997, "carbon": 17.70218009, "eui": 36.07385493, "image": "NYC_5039010017_Serpapi.jpg", "lat": 40.571986, "lon": -74.10822}, {"id": "CA_17984487", "address": "540 East 1St Street, Tustin, CA, 92780", "city": "Tustin", "state": "CA", "type": "Strip/Enclosed Mall", "vertical": "Commercial", "sqft": 53970.0, "opex": 8108.318104, "valuation": 120123.23117037036, "carbon": 11.24073624, "eui": 35.80903424, "image": "CA_17984487_Serpapi.jpg", "lat": 33.7436028, "lon": -117.8182027}, {"id": "CA_6264206", "address": "8425 Elk Grove Florin Road, Elk Grove, CA, 95624", "city": "Elk Grove", "state": "CA", "type": "Grocery/Supercenter", "vertical": "Commercial", "sqft": 74704.0, "opex": 1178.460051, "valuation": 19641.00085, "carbon": 2.362306485, "eui": 15.72434274, "image": "CA_6264206_Serpapi.jpg", "lat": 38.4513834, "lon": -121.3700608}]