[{"id": "CA_15666885", "address": "3250 Monroe St., Santa Clara, CA, 95051", "city": "Santa Clara", "state": "CA", "type": "PreK-12", "vertical": "Education", "sqft": 243381.0, "opex": 171502.1368, "valuation": 0.0, "carbon": 312.8727873, "eui": 72.72484664, "image": "CA_15666885_Wikipedia.jpg", "lat": 37.366294, "lon": -121.985401}, {"id": "CA_15666915", "address": "3000 Benton St., Santa Clara, CA, 95051", "city": "Santa Clara", "state": "CA", "type": "PreK-12", "vertical": "Education", "sqft": 225349.0, "opex": 122740.0788, "valuation": 0.0, "carbon": 191.5596243, "eui": 50.5498434, "image": "CA_15666915_Homes.jpg", "lat": 37.3462778, "lon": -121.9821359}, {"id": "CA_15666898", "address": "2550 Cabrillo Ave., Santa Clara, CA, 95051", "city": "Santa Clara", "state": "CA", "type": "PreK-12", "vertical": "Education", "sqft": 103403.0, "opex": 46992.95867, "valuation": 0.0, "carbon": 48.0146049, "eui": 34.06203745, "image": "CA_15666898_places.jpg", "lat": 37.3583033, "lon": -121.9722833}, {"id": "CA_15666897", "address": "1111 Bellomy St., Santa Clara, CA, 95050", "city": "Santa Clara", "state": "CA", "type": "PreK-12", "vertical": "Education", "sqft": 176373.0, "opex": 24211.32995, "valuation": 0.0, "carbon": 30.0376841, "eui": 20.18751503, "image": "CA_15666897_Serpapi.jpg", "lat": 37.3455151, "lon": -121.9427922}, {"id": "CA_15666836", "address": "955 Teal Dr., Santa Clara, CA, 95051", "city": "Santa Clara", "state": "CA", "type": "PreK-12", "vertical": "Education", "sqft": 61485.0, "opex": 12977.02815, "valuation": 0.0, "carbon": 14.1737785, "eui": 23.19289324, "image": "CA_15666836_Homes.jpg", "lat": 37.3432087, "lon": -122.0018249}]