[{"id": "NYC_1000780004", "address": "4 Dutch St, New York, NY, 10038", "city": "New York", "state": "NY", "type": "Office", "vertical": "Commercial", "sqft": 493039.0, "opex": 250656.4026, "valuation": 3580805.751428571, "carbon": 642.6477644, "eui": 50.57785064, "image": "NYC_1000780004_AWS.jpg", "lat": 40.7093197, "lon": -74.0070766}, {"id": "NYC_1005210037", "address": "26 Bleecker Street, New York, NY, 10012", "city": "New York", "state": "NY", "type": "Office", "vertical": "Commercial", "sqft": 43365.0, "opex": 64808.18587, "valuation": 925831.2267142856, "carbon": 33.96702407, "eui": 94.99288597, "image": "NYC_1005210037_streetview.jpg", "lat": 40.725564, "lon": -73.993488}, {"id": "DEN_1524", "address": "7155 E 38Th Ave, Denver, CO, 80207", "city": "Denver", "state": "CO", "type": "Hospital/Clinic", "vertical": "Healthcare", "sqft": 51953.0, "opex": 14401.38096, "valuation": 0.0, "carbon": 60.96868092, "eui": 80.77726984, "image": "DEN_1524_Serpapi.jpg", "lat": 39.7697485, "lon": -104.9048409}, {"id": "DC_5479698", "address": "1225 4th St NE, Washington, DC 20002", "city": "Washington", "state": "DC", "type": "Medical Office/Lab", "vertical": "Healthcare", "sqft": 25930.0, "opex": 11753.72494, "valuation": 156716.33253333333, "carbon": 6.255582481, "eui": 51.69587914, "image": "DC_5479698_GooglePlaces.jpg", "lat": 38.90631626, "lon": -77.00025664}, {"id": "PDX_1N1E22DD-13700-B1", "address": "3727 NE Martin Luther King Jr Blvd, Portland, OR, 97212", "city": "Portland", "state": "OR", "type": "Hospital/Clinic", "vertical": "Healthcare", "sqft": 42008.65466, "opex": 7251.526736, "valuation": 0.0, "carbon": 9.994354198, "eui": 52.1, "image": "", "lat": 45.549815, "lon": -122.6618329}]