[{"id": "NYC_1013100065", "address": "116 E 56th St, New York, NY, 10022", "city": "New York", "state": "NY", "type": "Office", "vertical": "Commercial", "sqft": 84543.0, "opex": 44809.4394, "valuation": 640134.8485714286, "carbon": 109.349187, "eui": 56.33632589, "image": "NYC_1013100065_AWS.jpg", "lat": 40.7604762, "lon": -73.9706624}, {"id": "NYC_1008790009", "address": "115 E. 23Rd Street, New York, NY, 10010", "city": "New York", "state": "NY", "type": "Office", "vertical": "Commercial", "sqft": 68735.0, "opex": 43077.95042, "valuation": 615399.2917142856, "carbon": 74.04928117, "eui": 70.90132974, "image": "NYC_1008790009_cyclomedia.jpg", "lat": 40.739872, "lon": -73.985584}, {"id": "NYC_1008670064", "address": "10 E 38Th Street, New York, NY, 10016", "city": "New York", "state": "NY", "type": "Office", "vertical": "Commercial", "sqft": 56495.0, "opex": 35645.81014, "valuation": 509225.85914285714, "carbon": 80.84820659, "eui": 62.78201965, "image": "NYC_1008670064_streetview.jpg", "lat": 40.750642, "lon": -73.98199}, {"id": "NYC_1008370052", "address": "8 West 36Th Street, New York, NY, 10018", "city": "New York", "state": "NY", "type": "Office", "vertical": "Commercial", "sqft": 34430.0, "opex": 31947.46648, "valuation": 456392.37828571425, "carbon": 72.7271047, "eui": 120.2649259, "image": "NYC_1008370052_streetview.jpg", "lat": 40.749903, "lon": -73.984069}, {"id": "NYC_1008130040", "address": "102 West 38Th Street, New York, NY, 10018", "city": "New York", "state": "NY", "type": "Office", "vertical": "Commercial", "sqft": 43920.0, "opex": 21750.95341, "valuation": 310727.9058571428, "carbon": 20.11177559, "eui": 64.25362933, "image": "NYC_1008130040_cyclomedia.jpg", "lat": 40.752426, "lon": -73.986227}, {"id": "NYC_4002410001", "address": "33-02 Skillman Avenue, New York, NY, 11101", "city": "New York", "state": "NY", "type": "Office", "vertical": "Commercial", "sqft": 99000.0, "opex": 18569.7113, "valuation": 265281.58999999997, "carbon": 38.05080599, "eui": 33.64144949, "image": "NYC_4002410001_cyclomedia.jpg", "lat": 40.746728, "lon": -73.931112}]