[{"id": "CA_35055323", "address": "3630 East Imperial Highway, Lynwood, CA, 90262", "city": "Lynwood", "state": "CA", "type": "Hospital/Clinic", "vertical": "Healthcare", "sqft": 535956.0, "opex": 303299.0028, "valuation": 0.0, "carbon": 579.4771698, "eui": 279.940286, "image": "CA_35055323_StFrancisMedicalCent.jpg", "lat": 33.930826, "lon": -118.203228}, {"id": "CA_11908548", "address": "2400 East 4Th Street, National City, CA, 91950", "city": "National City", "state": "CA", "type": "Hospital/Clinic", "vertical": "Healthcare", "sqft": 221000.0, "opex": 188421.2484, "valuation": 0.0, "carbon": 371.0568247, "eui": 401.7850084, "image": "CA_11908548_streetview.jpg", "lat": 32.6851132, "lon": -117.0828852}, {"id": "CA_11907050", "address": "930 Myrtle Avenue, Inglewood, CA, 90301", "city": "Inglewood", "state": "CA", "type": "Hospital/Clinic", "vertical": "Healthcare", "sqft": 349000.0, "opex": 109631.0356, "valuation": 0.0, "carbon": 229.2772574, "eui": 237.7406955, "image": "CA_11907050_energystar.jpg", "lat": 33.9518048, "lon": -118.3491812}, {"id": "CA_12422105", "address": "3300 East Guasti Road, Ontario, CA, 91761", "city": "Ontario", "state": "CA", "type": "Medical Office/Lab", "vertical": "Healthcare", "sqft": 65281.0, "opex": 59542.08187, "valuation": 793894.4249333334, "carbon": 73.34789457, "eui": 82.34553199, "image": "CA_12422105_streetview.jpg", "lat": 34.064276, "lon": -117.5782568}, {"id": "LA_414404879917", "address": "16237 Ventura Blvd, Los Angeles, CA, 91436", "city": "Los Angeles", "state": "CA", "type": "Hospital/Clinic", "vertical": "Healthcare", "sqft": 126260.0, "opex": 49054.26288, "valuation": 0.0, "carbon": 75.95452375, "eui": 224.954646, "image": "LA_414404879917_energystar.png", "lat": 34.1575077, "lon": -118.4865788}, {"id": "CA_11907151", "address": "5451 Walnut Avenue, Chino, CA, 91710", "city": "Chino", "state": "CA", "type": "Hospital/Clinic", "vertical": "Healthcare", "sqft": 111078.0, "opex": 48259.67707, "valuation": 0.0, "carbon": 162.6612725, "eui": 366.824681, "image": "CA_11907151_cvmccom.jpg", "lat": 34.0255159, "lon": -117.6860029}, {"id": "CA_11907345", "address": "12601 Garden Grove Boulevard, Garden Grove, CA, 92843", "city": "Garden Grove", "state": "CA", "type": "Hospital/Clinic", "vertical": "Healthcare", "sqft": 144150.0, "opex": 44073.96802, "valuation": 0.0, "carbon": 77.31559481, "eui": 217.6396105, "image": "CA_11907345_energystar.jpg", "lat": 33.7750066, "lon": -117.9129079}, {"id": "CA_11908785", "address": "3033 West Orange Avenue, Anaheim, CA, 92804", "city": "Anaheim", "state": "CA", "type": "Hospital/Clinic", "vertical": "Healthcare", "sqft": 159000.0, "opex": 43099.76254, "valuation": 0.0, "carbon": 57.00822573, "eui": 194.9445311, "image": "CA_11908785_energystar.jpg", "lat": 33.8252217, "lon": -117.9950032}, {"id": "CA_11908575", "address": "1350 West Covina Boulevard, San Dimas, CA, 91773", "city": "San Dimas", "state": "CA", "type": "Hospital/Clinic", "vertical": "Healthcare", "sqft": 78000.0, "opex": 40740.37312, "valuation": 0.0, "carbon": 106.773841, "eui": 371.0507823, "image": "CA_11908575_energystar.jpg", "lat": 34.097533, "lon": -117.8345314}, {"id": "CA_11907300", "address": "12555 Garden Grove Boulevard, Garden Grove, CA, 92843", "city": "Garden Grove", "state": "CA", "type": "Medical Office/Lab", "vertical": "Healthcare", "sqft": 57487.0, "opex": 40118.48233, "valuation": 534913.0977333334, "carbon": 64.54308589, "eui": 80.27615513, "image": "CA_11907300_gardengrovehospitalc.jpg", "lat": 33.774997, "lon": -117.9138304}, {"id": "PHL_246535", "address": "5800 Ridge Ave, Philadelphia, PA, 19128", "city": "Philadelphia", "state": "PA", "type": "Hospital/Clinic", "vertical": "Healthcare", "sqft": 220718.0, "opex": 37640.40739, "valuation": 0.0, "carbon": 32.8094484, "eui": 267.0396843, "image": "PHL_246535_Serpapi.jpg", "lat": 40.02915402, "lon": -75.21202622}, {"id": "CA_11907364", "address": "17772 Beach Boulevard, Huntington Beach, CA, 92647", "city": "Huntington Beach", "state": "CA", "type": "Hospital/Clinic", "vertical": "Healthcare", "sqft": 110767.0, "opex": 33370.05166, "valuation": 0.0, "carbon": 49.37237414, "eui": 196.6195407, "image": "CA_11907364_streetview.jpg", "lat": 33.7037638, "lon": -117.9864477}, {"id": "CA_11908892", "address": "4929 Van Nuys Blvd, Sherman Oaks, CA, 91403", "city": "Sherman Oaks", "state": "CA", "type": "Hospital/Clinic", "vertical": "Healthcare", "sqft": 93170.0, "opex": 31060.44493, "valuation": 0.0, "carbon": 89.07432943, "eui": 341.8315101, "image": "CA_11908892_energystar.jpg", "lat": 34.160328, "lon": -118.449161}, {"id": "CA_11908611", "address": "5000 San Bernardino Street, Montclair, CA, 91763", "city": "Montclair", "state": "CA", "type": "Hospital/Clinic", "vertical": "Healthcare", "sqft": 74857.0, "opex": 20116.85163, "valuation": 0.0, "carbon": 84.12755229, "eui": 357.7063388, "image": "CA_11908611_Serpapi.jpg", "lat": 34.0787364, "lon": -117.6960075}, {"id": "CA_11907411", "address": "7901 Walker Street, La Palma, CA, 90623", "city": "La Palma", "state": "CA", "type": "Hospital/Clinic", "vertical": "Healthcare", "sqft": 101574.0, "opex": 18037.03531, "valuation": 0.0, "carbon": 27.26190341, "eui": 162.0509565, "image": "CA_11907411_lapalmaintercommunit.jpg", "lat": 33.847375, "lon": -118.0381861}]