[{"id": "CA_6262475", "address": "217 Soscol Avenue, Napa, CA, 94559", "city": "Napa", "state": "CA", "type": "Retail/Consumer Services", "vertical": "Commercial", "sqft": 60890.0, "opex": 163739.7751, "valuation": 2619836.4016, "carbon": 131.3237872, "eui": 176.5776484, "image": "CA_6262475_streetview.jpg", "lat": 38.2834315, "lon": -122.2776174}, {"id": "CA_27459603", "address": "500 West Capitol Avenue, West Sacramento, CA, 95605", "city": "West Sacramento", "state": "CA", "type": "Office", "vertical": "Commercial", "sqft": 69620.0, "opex": 143432.0173, "valuation": 1912426.8973333335, "carbon": 114.2150135, "eui": 96.06561907, "image": "CA_27459603_streetview.jpg", "lat": 38.5829793, "lon": -121.5145811}, {"id": "CA_16103368", "address": "4720 Elk Grove Boulevard, Elk Grove, CA, 95758", "city": "Elk Grove", "state": "CA", "type": "Strip/Enclosed Mall", "vertical": "Commercial", "sqft": 103760.0, "opex": 103802.7053, "valuation": 1537817.8562962962, "carbon": 43.79022093, "eui": 84.82461719, "image": "CA_16103368_streetview.jpg", "lat": 38.4078666, "lon": -121.4496408}, {"id": "CA_6465957", "address": "194 Blue Ravine Road, Folsom, CA, 95630", "city": "Folsom", "state": "CA", "type": "Grocery/Supercenter", "vertical": "Commercial", "sqft": 100214.0, "opex": 49169.3445, "valuation": 819489.0750000001, "carbon": 27.2195162, "eui": 171.6953521, "image": "CA_6465957_Serpapi.jpg", "lat": 38.6558018, "lon": -121.1779514}, {"id": "CA_6766858", "address": "166 Placerville Drive, Placerville, CA, 95667", "city": "Placerville", "state": "CA", "type": "Grocery/Supercenter", "vertical": "Commercial", "sqft": 62827.0, "opex": 27469.33262, "valuation": 457822.21033333335, "carbon": 3.797146596, "eui": 105.3914298, "image": "CA_6766858_Serpapi.jpg", "lat": 38.7271194, "lon": -120.8352686}, {"id": "CA_27444194", "address": "25025 Blue Ravine Road, Folsom, CA, 95630", "city": "Folsom", "state": "CA", "type": "Grocery/Supercenter", "vertical": "Commercial", "sqft": 73812.0, "opex": 16102.31074, "valuation": 268371.8456666667, "carbon": 11.97204205, "eui": 108.5724991, "image": "CA_27444194_streetview.jpg", "lat": 38.6889153, "lon": -121.1225195}, {"id": "CA_27443832", "address": "725 South Main Street, Red Bluff, CA, 96080", "city": "Red Bluff", "state": "CA", "type": "Grocery/Supercenter", "vertical": "Commercial", "sqft": 64486.0, "opex": 15538.49056, "valuation": 258974.8426666667, "carbon": 6.52320639, "eui": 104.9618685, "image": "CA_27443832_Serpapi.jpg", "lat": 40.16312, "lon": -122.2294036}, {"id": "CA_55320792", "address": "3550 North G Street, Merced, CA, 95340", "city": "Merced", "state": "CA", "type": "Grocery/Supercenter", "vertical": "Commercial", "sqft": 60114.0, "opex": 15383.76064, "valuation": 256396.01066666667, "carbon": 6.029750077, "eui": 111.1655934, "image": "CA_55320792_Serpapi.jpg", "lat": 37.3319096, "lon": -120.4676315}]