[{"id": "STL_371", "address": "660 S Euclid Ave, St. Louis, MO, 63110", "city": "St. Louis", "state": "MO", "type": "Higher Ed", "vertical": "Education", "sqft": 4412671.0, "opex": 1189450.141, "valuation": 0.0, "carbon": 2482.891037, "eui": 116.2, "image": "STL_371_Sustainabilitywashu.jpg", "lat": 38.6348724, "lon": -90.2630882}, {"id": "STL_213", "address": "600 S Taylor Ave, St. Louis, MO, 63110", "city": "St. Louis", "state": "MO", "type": "Office", "vertical": "Commercial", "sqft": 103950.0, "opex": 228319.075, "valuation": 2686106.7647058824, "carbon": 59.37543449, "eui": 70.1, "image": "STL_213_Serpapi.jpg", "lat": 38.6347991, "lon": -90.2589297}, {"id": "STL_197", "address": "501 S Euclid Ave, Ontario, CA, 91762", "city": "Ontario", "state": "CA", "type": "Medical Office/Lab", "vertical": "Healthcare", "sqft": 372795.0, "opex": 146990.6554, "valuation": 0.0, "carbon": 38.08202628, "eui": 415.8, "image": "STL_197_Serpapi.jpg", "lat": 34.0588095, "lon": -117.6505007}, {"id": "STL_348", "address": "4565 McKinley Ave, Los Angeles, CA, 90011", "city": "Los Angeles", "state": "CA", "type": "Medical Office/Lab", "vertical": "Healthcare", "sqft": 317229.0, "opex": 105618.2273, "valuation": 0.0, "carbon": 16.91660197, "eui": 351.1, "image": "STL_348_Serpapi.jpg", "lat": 34.001709, "lon": -118.2608744}, {"id": "STL_217", "address": "4480 Clayton Ave, St. Louis, MO, 63110", "city": "St. Louis", "state": "MO", "type": "Office", "vertical": "Commercial", "sqft": 80824.0, "opex": 46403.17948, "valuation": 545919.7585882352, "carbon": 63.4960906, "eui": 87.6, "image": "STL_217_Serpapi.jpg", "lat": 38.6325415, "lon": -90.2595103}, {"id": "STL_351", "address": "4515 McKinley Ave, Los Angeles, CA, 90011", "city": "Los Angeles", "state": "CA", "type": "Medical Office/Lab", "vertical": "Healthcare", "sqft": 215754.0, "opex": 45795.09433, "valuation": 0.0, "carbon": 6.617418447, "eui": 172.8, "image": "STL_351_GooglePlaces.jpg", "lat": 34.0019987, "lon": -118.2610563}, {"id": "STL_369", "address": "4546 McKinley Ave, Los Angeles, CA, 90011", "city": "Los Angeles", "state": "CA", "type": "Medical Office/Lab", "vertical": "Healthcare", "sqft": 55890.0, "opex": 37008.88866, "valuation": 0.0, "carbon": 5.927619257, "eui": 735.7, "image": "", "lat": 34.0022032, "lon": -118.2608761}, {"id": "STL_358", "address": "520 S Euclid Ave, St. Louis, MO, 63110", "city": "St. Louis", "state": "MO", "type": "Higher Ed", "vertical": "Education", "sqft": 113992.0, "opex": 33501.12116, "valuation": 0.0, "carbon": 69.93116446, "eui": 102.9, "image": "STL_358_Meetwustl.jpg", "lat": 38.635362, "lon": -90.2628577}, {"id": "STL_355", "address": "1 Brookings Dr, St. Louis, MO, 63130", "city": "St. Louis", "state": "MO", "type": "Medical Office/Lab", "vertical": "Healthcare", "sqft": 117556.0, "opex": 19822.67815, "valuation": 0.0, "carbon": 29.9772838, "eui": 223.7, "image": "STL_355_Happeningsatwashu.jpg", "lat": 38.6471178, "lon": -90.3026148}, {"id": "STL_368", "address": "4577 McKinley Ave, Los Angeles, CA, 90011", "city": "Los Angeles", "state": "CA", "type": "Medical Office/Lab", "vertical": "Healthcare", "sqft": 56173.0, "opex": 18762.45877, "valuation": 0.0, "carbon": 3.005135144, "eui": 371.1, "image": "", "lat": 34.0016855, "lon": -118.2608743}, {"id": "STL_357", "address": "4525 Scott Ave, St. Louis, MO, 63110", "city": "St. Louis", "state": "MO", "type": "Medical Office/Lab", "vertical": "Healthcare", "sqft": 125837.0, "opex": 14196.42815, "valuation": 0.0, "carbon": 19.62564633, "eui": 130.7, "image": "STL_357_streetview.jpg", "lat": 38.6352853, "lon": -90.2608541}, {"id": "STL_437", "address": "6201 Forsyth Blvd, St. Louis, MO, 63105", "city": "St. Louis", "state": "MO", "type": "Higher Ed", "vertical": "Education", "sqft": 80600.0, "opex": 12348.14902, "valuation": 0.0, "carbon": 23.40196131, "eui": 59.2, "image": "STL_437_Educationsnapshots.jpg", "lat": 38.6484211, "lon": -90.3031414}, {"id": "STL_365", "address": "4560 Clayton Ave, St. Louis, MO, 63110", "city": "St. Louis", "state": "MO", "type": "Medical Office/Lab", "vertical": "Healthcare", "sqft": 71438.0, "opex": 10150.61106, "valuation": 0.0, "carbon": 15.35048625, "eui": 202.8, "image": "STL_365_streetview.jpg", "lat": 38.6326476, "lon": -90.2634244}, {"id": "STL_201", "address": "4511 Forest Park Ave, St. Louis, MO, 63108", "city": "St. Louis", "state": "MO", "type": "Medical Office/Lab", "vertical": "Healthcare", "sqft": 52988.0, "opex": 7439.953033, "valuation": 0.0, "carbon": 11.25123366, "eui": 200.4, "image": "STL_201_GooglePlaces.jpg", "lat": 38.6389483, "lon": -90.2598064}]