[{"id": "BOS_104911", "address": "1 Post Office Sq, Boston, MA, 02110", "city": "Boston", "state": "MA", "type": "Office", "vertical": "Commercial", "sqft": 1122570.0, "opex": 790040.7144, "valuation": 11286295.92, "carbon": 594.0007121, "eui": 43.73921047, "image": "BOS_104911_Yelp.jpg", "lat": 42.3569331, "lon": -71.0550896}, {"id": "CHI_103689", "address": "433 West Harrison Street, Chicago, IL, 60607", "city": "Chicago", "state": "IL", "type": "Office", "vertical": "Commercial", "sqft": 2493160.0, "opex": 753091.2481, "valuation": 9413640.60125, "carbon": 3244.958229, "eui": 46.66804445, "image": "CHI_103689_Curbedchicago.jpg", "lat": 41.905863, "lon": -87.628892}, {"id": "NYC_1013280001", "address": "909 3 Ave, New York, NY 10022", "city": "New York", "state": "NY", "type": "Office", "vertical": "Commercial", "sqft": 1278510.0, "opex": 483110.2799, "valuation": 6901575.427142857, "carbon": 669.1501402, "eui": 53.5342347, "image": "NYC_1013280001_AWS.jpg", "lat": 40.7583293, "lon": -73.9679886}, {"id": "DC_5473322", "address": "2001 M St NW, Washington, DC 20036", "city": "Washington", "state": "DC", "type": "Office", "vertical": "Commercial", "sqft": 300748.0, "opex": 156906.9519, "valuation": 2241527.884285714, "carbon": 55.90751096, "eui": 34.03900545, "image": "DC_5473322_buildingurl.jpg", "lat": 38.90616814, "lon": -77.04525092}, {"id": "CAM_1431", "address": "125 Mt Auburn St, Cambridge, MA 02138", "city": "Cambridge", "state": "MA", "type": "Office", "vertical": "Commercial", "sqft": 46085.0, "opex": 114715.4724, "valuation": 1638792.4628571428, "carbon": 65.33753972, "eui": 91.88812412, "image": "CAM_1431_Serpapi.jpg", "lat": 42.3736, "lon": -71.1228}, {"id": "CA_6812731", "address": "325 North Maple Drive, Beverly Hills, CA, 90210", "city": "Beverly Hills", "state": "CA", "type": "Office", "vertical": "Commercial", "sqft": 94589.0, "opex": 47891.9248, "valuation": 638558.9973333334, "carbon": 15.72441457, "eui": 36.75441416, "image": "CA_6812731_energystar.png", "lat": 34.0731276, "lon": -118.3941285}]