[{"id": "BOS_105713", "address": "3 Center Plz, Boston, MA, 02108", "city": "Boston", "state": "MA", "type": "Office", "vertical": "Commercial", "sqft": 741231.0, "opex": 751036.969, "valuation": 10729099.557142856, "carbon": 953.6264495, "eui": 73.4165897, "image": "BOS_105713_Serpapi.jpg", "lat": 42.3592362, "lon": -71.0601491}, {"id": "BOS_105631", "address": "2 Drydock Ave, Boston, MA, 02210", "city": "Boston", "state": "MA", "type": "Office", "vertical": "Commercial", "sqft": 227683.0, "opex": 203398.269, "valuation": 2905689.557142857, "carbon": 153.7447744, "eui": 53.52880979, "image": "BOS_105631_streetview.jpg", "lat": 42.3448377, "lon": -71.0373666}, {"id": "BOS_106009", "address": "253 Summer St, Boston, MA, 02127", "city": "Boston", "state": "MA", "type": "Office", "vertical": "Commercial", "sqft": 216012.0, "opex": 198262.6654, "valuation": 2832323.791428571, "carbon": 225.4019214, "eui": 67.34272355, "image": "BOS_106009_streetview.jpg", "lat": 42.3500003, "lon": -71.0511696}, {"id": "BOS_105992", "address": "441 Stuart St, Boston, MA, 02116", "city": "Boston", "state": "MA", "type": "Gym", "vertical": "Commercial", "sqft": 172346.0, "opex": 128535.4396, "valuation": 1836220.5657142857, "carbon": 83.66500298, "eui": 56.1476054, "image": "BOS_105992_streetview.jpg", "lat": 42.3486374, "lon": -71.0758921}, {"id": "BOS_102489", "address": "305 Congress St, Boston, MA, 02210", "city": "Boston", "state": "MA", "type": "Office", "vertical": "Commercial", "sqft": 84589.0, "opex": 80896.56978, "valuation": 1155665.2825714285, "carbon": 64.9181136, "eui": 57.53802267, "image": "BOS_102489_Serpapi.jpg", "lat": 42.3512486, "lon": -71.0506005}, {"id": "BOS_103762", "address": "22-40 Chauncy St, Boston, MA, 02111", "city": "Boston", "state": "MA", "type": "Office", "vertical": "Commercial", "sqft": 152958.0, "opex": 67689.36555, "valuation": 966990.9364285714, "carbon": 57.56245091, "eui": 33.08123145, "image": "BOS_103762_Serpapi.jpg", "lat": 42.3539109, "lon": -71.059633}, {"id": "BOS_103770", "address": "83-87 Summer St, Boston, MA, 02110", "city": "Boston", "state": "MA", "type": "Office", "vertical": "Commercial", "sqft": 29094.0, "opex": 33167.50904, "valuation": 473821.5577142856, "carbon": 49.25791239, "eui": 91.78033959, "image": "BOS_103770_streetview.jpg", "lat": 42.353827, "lon": -71.058657}, {"id": "BOS_103767", "address": "75-79 Summer St, Boston, MA, 02110", "city": "Boston", "state": "MA", "type": "Retail/Consumer Services", "vertical": "Commercial", "sqft": 62246.0, "opex": 29992.71826, "valuation": 428467.4037142857, "carbon": 7.867418149, "eui": 73.7984497, "image": "BOS_103767_streetview.jpg", "lat": 42.3540197, "lon": -71.058879}, {"id": "BOS_100724", "address": "61 Melcher St, Boston, MA, 02210", "city": "Boston", "state": "MA", "type": "Office", "vertical": "Commercial", "sqft": 110000.0, "opex": 14263.99838, "valuation": 203771.40542857145, "carbon": 30.85819223, "eui": 19.08243909, "image": "BOS_100724_Bostonplanning.jpg", "lat": 42.3491086, "lon": -71.0499205}]