[{"id": "SEA_8692000000", "address": "300 Boren Ave N, Seattle, WA, 98109", "city": "Seattle", "state": "WA", "type": "Office", "vertical": "Commercial", "sqft": 802928.0, "opex": 336897.7459, "valuation": 4491969.945333334, "carbon": 225.0386825, "eui": 40.64715641, "image": "SEA_8692000000_Perkinswill.jpg", "lat": 47.62107, "lon": -122.33553}, {"id": "SEA_1975700305", "address": "1425 4Th Ave, Seattle, WA, 98101", "city": "Seattle", "state": "WA", "type": "Office", "vertical": "Commercial", "sqft": 109266.0, "opex": 256694.9539, "valuation": 3422599.385333333, "carbon": 84.25902177, "eui": 39.92082624, "image": "SEA_1975700305_Weaverarchitects.jpg", "lat": 47.60991, "lon": -122.33687}, {"id": "SEA_942000030", "address": "1191 2Nd Ave, Seattle, WA, 98101", "city": "Seattle", "state": "WA", "type": "Office", "vertical": "Commercial", "sqft": 438072.0, "opex": 118034.8711, "valuation": 1573798.281333333, "carbon": 125.8522293, "eui": 35.08085885, "image": "SEA_942000030_streetview.jpg", "lat": 47.60614, "lon": -122.33674}, {"id": "SEA_4083306985", "address": "1621 N 34Th St, Seattle, WA, 98103", "city": "Seattle", "state": "WA", "type": "Office", "vertical": "Commercial", "sqft": 220902.0, "opex": 70778.91355, "valuation": 943718.8473333332, "carbon": 53.29608927, "eui": 36.32213832, "image": "SEA_4083306985_streetview.jpg", "lat": 47.6479, "lon": -122.33814}, {"id": "SEA_7666206220", "address": "2200 1St Ave S, Seattle, WA, 98134", "city": "Seattle", "state": "WA", "type": "Office", "vertical": "Commercial", "sqft": 103200.0, "opex": 52151.88858, "valuation": 695358.5144, "carbon": 1.323345894, "eui": 41.99943798, "image": "SEA_7666206220_places.jpg", "lat": 47.58361, "lon": -122.33369}, {"id": "SEA_942000025", "address": "1101 2Nd Ave, Seattle, WA, 98101", "city": "Seattle", "state": "WA", "type": "Office", "vertical": "Commercial", "sqft": 87315.0, "opex": 46303.62724, "valuation": 617381.6965333334, "carbon": 1.212123182, "eui": 45.89167955, "image": "SEA_942000025_Serpapi.jpg", "lat": 47.60581, "lon": -122.33664}, {"id": "SEA_209000030", "address": "500 Yale Ave N, Seattle, WA, 98109", "city": "Seattle", "state": "WA", "type": "Office", "vertical": "Commercial", "sqft": 71421.0, "opex": 17895.80153, "valuation": 238610.6870666667, "carbon": 0.410998887, "eui": 21.34786687, "image": "SEA_209000030_Serpapi.jpg", "lat": 47.62323, "lon": -122.33028}]