[{"id": "NYC_3001320023", "address": "11 Metrotech Center, New York, NY, 11201", "city": "New York", "state": "NY", "type": "Office", "vertical": "Commercial", "sqft": 216000.0, "opex": 3945856.169, "valuation": 56369373.84285714, "carbon": 2156.73084, "eui": 727.2851866, "image": "NYC_3001320023_Serpapi.jpg", "lat": 40.695426, "lon": -73.985103}, {"id": "NYC_1000047501", "address": "1 Water Street, New York, NY, 10004", "city": "New York", "state": "NY", "type": "Office", "vertical": "Commercial", "sqft": 2542563.0, "opex": 2958453.072, "valuation": 42263615.31428571, "carbon": 5624.055773, "eui": 84.14881692, "image": "NYC_1000047501_En.jpg", "lat": 40.702444, "lon": -74.012742}, {"id": "NYC_1007299001", "address": "450 West 33Rd Street, New York, NY, 10001", "city": "New York", "state": "NY", "type": "Office", "vertical": "Commercial", "sqft": 1604716.0, "opex": 2372216.716, "valuation": 33888810.22857142, "carbon": 3283.089519, "eui": 88.71009406, "image": "NYC_1007299001_streetview.jpg", "lat": 40.753563, "lon": -73.998813}, {"id": "DC_5473282", "address": "1400 K St NW, Washington, DC 20005", "city": "Washington", "state": "DC", "type": "Office", "vertical": "Commercial", "sqft": 199626.0, "opex": 2163262.12, "valuation": 30903744.57142857, "carbon": 68.02410168, "eui": 48.4, "image": "DC_5473282_energystar.jpg", "lat": 38.90216738, "lon": -77.03240881}, {"id": "DC_5482364", "address": "1201 F St NW, Washington, DC 20004", "city": "Washington", "state": "DC", "type": "Office", "vertical": "Commercial", "sqft": 275428.0, "opex": 1965805.648, "valuation": 28082937.828571428, "carbon": 159.7274042, "eui": 56.96438423, "image": "DC_5482364_streetview.jpg", "lat": 38.89765719, "lon": -77.02852097}, {"id": "NYC_3001480007", "address": "100 Myrtle Ave, New York, NY, 11201", "city": "New York", "state": "NY", "type": "Office", "vertical": "Commercial", "sqft": 502581.0, "opex": 1874723.264, "valuation": 26781760.914285712, "carbon": 1154.299315, "eui": 170.897864, "image": "NYC_3001480007_streetview.jpg", "lat": 40.693718, "lon": -73.985503}, {"id": "NYC_1000160125", "address": "225 Liberty St, New York, NY, 10281", "city": "New York", "state": "NY", "type": "Office", "vertical": "Commercial", "sqft": 2267925.0, "opex": 1626432.634, "valuation": 23234751.914285712, "carbon": 3528.774205, "eui": 76.43256153, "image": "NYC_1000160125_AWS.jpg", "lat": 40.7125356, "lon": -74.0154086}, {"id": "NYC_1007130001", "address": "75 9 Ave, New York, NY 10011", "city": "New York", "state": "NY", "type": "Office", "vertical": "Commercial", "sqft": 1100533.0, "opex": 1562486.969, "valuation": 22321242.414285712, "carbon": 2091.471551, "eui": 118.0962035, "image": "NYC_1007130001_AWS.jpg", "lat": 40.7424509, "lon": -74.0059581}, {"id": "DC_5478201", "address": "1201 F St NW, Washington, DC, 20004", "city": "Washington", "state": "DC", "type": "Office", "vertical": "Commercial", "sqft": 153342.0, "opex": 1454265.113, "valuation": 20775215.899999995, "carbon": 212.9834357, "eui": 115.6931789, "image": "DC_5478201_buildingurl.jpg", "lat": 38.89765834, "lon": -77.02852915}, {"id": "DC_5477846", "address": "2115 M St NW, Washington, DC 20037", "city": "Washington", "state": "DC", "type": "Office", "vertical": "Commercial", "sqft": 333600.0, "opex": 1381117.694, "valuation": 19730252.771428566, "carbon": 386.0493317, "eui": 81.70204907, "image": "DC_5477846_streetview.jpg", "lat": 38.90545055, "lon": -77.04791552}, {"id": "DC_5482272", "address": "2025 M St NW, Washington, DC 20036", "city": "Washington", "state": "DC", "type": "Office", "vertical": "Commercial", "sqft": 207776.0, "opex": 1381025.907, "valuation": 19728941.528571427, "carbon": 116.3501815, "eui": 71.74880001, "image": "DC_5482272_streetview.jpg", "lat": 38.9060232, "lon": -77.04575108}, {"id": "NYC_1000057501", "address": "125 Broad Street Condo, New York, NY, 10004", "city": "New York", "state": "NY", "type": "Office", "vertical": "Commercial", "sqft": 1390556.0, "opex": 1352355.797, "valuation": 19319368.528571427, "carbon": 2940.716841, "eui": 81.21541463, "image": "NYC_1000057501_Serpapi.jpg", "lat": 40.702112, "lon": -74.011249}, {"id": "NYC_1000160150", "address": "230 Vesey St, New York, NY, 10281", "city": "New York", "state": "NY", "type": "Office", "vertical": "Commercial", "sqft": 2084079.0, "opex": 1312182.366, "valuation": 18745462.371428568, "carbon": 4345.735009, "eui": 75.6460923, "image": "NYC_1000160150_AWS.jpg", "lat": 40.714069, "lon": -74.0159982}, {"id": "NYC_1000160140", "address": "200 Vesey St, New York, NY, 10281", "city": "New York", "state": "NY", "type": "Office", "vertical": "Commercial", "sqft": 2233692.0, "opex": 1279216.748, "valuation": 18274524.97142857, "carbon": 3756.617154, "eui": 81.18838855, "image": "NYC_1000160140_AWS.jpg", "lat": 40.713589, "lon": -74.0148898}, {"id": "DC_5482806", "address": "1155 F St NW, Washington, DC 20004", "city": "Washington", "state": "DC", "type": "Retail/Consumer Services", "vertical": "Commercial", "sqft": 278221.0, "opex": 1255413.154, "valuation": 17934473.62857143, "carbon": 114.8826581, "eui": 60.03677674, "image": "DC_5482806_streetview.jpg", "lat": 38.89757461, "lon": -77.02763444}, {"id": "NYC_1013087502", "address": "101 E 53rd St, New York, NY, 10022", "city": "New York", "state": "NY", "type": "Office", "vertical": "Commercial", "sqft": 1526121.0, "opex": 1177786.38, "valuation": 16825519.714285713, "carbon": 782.4172787, "eui": 82.32424369, "image": "NYC_1013087502_AWS.jpg", "lat": 40.758582, "lon": -73.9701792}, {"id": "NYC_1012840033", "address": "47 E 48th St, New York, NY, 10017", "city": "New York", "state": "NY", "type": "Office", "vertical": "Commercial", "sqft": 386166.0, "opex": 1124429.696, "valuation": 16063281.37142857, "carbon": 1661.537817, "eui": 388.6455439, "image": "NYC_1012840033_AWS.jpg", "lat": 40.7530482, "lon": -73.9994887}, {"id": "NYC_1012580009", "address": "1110 6th Ave, New York, NY, 10036", "city": "New York", "state": "NY", "type": "Office", "vertical": "Commercial", "sqft": 1517497.0, "opex": 1071100.31, "valuation": 15301433.0, "carbon": 3769.032972, "eui": 88.57073978, "image": "NYC_1012580009_AWS.jpg", "lat": 40.7546919, "lon": -73.9827258}, {"id": "BOS_100229", "address": "75 State St, Boston, MA, 02109", "city": "Boston", "state": "MA", "type": "Office", "vertical": "Commercial", "sqft": 834523.0, "opex": 1051417.798, "valuation": 15020254.257142857, "carbon": 317.4100515, "eui": 44.38617222, "image": "BOS_100229_streetview.jpg", "lat": 42.358793, "lon": -71.0553434}, {"id": "NYC_1013007501", "address": "237 Park Avenue, New York, NY, 10017", "city": "New York", "state": "NY", "type": "Office", "vertical": "Commercial", "sqft": 1127360.0, "opex": 1029315.976, "valuation": 14704513.942857144, "carbon": 994.6653939, "eui": 61.11950743, "image": "NYC_1013007501_Vtsmarketplace.jpg", "lat": 40.753904, "lon": -73.975514}, {"id": "NYC_1012800090", "address": "450 Lexington Avenue, New York, NY, 10017", "city": "New York", "state": "NY", "type": "Office", "vertical": "Commercial", "sqft": 1082094.0, "opex": 982000.5668, "valuation": 14028579.525714286, "carbon": 1056.372014, "eui": 62.44250407, "image": "NYC_1012800090_GooglePlaces.jpg", "lat": 40.753102, "lon": -73.974854}, {"id": "BOS_100009", "address": "100 Summer St, Boston, MA, 02110", "city": "Boston", "state": "MA", "type": "Office", "vertical": "Commercial", "sqft": 1113465.0, "opex": 908404.4739, "valuation": 12977206.769999998, "carbon": 884.6617293, "eui": 56.30182547, "image": "BOS_100009_streetview.jpg", "lat": 42.35349, "lon": -71.057403}, {"id": "NYC_1007297504", "address": "391 9th Ave, New York, NY, 10001", "city": "New York", "state": "NY", "type": "Office", "vertical": "Commercial", "sqft": 1976539.0, "opex": 894257.178, "valuation": 12775102.54285714, "carbon": 1566.904416, "eui": 54.29313178, "image": "NYC_1007297504_AWS.jpg", "lat": 40.7527924, "lon": -73.9976994}, {"id": "NYC_3020470040", "address": "145 Myrtle Ave. Plp, New York, NY, 11201", "city": "New York", "state": "NY", "type": "Office", "vertical": "Commercial", "sqft": 666731.0, "opex": 803525.3832, "valuation": 11478934.045714283, "carbon": 569.9549017, "eui": 70.57139131, "image": "NYC_3020470040_GooglePlaces.jpg", "lat": 40.693677, "lon": -73.984003}, {"id": "NYC_5024000180", "address": "2655 Richmond Ave, New York, NY, 10314", "city": "New York", "state": "NY", "type": "Strip/Enclosed Mall", "vertical": "Commercial", "sqft": 615000.0, "opex": 803137.7325, "valuation": 10708503.1, "carbon": 553.8599599, "eui": 101.6068515, "image": "NYC_5024000180_Serpapi.jpg", "lat": 40.582305, "lon": -74.169053}, {"id": "NYC_1012760058", "address": "9 E 41st St, New York, NY, 10017", "city": "New York", "state": "NY", "type": "Office", "vertical": "Commercial", "sqft": 1142417.0, "opex": 800209.1688, "valuation": 11431559.554285713, "carbon": 2341.59172, "eui": 80.61154351, "image": "NYC_1012760058_AWS.jpg", "lat": 40.7525736, "lon": -73.9798321}, {"id": "NYC_4018600100", "address": "90-15 Queens Boulevard, New York, NY, 11373", "city": "New York", "state": "NY", "type": "Strip/Enclosed Mall", "vertical": "Commercial", "sqft": 2189322.0, "opex": 779927.2316, "valuation": 10399029.754666667, "carbon": 1217.582582, "eui": 63.99128625, "image": "NYC_4018600100_streetview.jpg", "lat": 40.733848, "lon": -73.871578}, {"id": "LA_485091841660", "address": "333 S Grand Ave, Los Angeles, CA 90071", "city": "Los Angeles", "state": "CA", "type": "Office", "vertical": "Commercial", "sqft": 2771457.0, "opex": 758462.3146, "valuation": 10461549.166896554, "carbon": 147.4066591, "eui": 19.77578927, "image": "LA_485091841660_Laconservancy.jpg", "lat": 34.0530508, "lon": -118.2523882}, {"id": "NYC_1010127501", "address": "234 W 41st St, New York, NY, 10036", "city": "New York", "state": "NY", "type": "Office", "vertical": "Commercial", "sqft": 1259189.0, "opex": 729070.4318, "valuation": 10415291.882857142, "carbon": 1407.378819, "eui": 119.1446506, "image": "NYC_1010127501_AWS.jpg", "lat": 40.756085, "lon": -73.9900524}, {"id": "NYC_1000160120", "address": "200 LIBERTY STREET, New York, NY, 10006", "city": "New York", "state": "NY", "type": "Office", "vertical": "Commercial", "sqft": 1501878.0, "opex": 698747.4312, "valuation": 9982106.159999998, "carbon": 1289.457331, "eui": 58.15603245, "image": "NYC_1000160120_AWS.jpg", "lat": 40.710605, "lon": -74.0156654}, {"id": "LA_484605841062", "address": "633 W 5Th St, Los Angeles, CA 90071", "city": "Los Angeles", "state": "CA", "type": "Office", "vertical": "Commercial", "sqft": 1432540.0, "opex": 679938.3384, "valuation": 9378459.84, "carbon": 167.8215488, "eui": 29.18892548, "image": "LA_484605841062_energystar.jpg", "lat": 34.0509113, "lon": -118.2545959}, {"id": "NYC_1000160225", "address": "1 N End Ave, New York, NY, 10282", "city": "New York", "state": "NY", "type": "Office", "vertical": "Commercial", "sqft": 502000.0, "opex": 663395.0129, "valuation": 9477071.612857142, "carbon": 600.6448435, "eui": 102.0835032, "image": "NYC_1000160225_AWS.jpg", "lat": 40.7145675, "lon": -74.0169485}, {"id": "NYC_1001247502", "address": "2 Murray St, New York, NY, 10007", "city": "New York", "state": "NY", "type": "Office", "vertical": "Commercial", "sqft": 476674.0, "opex": 591923.1203, "valuation": 8456044.575714285, "carbon": 343.1967171, "eui": 41.12727986, "image": "NYC_1001247502_AWS.jpg", "lat": 40.751881, "lon": -73.997999}, {"id": "DEN_2573", "address": "1801 California, Denver, CO, 80202", "city": "Denver", "state": "CO", "type": "Office", "vertical": "Commercial", "sqft": 1542706.0, "opex": 581036.2094, "valuation": 7262952.617500001, "carbon": 1055.280671, "eui": 39.61533371, "image": "DEN_2573_Cushman.jpg", "lat": 39.7477297, "lon": -104.9896229}, {"id": "DEN_2635", "address": "370-17Th Street, Denver, CO, 80202", "city": "Denver", "state": "CO", "type": "Office", "vertical": "Commercial", "sqft": 1525288.0, "opex": 532115.391, "valuation": 6651442.387499999, "carbon": 1022.182918, "eui": 37.72906002, "image": "DEN_2635_streetview.jpg", "lat": 39.7436811, "lon": -104.9886775}, {"id": "CHI_103712", "address": "835 N. Michigan Avenue, Chicago, IL, 60611", "city": "Chicago", "state": "IL", "type": "Mixed Use", "vertical": "Commercial", "sqft": 2581145.0, "opex": 520682.8426, "valuation": 7438326.322857141, "carbon": 916.1144154, "eui": 77.79437974, "image": "CHI_103712_Serpapi.jpg", "lat": 41.953774, "lon": -87.648061}, {"id": "NYC_3001470004", "address": "351 Jay Street, New York, NY, 11201", "city": "New York", "state": "NY", "type": "Office", "vertical": "Commercial", "sqft": 931561.0, "opex": 478036.2601, "valuation": 6829089.43, "carbon": 654.1499997, "eui": 52.99838636, "image": "NYC_3001470004_GooglePlaces.jpg", "lat": 40.692882, "lon": -73.987256}, {"id": "CA_6273484", "address": "40820 Winchester Road, Temecula, CA, 92591", "city": "Temecula", "state": "CA", "type": "Strip/Enclosed Mall", "vertical": "Commercial", "sqft": 1130136.0, "opex": 470873.394, "valuation": 6278311.92, "carbon": 375.3514859, "eui": 45.17498381, "image": "CA_6273484_Flickr.jpg", "lat": 33.5245692, "lon": -117.1546001}, {"id": "NYC_3002390001", "address": "300 Cadman Plaza West, New York, NY, 11201", "city": "New York", "state": "NY", "type": "Office", "vertical": "Commercial", "sqft": 725000.0, "opex": 466123.1681, "valuation": 6658902.401428571, "carbon": 532.3699793, "eui": 59.8409789, "image": "NYC_3002390001_cyclomedia.jpg", "lat": 40.695198, "lon": -73.990869}, {"id": "SF_37100202024", "address": "333 Market St, San Francisco, CA, 94105", "city": "San Francisco", "state": "CA", "type": "Office", "vertical": "Commercial", "sqft": 756925.0, "opex": 437590.9392, "valuation": 5834545.856000001, "carbon": 805.1482949, "eui": 62.42857222, "image": "SF_37100202024_streetview.jpg", "lat": 37.791778, "lon": -122.3975171}, {"id": "DEN_2582", "address": "1225 17Th Street, Denver, CO, 80202", "city": "Denver", "state": "CO", "type": "Office", "vertical": "Commercial", "sqft": 777205.0, "opex": 384734.1693, "valuation": 4809177.11625, "carbon": 601.982031, "eui": 45.78005031, "image": "DEN_2582_streetview.jpg", "lat": 39.7502764, "lon": -104.9952031}, {"id": "LA_483130840965", "address": "601 S Figueroa St, Los Angeles, CA 90017", "city": "Los Angeles", "state": "CA", "type": "Office", "vertical": "Commercial", "sqft": 1118941.0, "opex": 369480.1838, "valuation": 5096278.39724138, "carbon": 75.42005877, "eui": 26.04603773, "image": "LA_483130840965_energystar.jpg", "lat": 34.0504835, "lon": -118.259211}, {"id": "BOS_106101", "address": "160 Federal St, Boston, MA, 02110", "city": "Boston", "state": "MA", "type": "Office", "vertical": "Commercial", "sqft": 366650.0, "opex": 313234.7157, "valuation": 4474781.6528571425, "carbon": 288.515946, "eui": 56.2387004, "image": "BOS_106101_streetview.jpg", "lat": 42.3542843, "lon": -71.0559285}, {"id": "DC_5472730", "address": "645 New York Ave NW, Washington, DC 20001", "city": "Washington", "state": "DC", "type": "Office", "vertical": "Commercial", "sqft": 651827.0, "opex": 310688.2658, "valuation": 4438403.797142857, "carbon": 201.2481252, "eui": 41.60855825, "image": "DC_5472730_streetview.jpg", "lat": 38.90348056, "lon": -77.02095467}, {"id": "NYC_1012750023", "address": "285 Madison Ave, New York, NY 10017", "city": "New York", "state": "NY", "type": "Office", "vertical": "Commercial", "sqft": 477127.0, "opex": 308017.6947, "valuation": 4400252.781428571, "carbon": 876.1531086, "eui": 72.36270825, "image": "NYC_1012750023_AWS.jpg", "lat": 40.751726, "lon": -73.9799171}, {"id": "PDX_1N1E34AD-100-B1", "address": "777 NE Martin Luther King Jr Blvd, Portland, OR, 97232", "city": "Portland", "state": "OR", "type": "Entertainment Venue", "vertical": "Commercial", "sqft": 867637.5058, "opex": 301771.7863, "valuation": 4023623.817333333, "carbon": 340.2268432, "eui": 35.7, "image": "", "lat": 45.5283308, "lon": -122.6634712}, {"id": "SEA_942000470", "address": "800 5Th Ave, Seattle, WA, 98104", "city": "Seattle", "state": "WA", "type": "Office", "vertical": "Commercial", "sqft": 1047934.0, "opex": 290797.1059, "valuation": 3877294.745333334, "carbon": 190.284198, "eui": 28.9881901, "image": "SEA_942000470_Thebusinessjournals.jpg", "lat": 47.60573, "lon": -122.33028}, {"id": "KC_121104725", "address": "400 Nichols Rd, Kansas City, MO, 64112", "city": "Kansas City", "state": "MO", "type": "Strip/Enclosed Mall", "vertical": "Commercial", "sqft": 3211626.0, "opex": 285700.9552, "valuation": 3809346.069333334, "carbon": 461.0088502, "eui": 15.4, "image": "KC_121104725_streetview.jpg", "lat": 39.0414147, "lon": -94.5918228}, {"id": "NYC_1007297505", "address": "375 9th Ave, New York, NY, 10001", "city": "New York", "state": "NY", "type": "Office", "vertical": "Commercial", "sqft": 1819686.0, "opex": 283703.1352, "valuation": 4052901.931428571, "carbon": 512.170288, "eui": 23.78301223, "image": "NYC_1007297505_AWS.jpg", "lat": 40.751881, "lon": -73.997999}, {"id": "CA_6023601", "address": "110 East 9Th Street, Los Angeles, CA, 90079", "city": "Los Angeles", "state": "CA", "type": "Office", "vertical": "Commercial", "sqft": 1873130.0, "opex": 279722.252, "valuation": 3729630.0266666664, "carbon": 164.776293, "eui": 11.34066179, "image": "CA_6023601_streetview.jpg", "lat": 34.0404687, "lon": -118.255329}, {"id": "CA_6399482", "address": "1299 Galleria At Tyler, Riverside, CA, 92503", "city": "Riverside", "state": "CA", "type": "Strip/Enclosed Mall", "vertical": "Commercial", "sqft": 1200000.0, "opex": 252076.4583, "valuation": 3361019.444, "carbon": 91.6822092, "eui": 24.32182217, "image": "CA_6399482_streetview.jpg", "lat": 33.909612, "lon": -117.45699}, {"id": "DC_5473204", "address": "601 13th St NW, Washington, DC 20005", "city": "Washington", "state": "DC", "type": "Office", "vertical": "Commercial", "sqft": 493333.0, "opex": 245525.4328, "valuation": 3507506.1828571428, "carbon": 83.78294266, "eui": 31.88665338, "image": "DC_5473204_energystar.jpg", "lat": 38.89784245, "lon": -77.02914089}, {"id": "CA_1409806", "address": "1 Front Street, San Francisco, CA, 94111", "city": "San Francisco", "state": "CA", "type": "Office", "vertical": "Commercial", "sqft": 754728.0, "opex": 242777.2888, "valuation": 3237030.5173333334, "carbon": 297.624837, "eui": 39.35235249, "image": "CA_1409806_energystar.jpg", "lat": 37.7918198, "lon": -122.3989854}, {"id": "DEN_2435", "address": "1515 Wynkoop, Suite 310, 80202", "city": "Denver", "state": "CO", "type": "Office", "vertical": "Commercial", "sqft": 314599.0, "opex": 225054.1837, "valuation": 2813177.2962499997, "carbon": 251.3803325, "eui": 45.34648966, "image": "DEN_2435_streetview.jpg", "lat": 39.7512718, "lon": -105.001945}, {"id": "NYC_1012890036", "address": "51 E 53rd St, Brooklyn, NY 11203", "city": "Brooklyn", "state": "NY", "type": "Office", "vertical": "Commercial", "sqft": 262945.0, "opex": 224822.6428, "valuation": 3211752.0399999996, "carbon": 424.9175363, "eui": 64.7416551, "image": "NYC_1012890036_AWS.jpg", "lat": 40.759615, "lon": -73.972772}, {"id": "DC_5475746", "address": "920 H St NW, Washington, DC 20268", "city": "Washington", "state": "DC", "type": "Office", "vertical": "Commercial", "sqft": 348297.0, "opex": 203962.6997, "valuation": 2913752.8528571427, "carbon": 69.64678948, "eui": 37.56391809, "image": "DC_5475746_energystar.jpg", "lat": 38.89965067, "lon": -77.02457072}, {"id": "CA_1344680", "address": "1 Post Street, San Francisco, CA, 94104", "city": "San Francisco", "state": "CA", "type": "Office", "vertical": "Commercial", "sqft": 468562.0, "opex": 193888.4556, "valuation": 2585179.408, "carbon": 57.85596698, "eui": 36.16743953, "image": "CA_1344680_streetview.jpg", "lat": 37.7887655, "lon": -122.4027468}, {"id": "LA_484837841207", "address": "400 S Hope St, Los Angeles, CA 90071", "city": "Los Angeles", "state": "CA", "type": "Retail/Consumer Services", "vertical": "Commercial", "sqft": 779676.0, "opex": 186756.3355, "valuation": 2575949.455172414, "carbon": 33.7805346, "eui": 37.0, "image": "LA_484837841207_Serpapi.jpg", "lat": 34.0516253, "lon": -118.2540945}, {"id": "LA_482677840429", "address": "725 S Figueroa St, Los Angeles, CA 90017", "city": "Los Angeles", "state": "CA", "type": "Strip/Enclosed Mall", "vertical": "Commercial", "sqft": 329953.0, "opex": 185683.2799, "valuation": 2750863.405925926, "carbon": 34.10708365, "eui": 50.6, "image": "LA_482677840429_streetview.jpg", "lat": 34.0493481, "lon": -118.2606566}, {"id": "NYC_1007800036", "address": "370 7 Ave, New York, NY 10001", "city": "New York", "state": "NY", "type": "Office", "vertical": "Commercial", "sqft": 416321.0, "opex": 181935.6432, "valuation": 2599080.6171428566, "carbon": 389.9073894, "eui": 62.24487523, "image": "NYC_1007800036_AWS.jpg", "lat": 40.7489275, "lon": -73.9925231}, {"id": "DEN_2575", "address": "717 17Th Street, Denver, CO, 80202", "city": "Denver", "state": "CO", "type": "Office", "vertical": "Commercial", "sqft": 751708.0, "opex": 179425.3193, "valuation": 2242816.49125, "carbon": 356.5797807, "eui": 36.24290629, "image": "DEN_2575_streetview.jpg", "lat": 39.7468226, "lon": -104.9914871}, {"id": "CA_6323660", "address": "2701 Ming Avenue, Bakersfield, CA, 93304", "city": "Bakersfield", "state": "CA", "type": "Strip/Enclosed Mall", "vertical": "Commercial", "sqft": 1100000.0, "opex": 160624.8593, "valuation": 2141664.790666667, "carbon": 78.78923576, "eui": 14.73864982, "image": "CA_6323660_Serpapi.jpg", "lat": 35.3353129, "lon": -119.0366279}, {"id": "NYC_1007587501", "address": "333 W 34th St., New York, NY, 10001", "city": "New York", "state": "NY", "type": "Office", "vertical": "Commercial", "sqft": 286520.0, "opex": 158412.3858, "valuation": 2263034.0828571427, "carbon": 335.0920675, "eui": 83.53283506, "image": "NYC_1007587501_AWS.jpg", "lat": 40.753292, "lon": -73.9948477}, {"id": "DC_5482472", "address": "1140 Connecticut Ave NW, Washington, DC, 20036", "city": "Washington", "state": "DC", "type": "Office", "vertical": "Commercial", "sqft": 157915.0, "opex": 155966.6486, "valuation": 2228094.9799999995, "carbon": 193.1885468, "eui": 93.93604637, "image": "DC_5482472_buildingurl.jpg", "lat": 38.90496267, "lon": -77.04121903}, {"id": "DC_5481813", "address": "650 Massachusetts Ave NW, Washington, DC 20001", "city": "Washington", "state": "DC", "type": "Office", "vertical": "Commercial", "sqft": 345940.0, "opex": 143345.6517, "valuation": 2047795.024285714, "carbon": 51.01319235, "eui": 26.92598135, "image": "DC_5481813_streetview.jpg", "lat": 38.90165427, "lon": -77.02142841}, {"id": "SF_37081752024", "address": "575 Market St, San Francisco, CA, 94105", "city": "San Francisco", "state": "CA", "type": "Office", "vertical": "Commercial", "sqft": 560325.0, "opex": 140286.6294, "valuation": 1870488.392, "carbon": 163.3745374, "eui": 28.6974626, "image": "SF_37081752024_streetview.jpg", "lat": 37.78956499, "lon": -122.4003417}, {"id": "DC_5478365", "address": "2000 M St NW, Washington, DC 20036", "city": "Washington", "state": "DC", "type": "Office", "vertical": "Commercial", "sqft": 234389.0, "opex": 139747.3156, "valuation": 1996390.2228571428, "carbon": 131.1060071, "eui": 58.23268942, "image": "DC_5478365_streetview.jpg", "lat": 38.90522244, "lon": -77.04530693}, {"id": "DC_5476034", "address": "808 H St NW, Washington, DC 20001", "city": "Washington", "state": "DC", "type": "Office", "vertical": "Commercial", "sqft": 210645.0, "opex": 131675.0359, "valuation": 1881071.941428571, "carbon": 46.89632121, "eui": 40.78859765, "image": "DC_5476034_buildingurl.jpg", "lat": 38.8996416, "lon": -77.02344004}, {"id": "NYC_5024000300", "address": "280 Platinum Avenue, New York, NY, 10314", "city": "New York", "state": "NY", "type": "Strip/Enclosed Mall", "vertical": "Commercial", "sqft": 80307.0, "opex": 131382.0676, "valuation": 1946401.0014814816, "carbon": 104.7679021, "eui": 160.1583386, "image": "NYC_5024000300_Serpapi.jpg", "lat": 40.578659, "lon": -74.167946}, {"id": "NYC_1019107501", "address": "125 W 125th St, New York, NY, 10027", "city": "New York", "state": "NY", "type": "Office", "vertical": "Commercial", "sqft": 284579.0, "opex": 128133.5696, "valuation": 1830479.5657142857, "carbon": 173.3809426, "eui": 64.10638768, "image": "NYC_1019107501_AWS.jpg", "lat": 40.8083217, "lon": -73.945692}, {"id": "NYC_1007297506", "address": "440 West 33Rd Street, New York, NY, 10001", "city": "New York", "state": "NY", "type": "Hotel", "vertical": "Commercial", "sqft": 224983.0, "opex": 121240.3139, "valuation": 1732004.484285714, "carbon": 93.95323957, "eui": 89.6310899, "image": "NYC_1007297506_streetview.jpg", "lat": 40.753281, "lon": -73.998138}, {"id": "DC_5475959", "address": "1775 I St NW, Washington, DC, 20006", "city": "Washington", "state": "DC", "type": "Office", "vertical": "Commercial", "sqft": 206356.0, "opex": 117786.3413, "valuation": 1682662.0185714285, "carbon": 91.16625689, "eui": 52.65530681, "image": "DC_5475959_streetview.jpg", "lat": 38.90161205, "lon": -77.04119422}, {"id": "BOS_104645", "address": "51 Sleeper St, Boston, MA, 02210", "city": "Boston", "state": "MA", "type": "Retail/Consumer Services", "vertical": "Commercial", "sqft": 167625.0, "opex": 112215.5609, "valuation": 1603079.4414285712, "carbon": 28.73323211, "eui": 109.1686407, "image": "BOS_104645_Google.jpg", "lat": 42.352532, "lon": -71.0484675}, {"id": "NYC_5024000118", "address": "112 Richmond Hill Road, New York, NY, 10314", "city": "New York", "state": "NY", "type": "Retail/Consumer Services", "vertical": "Commercial", "sqft": 319000.0, "opex": 110735.2864, "valuation": 2214705.7279999997, "carbon": 26.00326419, "eui": 27.49574639, "image": "NYC_5024000118_cyclomedia.jpg", "lat": 40.584301, "lon": -74.164907}, {"id": "DC_5478574", "address": "1275 New Jersey Ave SE, Washington, DC 20003", "city": "Washington", "state": "DC", "type": "Office", "vertical": "Commercial", "sqft": 293884.0, "opex": 106607.0773, "valuation": 1522958.2471428572, "carbon": 67.86434956, "eui": 33.81038817, "image": "DC_5478574_buildingurl.jpg", "lat": 38.87499274, "lon": -77.00420747}, {"id": "DC_5487636", "address": "1139 18th St NW, Washington, DC 20036", "city": "Washington", "state": "DC", "type": "Office", "vertical": "Commercial", "sqft": 194881.0, "opex": 95884.18599, "valuation": 1369774.0855714283, "carbon": 123.3884294, "eui": 48.2138424, "image": "DC_5487636_energystar.jpg", "lat": 38.90505485, "lon": -77.04145832}, {"id": "DC_5477825", "address": "77 K St NE, Washington, DC 20002", "city": "Washington", "state": "DC", "type": "Office", "vertical": "Commercial", "sqft": 338922.0, "opex": 90607.63326, "valuation": 1294394.7608571427, "carbon": 59.71745524, "eui": 32.31793531, "image": "DC_5477825_energystar.jpg", "lat": 38.90205732, "lon": -77.00636132}, {"id": "NYC_1010210019", "address": "1613 Broadway, New York, NY 10019", "city": "New York", "state": "NY", "type": "Office", "vertical": "Commercial", "sqft": 158150.0, "opex": 86687.95147, "valuation": 1238399.3067142856, "carbon": 193.2866445, "eui": 73.78898514, "image": "NYC_1010210019_AWS.jpg", "lat": 40.761138, "lon": -73.984653}, {"id": "CA_6905811", "address": "16940 Slover Avenue, Fontana, CA, 92337", "city": "Fontana", "state": "CA", "type": "Retail/Consumer Services", "vertical": "Commercial", "sqft": 627572.0, "opex": 82748.91741, "valuation": 1323982.67856, "carbon": 244.9254526, "eui": 47.95599155, "image": "CA_6905811_streetview.jpg", "lat": 34.0634292, "lon": -117.4345773}, {"id": "CA_1614829", "address": "4676 Admiralty Way, Marina Del Rey, CA, 90292", "city": "Marina Del Rey", "state": "CA", "type": "Office", "vertical": "Commercial", "sqft": 179641.0, "opex": 80906.2442, "valuation": 1078749.9226666668, "carbon": 148.8053972, "eui": 59.94034536, "image": "CA_1614829_energystar.jpg", "lat": 33.9803656, "lon": -118.4400862}, {"id": "CHI_257173", "address": "24 East Washington Street, Chicago, IL, 60602", "city": "Chicago", "state": "IL", "type": "Office", "vertical": "Commercial", "sqft": 707816.0, "opex": 79873.57044, "valuation": 998419.6305, "carbon": 394.5833082, "eui": 27.33511718, "image": "CHI_257173_streetview.jpg", "lat": 41.883448, "lon": -87.626994}, {"id": "DC_5492881", "address": "1775 I St NW, Washington, DC 20006", "city": "Washington", "state": "DC", "type": "Office", "vertical": "Commercial", "sqft": 198893.0, "opex": 75384.1818, "valuation": 1076916.882857143, "carbon": 56.84297612, "eui": 39.30938036, "image": "DC_5492881_streetview.jpg", "lat": 38.90159315, "lon": -77.04119749}, {"id": "DC_5475137", "address": "1627 I St NW, Washington, DC 20006", "city": "Washington", "state": "DC", "type": "Office", "vertical": "Commercial", "sqft": 113744.0, "opex": 71224.84929, "valuation": 1017497.8469999998, "carbon": 27.49710713, "eui": 43.14666342, "image": "DC_5475137_streetview.jpg", "lat": 38.90158623, "lon": -77.03813519}, {"id": "CA_1614828", "address": "4640 Admiralty Way, Marina Del Rey, CA, 90292", "city": "Marina Del Rey", "state": "CA", "type": "Office", "vertical": "Commercial", "sqft": 197985.0, "opex": 67510.46611, "valuation": 900139.5481333333, "carbon": 49.77042393, "eui": 32.10211596, "image": "CA_1614828_energystar.jpg", "lat": 33.9816425, "lon": -118.4409761}, {"id": "NYC_1008500001", "address": "149 5 Ave, New York, NY 10010", "city": "New York", "state": "NY", "type": "Office", "vertical": "Commercial", "sqft": 173159.0, "opex": 59165.59604, "valuation": 845222.8005714285, "carbon": 81.79352353, "eui": 65.33015148, "image": "NYC_1008500001_AWS.jpg", "lat": 40.7403248, "lon": -73.9902041}, {"id": "DC_5473269", "address": "1200 K St NW, Washington, DC 20005", "city": "Washington", "state": "DC", "type": "Office", "vertical": "Commercial", "sqft": 429455.0, "opex": 58799.4184, "valuation": 839991.6914285714, "carbon": 20.06467617, "eui": 8.772189196, "image": "DC_5473269_energystar.jpg", "lat": 38.90212512, "lon": -77.02864749}, {"id": "CA_6273479", "address": "12505 North Mainstreet, Rancho Cucamonga, CA, 91739", "city": "Rancho Cucamonga", "state": "CA", "type": "Mixed Use", "vertical": "Commercial", "sqft": 1355653.0, "opex": 53900.60556, "valuation": 770008.6508571429, "carbon": 44.16161012, "eui": 9.130555894, "image": "CA_6273479_streetview.jpg", "lat": 34.1114122, "lon": -117.5323513}, {"id": "CA_20782292", "address": "415 Natoma, San Francisco, CA, 94103", "city": "San Francisco", "state": "CA", "type": "Office", "vertical": "Commercial", "sqft": 640000.0, "opex": 41856.31737, "valuation": 558084.2315999999, "carbon": 30.99334177, "eui": 7.156137656, "image": "CA_20782292_streetview.jpg", "lat": 37.7813601, "lon": -122.4059979}, {"id": "NYC_1007290163", "address": "424 W 33rd St, New York, NY, 10001", "city": "New York", "state": "NY", "type": "Office", "vertical": "Commercial", "sqft": 178460.0, "opex": 41270.69808, "valuation": 589581.4011428572, "carbon": 71.15305975, "eui": 42.71401434, "image": "NYC_1007290163_AWS.jpg", "lat": 40.7529838, "lon": -73.9981446}, {"id": "BOS_105256", "address": "15-19 Broad St, Boston, MA, 02109", "city": "Boston", "state": "MA", "type": "Office", "vertical": "Commercial", "sqft": 77678.0, "opex": 40841.89452, "valuation": 583455.6359999999, "carbon": 95.86041484, "eui": 69.30657072, "image": "BOS_105256_Cushman.jpg", "lat": 42.358731, "lon": -71.0547689}, {"id": "NYC_1007590014", "address": "345 West 35Th Street, New York, NY, 10001", "city": "New York", "state": "NY", "type": "Hotel", "vertical": "Commercial", "sqft": 93090.0, "opex": 38139.40329, "valuation": 544848.6184285714, "carbon": 21.89727342, "eui": 81.93778816, "image": "NYC_1007590014_Serpapi.jpg", "lat": 40.753506, "lon": -73.994492}, {"id": "DC_5477628", "address": "1220 19th St NW, Washington, DC 20036", "city": "Washington", "state": "DC", "type": "Office", "vertical": "Commercial", "sqft": 99499.0, "opex": 35525.24927, "valuation": 507503.5609999999, "carbon": 35.63657636, "eui": 40.68829613, "image": "DC_5477628_Serpapi.jpg", "lat": 38.90663216, "lon": -77.04390287}, {"id": "NYC_1008590052", "address": "44 E 30th St, New York, NY 10016", "city": "New York", "state": "NY", "type": "Office", "vertical": "Commercial", "sqft": 75655.0, "opex": 34852.27918, "valuation": 497889.7025714285, "carbon": 72.91256495, "eui": 63.57356817, "image": "NYC_1008590052_AWS.jpg", "lat": 40.7445914, "lon": -73.9839066}, {"id": "SF_37070512024", "address": "685 Market St, San Francisco, CA, 94105", "city": "San Francisco", "state": "CA", "type": "Office", "vertical": "Commercial", "sqft": 222918.0, "opex": 25207.2861, "valuation": 336097.14800000004, "carbon": 29.6583321, "eui": 17.03575319, "image": "SF_37070512024_energystar.jpg", "lat": 37.78764604, "lon": -122.4027588}, {"id": "DC_5473299", "address": "1800 N St NW, Washington, DC 20036", "city": "Washington", "state": "DC", "type": "Retail/Consumer Services", "vertical": "Commercial", "sqft": 176882.0, "opex": 21561.32593, "valuation": 308018.94185714284, "carbon": 7.802291203, "eui": 52.6, "image": "DC_5473299_energystar.jpg", "lat": 38.90708816, "lon": -77.04261889}, {"id": "CHI_112765", "address": "5333 North Sheridan Road, Chicago, IL, 60640", "city": "Chicago", "state": "IL", "type": "Residential Care Facility", "vertical": "Healthcare", "sqft": 1742595.0, "opex": 19118.55268, "valuation": 0.0, "carbon": 91.20753666, "eui": 17.58748101, "image": "CHI_112765_Serpapi.jpg", "lat": 41.923205, "lon": -87.648535}, {"id": "DC_5479278", "address": "1234 19th St NW, Washington, DC 20036", "city": "Washington", "state": "DC", "type": "Medical Office/Lab", "vertical": "Healthcare", "sqft": 35875.0, "opex": 17717.92801, "valuation": 236239.04013333333, "carbon": 21.25474122, "eui": 63.81411707, "image": "DC_5479278_Vtsmarketplace.jpg", "lat": 38.9068701, "lon": -77.04373249}, {"id": "LA_483941837037", "address": "106 E Olympic Blvd, Los Angeles, CA 90015", "city": "Los Angeles", "state": "CA", "type": "Mixed Use", "vertical": "Commercial", "sqft": 200000.0, "opex": 4375.384646, "valuation": 62505.49494285714, "carbon": 0.60982175, "eui": 5.439784, "image": "LA_483941837037_Serpapi.jpg", "lat": 34.0398197, "lon": -118.2567566}]