[{"id": "NYC_1000670001", "address": "59 Maiden Lane, New York, NY 10038", "city": "New York", "state": "NY", "type": "Office", "vertical": "Commercial", "sqft": 1073000.0, "opex": 950058.8137, "valuation": 13572268.767142856, "carbon": 1535.418905, "eui": 87.20371417, "image": "NYC_1000670001_AWS.jpg", "lat": 40.7088713, "lon": -74.0079239}, {"id": "CHI_101707", "address": "111 East Wacker Drive, Chicago, IL, 60601", "city": "Chicago", "state": "IL", "type": "Office", "vertical": "Commercial", "sqft": 1111058.0, "opex": 638539.8372, "valuation": 7981747.964999999, "carbon": 3198.830859, "eui": 80.11294191, "image": "CHI_101707_CoStar.jpg", "lat": 41.8873702, "lon": -87.6235549}, {"id": "NYC_1000717501", "address": "18 Fletcher St, Staten Island, NY 10305", "city": "Staten Island", "state": "NY", "type": "Office", "vertical": "Commercial", "sqft": 462377.0, "opex": 121171.3315, "valuation": 1731019.0214285713, "carbon": 259.1701864, "eui": 51.30476905, "image": "NYC_1000717501_AWS.jpg", "lat": 40.7089033, "lon": -74.0080617}, {"id": "CHI_100533", "address": "6201 S Stewart Avenue, Chicago, IL, 60621", "city": "Chicago", "state": "IL", "type": "PreK-12", "vertical": "Education", "sqft": 188800.0, "opex": 116194.6198, "valuation": 0.0, "carbon": 810.2643587, "eui": 121.1221279, "image": "CHI_100533_Serpapi.jpg", "lat": 41.886708, "lon": -87.627883}, {"id": "NYC_1012950020", "address": "363 Lexington Ave, New York, NY 10017", "city": "New York", "state": "NY", "type": "Office", "vertical": "Commercial", "sqft": 126888.0, "opex": 84781.78738, "valuation": 1211168.391142857, "carbon": 149.9094534, "eui": 72.88425619, "image": "NYC_1012950020_AWS.jpg", "lat": 40.7505933, "lon": -73.9764875}, {"id": "CHI_119422", "address": "939 W. North Avenue, Chicago, IL, 60642", "city": "Chicago", "state": "IL", "type": "Mixed Use", "vertical": "Commercial", "sqft": 219651.0, "opex": 42327.28207, "valuation": 604675.4581428571, "carbon": 18.64114848, "eui": 51.07667126, "image": "CHI_119422_Serpapi.jpg", "lat": 41.886704, "lon": -87.628054}, {"id": "CHI_156139", "address": "300 N Michigan, Chicago, IL 60601", "city": "Chicago", "state": "IL", "type": "Hospital/Clinic", "vertical": "Healthcare", "sqft": 433000.0, "opex": 16025.05787, "valuation": 0.0, "carbon": 59.05761037, "eui": 46.54835704, "image": "CHI_156139_Serpapi.jpg", "lat": 41.8868463, "lon": -87.6225908}]