[{"id": "CA_6465954", "address": "4137 Elverta Road, Antelope, CA, 95843", "city": "Antelope", "state": "CA", "type": "Retail/Consumer Services", "vertical": "Commercial", "sqft": 85989.0, "opex": 168956.6603, "valuation": 2703306.5648, "carbon": 121.0767844, "eui": 168.6513481, "image": "CA_6465954_streetview.jpg", "lat": 38.7153128, "lon": -121.3672232}, {"id": "CA_6465948", "address": "5110 Montauban Avenue, Stockton, CA, 95210", "city": "Stockton", "state": "CA", "type": "Grocery/Supercenter", "vertical": "Commercial", "sqft": 95838.0, "opex": 56878.1494, "valuation": 947969.1566666669, "carbon": 30.66450894, "eui": 173.1835089, "image": "", "lat": 38.0046376, "lon": -121.2839157}, {"id": "CA_6465961", "address": "4488 West Shaw Avenue, Fresno, CA, 93722", "city": "Fresno", "state": "CA", "type": "Grocery/Supercenter", "vertical": "Commercial", "sqft": 95145.0, "opex": 46668.56773, "valuation": 777809.4621666668, "carbon": 23.31688208, "eui": 166.8453595, "image": "CA_6465961_streetview.jpg", "lat": 36.8110501, "lon": -119.8726613}, {"id": "CA_6465953", "address": "4200 Coffee Road, Bakersfield, CA, 93308", "city": "Bakersfield", "state": "CA", "type": "Grocery/Supercenter", "vertical": "Commercial", "sqft": 95988.0, "opex": 46588.41738, "valuation": 776473.623, "carbon": 23.03849701, "eui": 164.6402404, "image": "CA_6465953_streetview.jpg", "lat": 35.3983716, "lon": -119.0905036}, {"id": "CA_6465960", "address": "1050 Old Alturas Road, Redding, CA, 96003", "city": "Redding", "state": "CA", "type": "Grocery/Supercenter", "vertical": "Commercial", "sqft": 95645.0, "opex": 46010.45415, "valuation": 766840.9025, "carbon": 27.86039069, "eui": 172.8652047, "image": "CA_6465960_Serpapi.jpg", "lat": 40.5879943, "lon": -122.3437798}, {"id": "CA_6465956", "address": "6700 Lone Tree Way, Brentwood, CA, 94513", "city": "Brentwood", "state": "CA", "type": "Grocery/Supercenter", "vertical": "Commercial", "sqft": 99864.0, "opex": 45166.99918, "valuation": 752783.3196666667, "carbon": 26.38874887, "eui": 168.1080748, "image": "CA_6465956_streetview.jpg", "lat": 37.9648222, "lon": -121.7293423}, {"id": "CA_6465962", "address": "855 Davis Street, Vacaville, CA, 95687", "city": "Vacaville", "state": "CA", "type": "Grocery/Supercenter", "vertical": "Commercial", "sqft": 111115.0, "opex": 44083.03352, "valuation": 734717.2253333334, "carbon": 20.52614753, "eui": 132.5042145, "image": "CA_6465962_Serpapi.jpg", "lat": 38.3464534, "lon": -121.9841064}, {"id": "CA_6465958", "address": "8701 Greenback Lane, Orangevale, CA, 95662", "city": "Orangevale", "state": "CA", "type": "Grocery/Supercenter", "vertical": "Commercial", "sqft": 87941.0, "opex": 42521.23653, "valuation": 708687.2755000001, "carbon": 23.68334458, "eui": 169.4998049, "image": "CA_6465958_streetview.jpg", "lat": 38.6798865, "lon": -121.233822}, {"id": "CA_6465952", "address": "10151 Fairway Drive, Roseville, CA, 95678", "city": "Roseville", "state": "CA", "type": "Grocery/Supercenter", "vertical": "Commercial", "sqft": 99766.0, "opex": 41293.53328, "valuation": 688225.5546666668, "carbon": 16.84704535, "eui": 152.4772754, "image": "CA_6465952_Serpapi.jpg", "lat": 38.7850745, "lon": -121.2785516}, {"id": "CA_6465965", "address": "2850 Pavilion Parkway, Tracy, CA, 95304", "city": "Tracy", "state": "CA", "type": "Grocery/Supercenter", "vertical": "Commercial", "sqft": 96453.0, "opex": 40493.51281, "valuation": 674891.8801666667, "carbon": 18.09365573, "eui": 152.9099389, "image": "CA_6465965_streetview.jpg", "lat": 37.7589624, "lon": -121.4686488}, {"id": "CA_6465951", "address": "1350 Franklin Ave, Yuba City, CA, 95993", "city": "Yuba City", "state": "CA", "type": "Grocery/Supercenter", "vertical": "Commercial", "sqft": 89399.0, "opex": 38932.30324, "valuation": 648871.7206666667, "carbon": 20.28030006, "eui": 156.6357605, "image": "CA_6465951_Serpapi.jpg", "lat": 39.1273169, "lon": -121.6342396}, {"id": "CA_6466581", "address": "42600 Jackson Street, Indio, CA, 92203", "city": "Indio", "state": "CA", "type": "Grocery/Supercenter", "vertical": "Commercial", "sqft": 100896.0, "opex": 37438.90256, "valuation": 623981.7093333334, "carbon": 26.52612905, "eui": 162.6340969, "image": "CA_6466581_streetview.jpg", "lat": 33.7395201, "lon": -116.2134242}, {"id": "CA_6465966", "address": "6801 Panama Lane, Bakersfield, CA, 93313", "city": "Bakersfield", "state": "CA", "type": "Grocery/Supercenter", "vertical": "Commercial", "sqft": 89949.0, "opex": 36400.57841, "valuation": 606676.3068333333, "carbon": 18.94338999, "eui": 153.2547332, "image": "CA_6465966_Serpapi.jpg", "lat": 35.2948116, "lon": -119.0781743}, {"id": "CA_6466573", "address": "14338 Foothill Boulevard, Fontana, CA, 92336", "city": "Fontana", "state": "CA", "type": "Grocery/Supercenter", "vertical": "Commercial", "sqft": 98673.0, "opex": 34957.34961, "valuation": 582622.4935, "carbon": 23.68857671, "eui": 160.6626504, "image": "CA_6466573_streetview.jpg", "lat": 34.1075545, "lon": -117.492182}, {"id": "CA_6466577", "address": "90 Rio Rancho Road, Pomona, CA, 91766", "city": "Pomona", "state": "CA", "type": "Grocery/Supercenter", "vertical": "Commercial", "sqft": 111085.0, "opex": 33759.24361, "valuation": 562654.0601666666, "carbon": 23.80259212, "eui": 133.0607637, "image": "CA_6466577_streetview.jpg", "lat": 34.0263729, "lon": -117.7614793}, {"id": "CA_6466582", "address": "15350 Roy Rogers Drive, Victorville, CA, 92393", "city": "Victorville", "state": "CA", "type": "Grocery/Supercenter", "vertical": "Commercial", "sqft": 94793.0, "opex": 32439.43731, "valuation": 540657.2885, "carbon": 21.35602189, "eui": 154.2801462, "image": "CA_6466582_Serpapi.jpg", "lat": 34.5232584, "lon": -117.3295114}, {"id": "CA_6466576", "address": "40435 Winchester Road, Temecula, CA, 92591", "city": "Temecula", "state": "CA", "type": "Grocery/Supercenter", "vertical": "Commercial", "sqft": 118128.0, "opex": 31264.01568, "valuation": 521066.928, "carbon": 17.68907184, "eui": 126.747551, "image": "CA_6466576_Serpapi.jpg", "lat": 33.5305796, "lon": -117.1538695}, {"id": "CA_6466578", "address": "3939 West Caldwell Avenue, Visalia, CA, 93277", "city": "Visalia", "state": "CA", "type": "Grocery/Supercenter", "vertical": "Commercial", "sqft": 96504.0, "opex": 31100.11313, "valuation": 518335.2188333334, "carbon": 19.39982662, "eui": 143.7634627, "image": "CA_6466578_Serpapi.jpg", "lat": 36.2962781, "lon": -119.3339658}, {"id": "CA_6466574", "address": "740 West Avenue K, Lancaster, CA, 93534", "city": "Lancaster", "state": "CA", "type": "Grocery/Supercenter", "vertical": "Commercial", "sqft": 96835.0, "opex": 30948.36782, "valuation": 515806.13033333333, "carbon": 24.3748623, "eui": 149.7644026, "image": "CA_6466574_streetview.jpg", "lat": 34.6717475, "lon": -118.1449869}, {"id": "CA_6465947", "address": "636 West Harris Street, Eureka, CA, 95503", "city": "Eureka", "state": "CA", "type": "Grocery/Supercenter", "vertical": "Commercial", "sqft": 82320.0, "opex": 30803.35396, "valuation": 513389.2326666667, "carbon": 14.10060216, "eui": 150.4199328, "image": "CA_6465947_streetview.jpg", "lat": 40.7816949, "lon": -124.1780961}, {"id": "CA_6466585", "address": "4750 Telephone Road, Ventura, CA, 93003", "city": "Ventura", "state": "CA", "type": "Grocery/Supercenter", "vertical": "Commercial", "sqft": 81626.0, "opex": 22890.73239, "valuation": 381512.2065, "carbon": 11.25261391, "eui": 131.8786698, "image": "CA_6466585_streetview.jpg", "lat": 34.2594812, "lon": -119.2323508}, {"id": "CA_6466586", "address": "1100 Hamner Avenue, Norco, CA, 92860", "city": "Norco", "state": "CA", "type": "Grocery/Supercenter", "vertical": "Commercial", "sqft": 67006.0, "opex": 15873.56887, "valuation": 264559.48116666666, "carbon": 7.070104041, "eui": 125.8159539, "image": "CA_6466586_Serpapi.jpg", "lat": 33.8994159, "lon": -117.5650391}, {"id": "PDX_1N2E34BB-4300-B1", "address": "1222 NE 102nd Ave, Portland, OR, 97220", "city": "Portland", "state": "OR", "type": "Grocery/Supercenter", "vertical": "Commercial", "sqft": 66632.02048, "opex": 15045.83524, "valuation": 250763.92066666667, "carbon": 19.29963871, "eui": 204.9, "image": "", "lat": 45.5311633, "lon": -122.5563359}]