[{"id": "NYC_1008250031", "address": "190 5th Ave, Brooklyn, NY 11217", "city": "Brooklyn", "state": "NY", "type": "Office", "vertical": "Commercial", "sqft": 704950.0, "opex": 623021.7234, "valuation": 8900310.334285714, "carbon": 1306.714677, "eui": 85.93451621, "image": "NYC_1008250031_AWS.jpg", "lat": 40.7420471, "lon": -73.9896511}, {"id": "NYC_1000800001", "address": "195 Broadway, New York, NY, 10007", "city": "New York", "state": "NY", "type": "Office", "vertical": "Commercial", "sqft": 1094861.0, "opex": 577491.7554, "valuation": 8249882.22, "carbon": 1306.367106, "eui": 56.0753133, "image": "NYC_1000800001_AWS.jpg", "lat": 40.7109225, "lon": -74.009805}, {"id": "NYC_1008950045", "address": "600 3rd Ave, New York, NY, 10016", "city": "New York", "state": "NY", "type": "Office", "vertical": "Commercial", "sqft": 493860.0, "opex": 415582.334, "valuation": 5936890.485714285, "carbon": 1176.349199, "eui": 85.63016503, "image": "NYC_1008950045_AWS.jpg", "lat": 40.7492708, "lon": -73.9758842}, {"id": "NYC_1013100001", "address": "101 W 55th St, New York, NY, 10019", "city": "New York", "state": "NY", "type": "Office", "vertical": "Commercial", "sqft": 700000.0, "opex": 362829.002, "valuation": 5183271.457142856, "carbon": 468.7837741, "eui": 62.98626286, "image": "NYC_1013100001_AWS.jpg", "lat": 40.7604249, "lon": -73.9709797}, {"id": "NYC_1012820017", "address": "11 E 46th St, New York, NY, 10017", "city": "New York", "state": "NY", "type": "Office", "vertical": "Commercial", "sqft": 821165.0, "opex": 294284.1446, "valuation": 4204059.208571428, "carbon": 297.6373651, "eui": 41.86365115, "image": "NYC_1012820017_AWS.jpg", "lat": 40.7558941, "lon": -73.977414}, {"id": "NYC_1008180051", "address": "114 5th Ave, New York, NY, 10011", "city": "New York", "state": "NY", "type": "Office", "vertical": "Commercial", "sqft": 351552.0, "opex": 113506.2129, "valuation": 1621517.327142857, "carbon": 98.08260565, "eui": 38.74443126, "image": "NYC_1008180051_AWS.jpg", "lat": 40.7378668, "lon": -73.9926724}, {"id": "NYC_1006960054", "address": "540 West 25 Street, New York, NY, 10001", "city": "New York", "state": "NY", "type": "Library/Museum", "vertical": "Education", "sqft": 47330.0, "opex": 88940.73637, "valuation": 1270581.948142857, "carbon": 79.69884111, "eui": 138.8741982, "image": "NYC_1006960054_Flickr.jpg", "lat": 40.749592, "lon": -74.00471}, {"id": "NYC_1006970031", "address": "259 Tenth Avenue, New York, NY, 10019", "city": "New York", "state": "NY", "type": "PreK-12", "vertical": "Education", "sqft": 214783.0, "opex": 88725.14909, "valuation": 0.0, "carbon": 157.2359724, "eui": 64.7727944, "image": "NYC_1006970031_cyclomedia.jpg", "lat": 40.7494101, "lon": -74.0033168}, {"id": "NYC_1006970023", "address": "511 W 25th St, New York, NY, 10001", "city": "New York", "state": "NY", "type": "Office", "vertical": "Commercial", "sqft": 83612.0, "opex": 31544.93032, "valuation": 450641.8617142857, "carbon": 27.12773982, "eui": 41.44429269, "image": "NYC_1006970023_AWS.jpg", "lat": 40.749468, "lon": -74.0038956}, {"id": "NYC_1008180041", "address": "110 5th Ave, New York, NY, 10011", "city": "New York", "state": "NY", "type": "Office", "vertical": "Commercial", "sqft": 148940.0, "opex": 22652.14887, "valuation": 323602.1267142857, "carbon": 31.48061166, "eui": 41.67624681, "image": "NYC_1008180041_AWS.jpg", "lat": 40.7376744, "lon": -73.9929305}, {"id": "NYC_1006970013", "address": "521-541 W 25th St, New York, NY, 10001", "city": "New York", "state": "NY", "type": "Office", "vertical": "Commercial", "sqft": 76672.2, "opex": 21247.19722, "valuation": 303531.3888571428, "carbon": 28.73283274, "eui": 45.93533119, "image": "NYC_1006970013_AWS.jpg", "lat": 40.732477, "lon": -73.991803}]