[{"id": "NYC_1010120029", "address": "560 Seventh Avenue, New York, NY, 10018", "city": "New York", "state": "NY", "type": "Hotel", "vertical": "Commercial", "sqft": 175298.0, "opex": 240596.8661, "valuation": 3437098.087142857, "carbon": 105.6648222, "eui": 135.9697121, "image": "NYC_1010120029_cyclomedia.jpg", "lat": 40.754847, "lon": -73.987833}, {"id": "NYC_1007620067", "address": "350 West 39Th St, New York, NY, 10018", "city": "New York", "state": "NY", "type": "Hotel", "vertical": "Commercial", "sqft": 179130.0, "opex": 79007.61768, "valuation": 1128680.2525714284, "carbon": 36.44650978, "eui": 83.6024753, "image": "NYC_1007620067_streetview.jpg", "lat": 40.755932, "lon": -73.992626}, {"id": "NYC_1007630028", "address": "311 West 39 Street, New York, NY, 10018", "city": "New York", "state": "NY", "type": "Hotel", "vertical": "Commercial", "sqft": 177000.0, "opex": 66962.43273, "valuation": 956606.1818571428, "carbon": 25.33132756, "eui": 61.14826836, "image": "NYC_1007630028_Flickr.jpg", "lat": 40.755602, "lon": -73.991803}, {"id": "NYC_1007630024", "address": "315 W 39th St, New York, NY 10018", "city": "New York", "state": "NY", "type": "Office", "vertical": "Commercial", "sqft": 132684.0, "opex": 41098.67825, "valuation": 587123.9749999999, "carbon": 98.73124588, "eui": 68.83424678, "image": "NYC_1007630024_AWS.jpg", "lat": 40.7559406, "lon": -73.9920706}, {"id": "NYC_1007630012", "address": "343 West 39Th Street, New York, NY, 10018", "city": "New York", "state": "NY", "type": "Hotel", "vertical": "Commercial", "sqft": 83823.0, "opex": 39606.3097, "valuation": 565804.4242857142, "carbon": 15.22199842, "eui": 69.7616239, "image": "NYC_1007630012_Flickr.jpg", "lat": 40.755877, "lon": -73.992453}, {"id": "NYC_1007630013", "address": "339 West 39Th Street, New York, NY, 10018", "city": "New York", "state": "NY", "type": "Hotel", "vertical": "Commercial", "sqft": 81837.0, "opex": 29751.39669, "valuation": 425019.9527142857, "carbon": 9.617665859, "eui": 60.23917788, "image": "NYC_1007630013_cyclomedia.jpg", "lat": 40.755841, "lon": -73.99237}, {"id": "NYC_1009930007", "address": "1431 Broadway, New York, NY, 10018", "city": "New York", "state": "NY", "type": "Office", "vertical": "Commercial", "sqft": 41410.0, "opex": 26545.86523, "valuation": 379226.6461428571, "carbon": 48.03470383, "eui": 82.2035233, "image": "NYC_1009930007_streetview.jpg", "lat": 40.754531, "lon": -73.987086}, {"id": "NYC_1009930001", "address": "561 7 Ave, New York, NY 10018", "city": "New York", "state": "NY", "type": "Office", "vertical": "Commercial", "sqft": 71741.0, "opex": 25821.53354, "valuation": 368879.05057142855, "carbon": 39.36741577, "eui": 124.9673729, "image": "NYC_1009930001_AWS.jpg", "lat": 40.7548048, "lon": -73.9875057}, {"id": "NYC_1007880011", "address": "263 W 38th St, New York, NY, 10018", "city": "New York", "state": "NY", "type": "Office", "vertical": "Commercial", "sqft": 146377.0, "opex": 24962.4545, "valuation": 356606.4928571428, "carbon": 38.12805797, "eui": 46.66861256, "image": "NYC_1007880011_AWS.jpg", "lat": 40.7546462, "lon": -73.9908706}, {"id": "NYC_1007620061", "address": "338 West 39 St, New York, NY, 10018", "city": "New York", "state": "NY", "type": "Hotel", "vertical": "Commercial", "sqft": 77999.0, "opex": 17406.36303, "valuation": 248662.32899999997, "carbon": 5.201474482, "eui": 46.2428544, "image": "NYC_1007620061_Serpapi.jpg", "lat": 40.755827, "lon": -73.99238}, {"id": "NYC_1013100041", "address": "160 E 56th St, New York, NY 10022", "city": "New York", "state": "NY", "type": "Office", "vertical": "Commercial", "sqft": 51923.0, "opex": 8552.184104, "valuation": 122174.0586285714, "carbon": 7.787277059, "eui": 33.12870597, "image": "NYC_1013100041_AWS.jpg", "lat": 40.7596846, "lon": -73.9686591}]