[{"id": "DC_5482157", "address": "2800 Pennsylvania Ave NW, Washington, DC 20007", "city": "Washington", "state": "DC", "type": "Hotel", "vertical": "Commercial", "sqft": 459534.0, "opex": 2406225.108, "valuation": 32083001.44, "carbon": 174.6101016, "eui": 103.3818506, "image": "DC_5482157_Serpapi.jpg", "lat": 38.90444997, "lon": -77.05722641}, {"id": "CA_33560623", "address": "2 Dole Drive, Westlake Village, CA, 91362", "city": "Westlake Village", "state": "CA", "type": "Hotel", "vertical": "Commercial", "sqft": 476317.0, "opex": 491460.7045, "valuation": 6143258.806249999, "carbon": 389.6357904, "eui": 175.0626974, "image": "CA_33560623_MATTConstruction.jpg", "lat": 34.1510743, "lon": -118.8048724}, {"id": "CA_32596850", "address": "9500 Wilshire Boulevard, Beverly Hills, CA, 90212", "city": "Beverly Hills", "state": "CA", "type": "Hotel", "vertical": "Commercial", "sqft": 542209.0, "opex": 488741.0537, "valuation": 6109263.17125, "carbon": 436.2856084, "eui": 146.5166542, "image": "CA_32596850_FourSeasons.jpg", "lat": 34.0669165, "lon": -118.4003589}, {"id": "CA_21652527", "address": "400 Silverado Trail N, Calistoga, CA, 94515", "city": "Calistoga", "state": "CA", "type": "Hotel", "vertical": "Commercial", "sqft": 152754.0, "opex": 281600.0262, "valuation": 3520000.3275, "carbon": 154.2153445, "eui": 184.3627431, "image": "CA_21652527_Serpapi.jpg", "lat": 38.584029, "lon": -122.5674264}, {"id": "SF_37061272024", "address": "765 Market St, San Francisco, CA, 94103", "city": "San Francisco", "state": "CA", "type": "Hotel", "vertical": "Commercial", "sqft": 959355.0, "opex": 265732.2602, "valuation": 3543096.802666667, "carbon": 128.6827533, "eui": 64.04377576, "image": "SF_37061272024_streetview.jpg", "lat": 37.78621198, "lon": -122.4043033}, {"id": "SF_37062702024", "address": "757 Market St, San Francisco, CA, 94103", "city": "San Francisco", "state": "CA", "type": "Mixed Use", "vertical": "Commercial", "sqft": 1110000.0, "opex": 260421.6469, "valuation": 3720309.241428571, "carbon": 444.3804403, "eui": 56.61889624, "image": "SF_37062702024_Cushman.jpg", "lat": 37.78621198, "lon": -122.4043033}, {"id": "LA_443813849186", "address": "300 S Doheny Dr, Los Angeles, CA 90048", "city": "Los Angeles", "state": "CA", "type": "Hotel", "vertical": "Commercial", "sqft": 336020.0, "opex": 220724.8991, "valuation": 2942998.654666667, "carbon": 60.94542547, "eui": 55.88213142, "image": "LA_443813849186_streetview.jpg", "lat": 34.0729248, "lon": -118.3891988}, {"id": "NYC_1012937501", "address": "57 East 57Th Street, New York, NY, 10022", "city": "New York", "state": "NY", "type": "Hotel", "vertical": "Commercial", "sqft": 532225.0, "opex": 115227.9169, "valuation": 1646113.0985714283, "carbon": 70.93091043, "eui": 44.65226079, "image": "NYC_1012937501_Gettyimages.jpg", "lat": 40.762058, "lon": -73.971793}, {"id": "SF_0261017-B2024", "address": "222 Sansome St, San Francisco, CA, 94104", "city": "San Francisco", "state": "CA", "type": "Hotel", "vertical": "Commercial", "sqft": 162702.0, "opex": 95103.2195, "valuation": 1268042.9266666668, "carbon": 91.20748368, "eui": 93.34825477, "image": "", "lat": 37.79260235, "lon": -122.4004389}, {"id": "LA_432634847225", "address": "10300 Wilshire Blvd, Los Angeles, CA, 90024", "city": "Los Angeles", "state": "CA", "type": "Hotel", "vertical": "Commercial", "sqft": 65130.0, "opex": 14720.84551, "valuation": 196277.94013333332, "carbon": 3.253506668, "eui": 25.40460003, "image": "LA_432634847225_streetview.jpg", "lat": 34.0675165, "lon": -118.426075}]