[{"id": "CA_26716", "address": "5156 Santo Rd., San Diego, CA, 92124", "city": "San Diego", "state": "CA", "type": "PreK-12", "vertical": "Education", "sqft": 311562.0, "opex": 184860.7045, "valuation": 0.0, "carbon": 72.70558457, "eui": 38.14313716, "image": "CA_26716_streetview.jpg", "lat": 32.8258111, "lon": -117.1050115}, {"id": "CA_6834833", "address": "1100 Murray Dr, El Cajon, CA, 92020", "city": "El Cajon", "state": "CA", "type": "PreK-12", "vertical": "Education", "sqft": 390974.0, "opex": 133075.8276, "valuation": 0.0, "carbon": 164.6493497, "eui": 32.56696376, "image": "CA_6834833_yelp.jpg", "lat": 32.780633, "lon": -116.986308}, {"id": "CA_26682", "address": "10510 Marauder Way, San Diego, CA, 92126", "city": "San Diego", "state": "CA", "type": "PreK-12", "vertical": "Education", "sqft": 328276.0, "opex": 106686.0758, "valuation": 0.0, "carbon": 138.3820003, "eui": 30.89546997, "image": "CA_26682_streetview.jpg", "lat": 32.9104443, "lon": -117.1419168}, {"id": "CA_26616", "address": "4100 Normal St, San Diego, CA, 92103", "city": "San Diego", "state": "CA", "type": "PreK-12", "vertical": "Education", "sqft": 174788.0, "opex": 100406.1804, "valuation": 1338749.072, "carbon": 61.65863865, "eui": 38.23889998, "image": "CA_26616_streetview.jpg", "lat": 32.7540102, "lon": -117.1481666}, {"id": "CA_26639", "address": "4474 El Cajon Blvd., San Diego, CA, 92115", "city": "San Diego", "state": "CA", "type": "PreK-12", "vertical": "Education", "sqft": 331257.0, "opex": 84460.60073, "valuation": 0.0, "carbon": 72.76099738, "eui": 22.49369205, "image": "CA_26639_places.jpg", "lat": 32.7575872, "lon": -117.0977951}, {"id": "CA_26599", "address": "4191 55Th St, San Diego, CA, 92115", "city": "San Diego", "state": "CA", "type": "PreK-12", "vertical": "Education", "sqft": 166056.0, "opex": 75569.35347, "valuation": 0.0, "carbon": 71.98500599, "eui": 33.65505744, "image": "CA_26599_Crawfordhighschoolsa.jpg", "lat": 32.7583349, "lon": -117.0760783}, {"id": "CA_26729", "address": "6949 Genesee Ave., San Diego, CA, 92122", "city": "San Diego", "state": "CA", "type": "PreK-12", "vertical": "Education", "sqft": 221093.0, "opex": 73830.77922, "valuation": 0.0, "carbon": 25.14971474, "eui": 28.31717784, "image": "CA_26729_Homes.jpg", "lat": 32.8610159, "lon": -117.2057846}, {"id": "CA_26714", "address": "10410 Falcon Way, San Diego, CA, 92131", "city": "San Diego", "state": "CA", "type": "PreK-12", "vertical": "Education", "sqft": 206176.0, "opex": 72294.14022, "valuation": 0.0, "carbon": 91.36257903, "eui": 31.96505316, "image": "CA_26714_places.jpg", "lat": 32.9105803, "lon": -117.1114233}, {"id": "CA_26684", "address": "2475 Grand Ave., San Diego, CA, 92109", "city": "San Diego", "state": "CA", "type": "PreK-12", "vertical": "Education", "sqft": 176951.0, "opex": 68935.71169, "valuation": 0.0, "carbon": 77.56316853, "eui": 31.86766976, "image": "CA_26684_places.jpg", "lat": 32.8007278, "lon": -117.2242061}, {"id": "CA_26596", "address": "4150 Ute Dr., San Diego, CA, 92117", "city": "San Diego", "state": "CA", "type": "PreK-12", "vertical": "Education", "sqft": 183002.0, "opex": 67021.72427, "valuation": 0.0, "carbon": 85.54134316, "eui": 32.47585415, "image": "CA_26596_Clairemonthighschool.jpg", "lat": 32.8083016, "lon": -117.2040963}, {"id": "CA_26721", "address": "6298 Radcliffe Dr., San Diego, CA, 92122", "city": "San Diego", "state": "CA", "type": "PreK-12", "vertical": "Education", "sqft": 129775.0, "opex": 65098.82397, "valuation": 0.0, "carbon": 106.9936163, "eui": 46.24812637, "image": "CA_26721_Homes.jpg", "lat": 32.8522717, "lon": -117.206313}, {"id": "CA_26657", "address": "750 Nautilus St., La Jolla, CA, 92037", "city": "La Jolla", "state": "CA", "type": "PreK-12", "vertical": "Education", "sqft": 197273.0, "opex": 54244.32042, "valuation": 0.0, "carbon": 36.67502031, "eui": 22.33462386, "image": "CA_26657_places.jpg", "lat": 32.8334354, "lon": -117.2728013}, {"id": "CA_26654", "address": "5050 Conrad Ave., San Diego, CA, 92117", "city": "San Diego", "state": "CA", "type": "PreK-12", "vertical": "Education", "sqft": 138765.0, "opex": 49461.10078, "valuation": 0.0, "carbon": 18.47629555, "eui": 25.25458437, "image": "CA_26654_places.jpg", "lat": 32.8363948, "lon": -117.1823419}, {"id": "CA_2482227", "address": "9700 Ave. Of Nations, San Diego, CA, 92131", "city": "San Diego", "state": "CA", "type": "PreK-12", "vertical": "Education", "sqft": 156206.0, "opex": 48864.85543, "valuation": 0.0, "carbon": 16.00202559, "eui": 24.08620604, "image": "CA_2482227_Serpapi.jpg", "lat": 32.8961094, "lon": -117.1009437}, {"id": "CA_26672", "address": "4833 Doliva Dr., San Diego, CA, 92117", "city": "San Diego", "state": "CA", "type": "PreK-12", "vertical": "Education", "sqft": 214846.0, "opex": 47799.65256, "valuation": 0.0, "carbon": 65.41884876, "eui": 25.35308965, "image": "CA_26672_Yelp.jpg", "lat": 32.8311331, "lon": -117.1742668}, {"id": "CA_9484542", "address": "5353 Airway Road, San Diego, CA, 92154", "city": "San Diego", "state": "CA", "type": "PreK-12", "vertical": "Education", "sqft": 264294.0, "opex": 47264.19732, "valuation": 0.0, "carbon": 52.0733229, "eui": 19.03485134, "image": "CA_9484542_places.jpg", "lat": 32.5641617, "lon": -117.0158692}, {"id": "CA_2319216", "address": "2425 Dusk Dr., San Diego, CA, 92139", "city": "San Diego", "state": "CA", "type": "PreK-12", "vertical": "Education", "sqft": 143790.0, "opex": 36284.39587, "valuation": 0.0, "carbon": 11.40455988, "eui": 20.90287989, "image": "CA_2319216_Homes.jpg", "lat": 32.6797283, "lon": -117.0484687}, {"id": "CA_9484440", "address": "1051 Picador Boulevard, San Diego, CA, 92154", "city": "San Diego", "state": "CA", "type": "PreK-12", "vertical": "Education", "sqft": 95148.0, "opex": 31044.71749, "valuation": 0.0, "carbon": 25.66521736, "eui": 25.55838147, "image": "CA_9484440_Homes.jpg", "lat": 32.5783439, "lon": -117.0544455}, {"id": "CA_26673", "address": "4345 54Th St., San Diego, CA, 92115", "city": "San Diego", "state": "CA", "type": "PreK-12", "vertical": "Education", "sqft": 151897.0, "opex": 30332.35793, "valuation": 0.0, "carbon": 33.22917878, "eui": 21.09998861, "image": "CA_26673_Sandiegounifiedschoo.jpg", "lat": 32.7559439, "lon": -117.0787187}, {"id": "CA_26707", "address": "3366 Park Blvd., San Diego, CA, 92103", "city": "San Diego", "state": "CA", "type": "PreK-12", "vertical": "Education", "sqft": 123200.0, "opex": 29613.86138, "valuation": 0.0, "carbon": 23.01484452, "eui": 18.57340666, "image": "CA_26707_Serpapi.jpg", "lat": 32.7403541, "lon": -117.1480406}, {"id": "CA_26697", "address": "4676 Ingraham St., San Diego, CA, 92109", "city": "San Diego", "state": "CA", "type": "PreK-12", "vertical": "Education", "sqft": 102818.0, "opex": 28870.41403, "valuation": 0.0, "carbon": 24.72334128, "eui": 22.42244733, "image": "CA_26697_Homes.jpg", "lat": 32.8013239, "lon": -117.241845}, {"id": "CA_26669", "address": "5055 July St., San Diego, CA, 92110", "city": "San Diego", "state": "CA", "type": "PreK-12", "vertical": "Education", "sqft": 57105.0, "opex": 28589.6402, "valuation": 0.0, "carbon": 11.62066305, "eui": 34.52622443, "image": "CA_26669_Serpapi.jpg", "lat": 32.7834318, "lon": -117.1887628}, {"id": "CA_26579", "address": "620 Briarwood Rd., San Diego, CA, 92139", "city": "San Diego", "state": "CA", "type": "PreK-12", "vertical": "Education", "sqft": 154836.0, "opex": 27538.63586, "valuation": 0.0, "carbon": 9.018218753, "eui": 15.12630396, "image": "CA_26579_places.jpg", "lat": 32.6892942, "lon": -117.0413193}, {"id": "CA_26676", "address": "3799 Clairemont Dr., San Diego, CA, 92117", "city": "San Diego", "state": "CA", "type": "PreK-12", "vertical": "Education", "sqft": 112285.0, "opex": 25706.74573, "valuation": 0.0, "carbon": 21.60664115, "eui": 20.78903347, "image": "CA_26676_Marstonmiddle.jpg", "lat": 32.8083773, "lon": -117.2005933}, {"id": "CA_26644", "address": "10050 Avenida Magnifica, San Diego, CA, 92131", "city": "San Diego", "state": "CA", "type": "PreK-12", "vertical": "Education", "sqft": 70793.0, "opex": 23351.33784, "valuation": 0.0, "carbon": 8.415523712, "eui": 26.00052265, "image": "CA_26644_Jerabekelementary.jpg", "lat": 32.9078994, "lon": -117.0840034}, {"id": "CA_9484437", "address": "3250 Palm Avenue, San Diego, CA, 92154", "city": "San Diego", "state": "CA", "type": "PreK-12", "vertical": "Education", "sqft": 191768.0, "opex": 23328.92457, "valuation": 0.0, "carbon": 6.564718304, "eui": 12.78079554, "image": "CA_9484437_places.jpg", "lat": 32.5842607, "lon": -117.065602}, {"id": "CA_26659", "address": "4961 64Th St., San Diego, CA, 92115", "city": "San Diego", "state": "CA", "type": "PreK-12", "vertical": "Education", "sqft": 74308.0, "opex": 23044.48053, "valuation": 0.0, "carbon": 8.608312924, "eui": 22.76785676, "image": "CA_26659_places.jpg", "lat": 32.7681859, "lon": -117.0618932}, {"id": "CA_26592", "address": "10810 Parkdale Ave., San Diego, CA, 92126", "city": "San Diego", "state": "CA", "type": "PreK-12", "vertical": "Education", "sqft": 99787.0, "opex": 22989.81175, "valuation": 0.0, "carbon": 7.225934963, "eui": 19.72710874, "image": "CA_26592_places.jpg", "lat": 32.9131813, "lon": -117.1577461}, {"id": "CA_26732", "address": "9230 Gold Coast Dr., San Diego, CA, 92126", "city": "San Diego", "state": "CA", "type": "PreK-12", "vertical": "Education", "sqft": 149156.0, "opex": 22732.72122, "valuation": 0.0, "carbon": 23.19186536, "eui": 16.49374614, "image": "CA_26732_Serpapi.jpg", "lat": 32.9068724, "lon": -117.1254642}, {"id": "CA_26617", "address": "4880 La Cuenta Dr, San Diego, CA, 92124", "city": "San Diego", "state": "CA", "type": "PreK-12", "vertical": "Education", "sqft": 73020.0, "opex": 22515.49297, "valuation": 0.0, "carbon": 8.1142959, "eui": 22.64528348, "image": "CA_26617_Homes.jpg", "lat": 32.82016, "lon": -117.1019054}, {"id": "CA_26598", "address": "4302 Valeta St., San Diego, CA, 92107", "city": "San Diego", "state": "CA", "type": "PreK-12", "vertical": "Education", "sqft": 105188.0, "opex": 21528.25731, "valuation": 0.0, "carbon": 7.049969173, "eui": 17.40624216, "image": "CA_26598_Correia.jpg", "lat": 32.7480725, "lon": -117.2318774}, {"id": "CA_26637", "address": "10850 Montongo St, San Diego, CA, 92126", "city": "San Diego", "state": "CA", "type": "PreK-12", "vertical": "Education", "sqft": 58294.0, "opex": 20544.08602, "valuation": 0.0, "carbon": 15.33360675, "eui": 26.15289054, "image": "CA_26637_Homes.jpg", "lat": 32.9145807, "lon": -117.1533093}, {"id": "CA_26681", "address": "4343 Shields St., San Diego, CA, 92124", "city": "San Diego", "state": "CA", "type": "PreK-12", "vertical": "Education", "sqft": 92968.0, "opex": 20270.88186, "valuation": 0.0, "carbon": 14.05000706, "eui": 19.06916458, "image": "CA_26681_Homes.jpg", "lat": 32.8181204, "lon": -117.1059767}, {"id": "CA_26683", "address": "10770 Red Cedar Dr., San Diego, CA, 92131", "city": "San Diego", "state": "CA", "type": "PreK-12", "vertical": "Education", "sqft": 69005.0, "opex": 19621.87393, "valuation": 0.0, "carbon": 17.80505351, "eui": 23.45214738, "image": "CA_26683_Homes.jpg", "lat": 32.9094765, "lon": -117.0982547}, {"id": "CA_2314840", "address": "4877 Orange Ave, San Diego, CA, 92115", "city": "San Diego", "state": "CA", "type": "PreK-12", "vertical": "Education", "sqft": 58815.0, "opex": 19566.44802, "valuation": 0.0, "carbon": 30.47769493, "eui": 32.6020794, "image": "CA_2314840_Homes.jpg", "lat": 32.7524628, "lon": -117.0891574}, {"id": "CA_9484551", "address": "1685 Hollister Street, San Diego, CA, 92154", "city": "San Diego", "state": "CA", "type": "PreK-12", "vertical": "Education", "sqft": 160209.0, "opex": 19286.06989, "valuation": 0.0, "carbon": 5.173168288, "eui": 13.05903039, "image": "CA_9484551_places.jpg", "lat": 32.5680244, "lon": -117.0829019}, {"id": "CA_26720", "address": "6033 Stadium St., San Diego, CA, 92122", "city": "San Diego", "state": "CA", "type": "PreK-12", "vertical": "Education", "sqft": 62791.0, "opex": 18449.98073, "valuation": 0.0, "carbon": 20.21451084, "eui": 27.07282224, "image": "CA_26720_Homes.jpg", "lat": 32.8501811, "lon": -117.2129743}, {"id": "CA_26671", "address": "5095 Arvinels Ave, San Diego, CA, 92117", "city": "San Diego", "state": "CA", "type": "PreK-12", "vertical": "Education", "sqft": 68605.0, "opex": 18390.26527, "valuation": 0.0, "carbon": 15.33687412, "eui": 21.86100593, "image": "CA_26671_places.jpg", "lat": 32.8372612, "lon": -117.1748827}, {"id": "CA_26743", "address": "2655 Casey St., San Diego, CA, 92139", "city": "San Diego", "state": "CA", "type": "PreK-12", "vertical": "Education", "sqft": 109358.0, "opex": 18386.22785, "valuation": 0.0, "carbon": 5.173852152, "eui": 17.66368807, "image": "CA_26743_Homes.jpg", "lat": 32.6811191, "lon": -117.0378939}, {"id": "CA_9484558", "address": "2710 Iris Avenue, San Diego, CA, 92154", "city": "San Diego", "state": "CA", "type": "PreK-12", "vertical": "Education", "sqft": 68321.0, "opex": 18293.80324, "valuation": 0.0, "carbon": 17.92271638, "eui": 23.41199338, "image": "CA_9484558_Homes.jpg", "lat": 32.5674961, "lon": -117.0814768}, {"id": "CA_26611", "address": "4077 35Th St, San Diego, CA, 92104", "city": "San Diego", "state": "CA", "type": "PreK-12", "vertical": "Education", "sqft": 62622.0, "opex": 18283.75784, "valuation": 0.0, "carbon": 17.63937468, "eui": 25.51341461, "image": "CA_26611_Serpapi.jpg", "lat": 32.7510373, "lon": -117.1173591}, {"id": "CA_26607", "address": "11010 Clairemont Mesa Blvd., San Diego, CA, 92124", "city": "San Diego", "state": "CA", "type": "PreK-12", "vertical": "Education", "sqft": 89206.0, "opex": 18102.59595, "valuation": 0.0, "carbon": 5.689832625, "eui": 17.98162119, "image": "CA_26607_Serpapi.jpg", "lat": 32.8295751, "lon": -117.0913139}, {"id": "CA_26734", "address": "9165 Hillery Dr., San Diego, CA, 92126", "city": "San Diego", "state": "CA", "type": "PreK-12", "vertical": "Education", "sqft": 73102.0, "opex": 17906.60141, "valuation": 0.0, "carbon": 6.217572926, "eui": 18.67169298, "image": "CA_26734_Homes.jpg", "lat": 32.9127239, "lon": -117.1286747}, {"id": "CA_26614", "address": "11174 Westonhill Dr., San Diego, CA, 92126", "city": "San Diego", "state": "CA", "type": "PreK-12", "vertical": "Education", "sqft": 72486.0, "opex": 17369.14674, "valuation": 0.0, "carbon": 11.83331956, "eui": 20.78245518, "image": "CA_26614_Homes.jpg", "lat": 32.9269393, "lon": -117.1362441}, {"id": "CA_2320359", "address": "11778 Cypress Canyon Rd., San Diego, CA, 92131", "city": "San Diego", "state": "CA", "type": "PreK-12", "vertical": "Education", "sqft": 72872.0, "opex": 16926.27751, "valuation": 0.0, "carbon": 5.320103604, "eui": 19.88853332, "image": "CA_2320359_places.jpg", "lat": 32.9298649, "lon": -117.0821089}, {"id": "CA_26610", "address": "3950 Berino Ct., San Diego, CA, 92122", "city": "San Diego", "state": "CA", "type": "PreK-12", "vertical": "Education", "sqft": 65129.0, "opex": 16506.81258, "valuation": 0.0, "carbon": 5.405570831, "eui": 21.55515515, "image": "CA_26610_Homes.jpg", "lat": 32.8629839, "lon": -117.2210364}, {"id": "CA_26702", "address": "8204 San Carlos Dr., San Diego, CA, 92119", "city": "San Diego", "state": "CA", "type": "PreK-12", "vertical": "Education", "sqft": 102877.0, "opex": 15987.9146, "valuation": 0.0, "carbon": 13.03709881, "eui": 18.23101471, "image": "CA_26702_Serpapi.jpg", "lat": 32.8023166, "lon": -117.0195478}, {"id": "CA_26699", "address": "2797 Utica Dr, San Diego, CA, 92139", "city": "San Diego", "state": "CA", "type": "PreK-12", "vertical": "Education", "sqft": 57388.0, "opex": 15340.37199, "valuation": 0.0, "carbon": 5.326520614, "eui": 20.37579633, "image": "CA_26699_yelp.jpg", "lat": 32.6739631, "lon": -117.0478}, {"id": "CA_26679", "address": "3045 Felton St., San Diego, CA, 92104", "city": "San Diego", "state": "CA", "type": "PreK-12", "vertical": "Education", "sqft": 56591.0, "opex": 14346.43953, "valuation": 0.0, "carbon": 11.2874192, "eui": 20.03815232, "image": "CA_26679_yelp.jpg", "lat": 32.7368421, "lon": -117.1209602}, {"id": "CA_26631", "address": "9750 Galvin Ave., San Diego, CA, 92126", "city": "San Diego", "state": "CA", "type": "PreK-12", "vertical": "Education", "sqft": 59322.0, "opex": 13948.11094, "valuation": 0.0, "carbon": 12.42766711, "eui": 22.62987098, "image": "CA_26631_Homes.jpg", "lat": 32.9212459, "lon": -117.1206384}, {"id": "CA_35050088", "address": "7825 Flanders Dr., San Diego, CA, 92126", "city": "San Diego", "state": "CA", "type": "PreK-12", "vertical": "Education", "sqft": 57769.0, "opex": 13587.64469, "valuation": 0.0, "carbon": 14.98112794, "eui": 27.07634449, "image": "CA_35050088_streetview.jpg", "lat": 32.9059886, "lon": -117.1555651}, {"id": "CA_26626", "address": "6811 Bisby Lake Ave., San Diego, CA, 92119", "city": "San Diego", "state": "CA", "type": "PreK-12", "vertical": "Education", "sqft": 50109.0, "opex": 13239.61967, "valuation": 0.0, "carbon": 12.82321352, "eui": 25.38884891, "image": "CA_26626_Mapquest.jpg", "lat": 32.8063092, "lon": -117.0138689}, {"id": "CA_26713", "address": "11230 Avenida Del Gato, San Diego, CA, 92126", "city": "San Diego", "state": "CA", "type": "PreK-12", "vertical": "Education", "sqft": 69353.0, "opex": 13034.17244, "valuation": 0.0, "carbon": 4.096774837, "eui": 16.65329834, "image": "CA_26713_Yelp.jpg", "lat": 32.9259162, "lon": -117.1496372}, {"id": "CA_26724", "address": "5450 La Cuenta Dr., San Diego, CA, 92124", "city": "San Diego", "state": "CA", "type": "PreK-12", "vertical": "Education", "sqft": 54634.0, "opex": 12758.2389, "valuation": 0.0, "carbon": 4.178006126, "eui": 19.8604953, "image": "CA_26724_Homes.jpg", "lat": 32.8297071, "lon": -117.0977491}, {"id": "CA_26690", "address": "1056 Nautilus St., La Jolla, CA, 92037", "city": "La Jolla", "state": "CA", "type": "PreK-12", "vertical": "Education", "sqft": 101201.0, "opex": 11372.10106, "valuation": 0.0, "carbon": 9.295688844, "eui": 13.12360056, "image": "CA_26690_places.jpg", "lat": 32.8327892, "lon": -117.2684383}, {"id": "CA_26609", "address": "11840 Scripps Creek Dr., San Diego, CA, 92131", "city": "San Diego", "state": "CA", "type": "PreK-12", "vertical": "Education", "sqft": 52825.0, "opex": 11330.68529, "valuation": 0.0, "carbon": 8.224770027, "eui": 19.76270257, "image": "CA_26609_Homes.jpg", "lat": 32.9336928, "lon": -117.0909002}, {"id": "CA_26731", "address": "5606 Antigua Blvd, San Diego, CA, 92124", "city": "San Diego", "state": "CA", "type": "PreK-12", "vertical": "Education", "sqft": 62129.0, "opex": 10513.87505, "valuation": 0.0, "carbon": 3.304619372, "eui": 14.99513915, "image": "CA_26731_Homes.jpg", "lat": 32.8340087, "lon": -117.1089275}, {"id": "CA_9484429", "address": "1267 Thermal Avenue, San Diego, CA, 92154", "city": "San Diego", "state": "CA", "type": "PreK-12", "vertical": "Education", "sqft": 93542.0, "opex": 9645.097203, "valuation": 0.0, "carbon": 2.84108944, "eui": 10.34861773, "image": "CA_9484429_streetview.jpg", "lat": 32.5732897, "lon": -117.0956347}, {"id": "CA_26678", "address": "10340 San Ramon Dr., San Diego, CA, 92126", "city": "San Diego", "state": "CA", "type": "PreK-12", "vertical": "Education", "sqft": 64910.0, "opex": 8042.066264, "valuation": 0.0, "carbon": 2.26302329, "eui": 13.01653366, "image": "CA_26678_Mapillary.jpg", "lat": 32.9059792, "lon": -117.1400093}, {"id": "CA_26591", "address": "4063 Polk Ave., San Diego, CA, 92105", "city": "San Diego", "state": "CA", "type": "PreK-12", "vertical": "Education", "sqft": 72808.0, "opex": 7401.483201, "valuation": 0.0, "carbon": 6.434274882, "eui": 14.31619822, "image": "CA_26591_places.jpg", "lat": 32.7503681, "lon": -117.108022}, {"id": "CA_26608", "address": "3251 Rosecrans St, San Diego, CA, 92110", "city": "San Diego", "state": "CA", "type": "PreK-12", "vertical": "Education", "sqft": 56253.0, "opex": 6242.055081, "valuation": 0.0, "carbon": 1.838678905, "eui": 11.13689937, "image": "CA_26608_yelp.jpg", "lat": 32.7479724, "lon": -117.2087708}]