[{"id": "NYC_2024930001", "address": "One East 161St Street, New York, NY, 10451", "city": "New York", "state": "NY", "type": "Entertainment Venue", "vertical": "Commercial", "sqft": 1300000.0, "opex": 3270785.497, "valuation": 43610473.29333334, "carbon": 2919.78847, "eui": 106.7331911, "image": "NYC_2024930001_Serpapi.jpg", "lat": 40.8295741, "lon": -73.9264477}, {"id": "NYC_1011300001", "address": "200 Central Park West, New York, NY, 10024", "city": "New York", "state": "NY", "type": "Library/Museum", "vertical": "Education", "sqft": 1500000.0, "opex": 2498636.031, "valuation": 35694800.44285714, "carbon": 5034.258772, "eui": 141.8825433, "image": "NYC_1011300001_Wikipediathefreeency.jpg", "lat": 40.781312, "lon": -73.972254}, {"id": "NYC_1009620100", "address": "462 1St Ave, New York, NY, 10016", "city": "New York", "state": "NY", "type": "Hospital/Clinic", "vertical": "Healthcare", "sqft": 3472597.0, "opex": 1252084.144, "valuation": 0.0, "carbon": 2544.877991, "eui": 177.5745729, "image": "NYC_1009620100_6sqft.jpg", "lat": 40.739497, "lon": -73.976624}, {"id": "NYC_1001190001", "address": "1 Police Plaza, New York, NY 10038", "city": "New York", "state": "NY", "type": "Office", "vertical": "Commercial", "sqft": 1000518.0, "opex": 1071718.0, "valuation": 15310257.142857142, "carbon": 2455.587781, "eui": 96.87554027, "image": "NYC_1001190001_AWS.jpg", "lat": 40.7120619, "lon": -74.0023853}, {"id": "NYC_1002700032", "address": "227 Madison St, New York, NY, 10002", "city": "New York", "state": "NY", "type": "Hospital/Clinic", "vertical": "Healthcare", "sqft": 335800.0, "opex": 950673.0905, "valuation": 0.0, "carbon": 2475.225054, "eui": 309.1867034, "image": "NYC_1002700032_enwikipediaorg.jpg", "lat": 40.712784, "lon": -73.988417}, {"id": "NYC_1000670001", "address": "59 Maiden Lane, New York, NY 10038", "city": "New York", "state": "NY", "type": "Office", "vertical": "Commercial", "sqft": 1073000.0, "opex": 950058.8137, "valuation": 13572268.767142856, "carbon": 1535.418905, "eui": 87.20371417, "image": "NYC_1000670001_AWS.jpg", "lat": 40.7088713, "lon": -74.0079239}, {"id": "NYC_1001210001", "address": "1 Centre St, New York, NY 10013", "city": "New York", "state": "NY", "type": "Office", "vertical": "Commercial", "sqft": 1056600.0, "opex": 936350.0459, "valuation": 13376429.227142856, "carbon": 2213.93393, "eui": 98.63856634, "image": "NYC_1001210001_AWS.jpg", "lat": 40.7130112, "lon": -74.0036141}, {"id": "NYC_2029200002", "address": "161 West 180Th St, New York, NY, 10453", "city": "New York", "state": "NY", "type": "Office", "vertical": "Commercial", "sqft": 1330078.0, "opex": 922165.1864, "valuation": 13173788.377142856, "carbon": 1858.219769, "eui": 74.39081137, "image": "NYC_2029200002_RobertAMSternArchite.jpg", "lat": 40.856172, "lon": -73.913083}, {"id": "NYC_3001497501", "address": "445 Gold St, New York, NY, 11201", "city": "New York", "state": "NY", "type": "Entertainment Venue", "vertical": "Commercial", "sqft": 1421596.0, "opex": 913172.9059, "valuation": 11414661.32375, "carbon": 821.1945038, "eui": 54.3296981, "image": "NYC_3001497501_Flickr.jpg", "lat": 40.690833, "lon": -73.983452}, {"id": "NYC_3001630001", "address": "130 Livingston St., New York, NY, 11201", "city": "New York", "state": "NY", "type": "Retail/Consumer Services", "vertical": "Commercial", "sqft": 500000.0, "opex": 895049.1979, "valuation": 17900983.958, "carbon": 649.7803206, "eui": 129.2029246, "image": "NYC_3001630001_cyclomedia.jpg", "lat": 40.690782, "lon": -73.988753}, {"id": "NYC_4043270001", "address": "130-30 28Th Ave, New York, NY, 11354", "city": "New York", "state": "NY", "type": "Higher Ed", "vertical": "Education", "sqft": 750000.0, "opex": 880273.4557, "valuation": 0.0, "carbon": 1826.080411, "eui": 152.3108915, "image": "NYC_4043270001_STVInc.jpg", "lat": 40.772829, "lon": -73.838857}, {"id": "NYC_2031200020", "address": "2300 Southern Blvd, New York, NY, 10460", "city": "New York", "state": "NY", "type": "Office", "vertical": "Commercial", "sqft": 641893.0, "opex": 879139.2914, "valuation": 12559132.734285712, "carbon": 7597.836369, "eui": 570.066218, "image": "NYC_2031200020_GooglePlaces.jpg", "lat": 40.850543, "lon": -73.882456}, {"id": "NYC_2032720001", "address": "2680 Dr. Theodore Kazimiroff Blvd, New York, NY, 10458", "city": "New York", "state": "NY", "type": "Entertainment Venue", "vertical": "Commercial", "sqft": 484626.0, "opex": 874281.1905, "valuation": 11657082.54, "carbon": 1333.874414, "eui": 122.3212696, "image": "NYC_2032720001_streetview.jpg", "lat": 40.863046, "lon": -73.882836}, {"id": "NYC_1007760040", "address": "227 West 27Th St, New York, NY, 10001", "city": "New York", "state": "NY", "type": "Higher Ed", "vertical": "Education", "sqft": 1221878.0, "opex": 857974.182, "valuation": 0.0, "carbon": 1440.82173, "eui": 70.10761074, "image": "NYC_1007760040_GreaterPhoenixEconom.jpg", "lat": 40.747099, "lon": -73.994926}, {"id": "NYC_1007770018", "address": "227 West 27Th St, New York, NY, 10001", "city": "New York", "state": "NY", "type": "Office", "vertical": "Commercial", "sqft": 293332.0, "opex": 750434.2459, "valuation": 10720489.227142856, "carbon": 263.3117115, "eui": 177.8348704, "image": "NYC_1007770018_WikimediaCommons.jpg", "lat": 40.747099, "lon": -73.994926}, {"id": "NYC_2059000001", "address": "3701 Jerome Ave, New York, NY, 10467", "city": "New York", "state": "NY", "type": "Office", "vertical": "Commercial", "sqft": 457900.0, "opex": 654932.1215, "valuation": 0.0, "carbon": 1471.051917, "eui": 415.3783608, "image": "NYC_2059000001_NewYorkYIMBY.jpg", "lat": 40.887018, "lon": -73.878095}, {"id": "NYC_1000630003", "address": "14 Cortlandt St, Mt Vernon, NY, 10550", "city": "Mt Vernon", "state": "NY", "type": "Office", "vertical": "Commercial", "sqft": 647875.0, "opex": 585676.3134, "valuation": 8366804.477142856, "carbon": 902.4564469, "eui": 70.613389, "image": "NYC_1000630003_AWS.jpg", "lat": 40.9083549, "lon": -73.8492066}, {"id": "NYC_4020180001", "address": "47-01 111Th St, New York, NY, 11368", "city": "New York", "state": "NY", "type": "Gym", "vertical": "Commercial", "sqft": 592189.0, "opex": 564648.4656, "valuation": 8066406.651428571, "carbon": 1236.221214, "eui": 130.4277052, "image": "NYC_4020180001_GooglePlaces.jpg", "lat": 40.747399, "lon": -73.853546}, {"id": "NYC_3020930001", "address": "395 Flatbush Ave Ext, New York, NY, 11201", "city": "New York", "state": "NY", "type": "Office", "vertical": "Commercial", "sqft": 346093.0, "opex": 545470.2551, "valuation": 7792432.215714284, "carbon": 164.565231, "eui": 65.15901448, "image": "NYC_3020930001_cyclomedia.jpg", "lat": 40.689705, "lon": -73.981343}, {"id": "NYC_1010090001", "address": "881 7Th Ave, New York, NY, 10019", "city": "New York", "state": "NY", "type": "Office", "vertical": "Commercial", "sqft": 304000.0, "opex": 497292.1152, "valuation": 7104173.074285714, "carbon": 595.4867498, "eui": 136.0639135, "image": "NYC_1010090001_Wikipediathefreeency.jpg", "lat": 40.764941, "lon": -73.980445}, {"id": "NYC_3048120001", "address": "451 Clarkson Ave, New York, NY, 11203", "city": "New York", "state": "NY", "type": "Hospital/Clinic", "vertical": "Healthcare", "sqft": 2381204.0, "opex": 487542.5169, "valuation": 0.0, "carbon": 1856.079216, "eui": 286.0575243, "image": "NYC_3048120001_NewYorkPost.jpg", "lat": 40.65576, "lon": -73.944602}, {"id": "NYC_3011830026", "address": "200 Eastern Pkwy, New York, NY, 11238", "city": "New York", "state": "NY", "type": "Library/Museum", "vertical": "Education", "sqft": 550409.0, "opex": 482685.0814, "valuation": 6895501.162857142, "carbon": 1074.913732, "eui": 122.9254175, "image": "NYC_3011830026_cyclomedia.jpg", "lat": 40.671835, "lon": -73.963042}, {"id": "NYC_1010130057", "address": "234 W. 42Nd Street, New York, NY, 10036", "city": "New York", "state": "NY", "type": "Entertainment Venue", "vertical": "Commercial", "sqft": 170744.0, "opex": 463493.5091, "valuation": 5793668.8637500005, "carbon": 118.764594, "eui": 91.84975109, "image": "NYC_1010130057_cyclomedia.jpg", "lat": 40.756747, "lon": -73.988659}, {"id": "NYC_3001620001", "address": "30 Flatbush, New York, NY, 11217", "city": "New York", "state": "NY", "type": "Retail/Consumer Services", "vertical": "Commercial", "sqft": 262404.0, "opex": 441247.3461, "valuation": 6303533.515714286, "carbon": 145.3499359, "eui": 81.83761337, "image": "NYC_3001620001_StarkEnterprises.jpg", "lat": 40.6880495, "lon": -73.9807991}, {"id": "NYC_2042050001", "address": "1400 Pelham Pkwy South, New York, NY, 10461", "city": "New York", "state": "NY", "type": "Hospital/Clinic", "vertical": "Healthcare", "sqft": 1654909.0, "opex": 387381.1345, "valuation": 0.0, "carbon": 633.8853086, "eui": 188.3682839, "image": "NYC_2042050001_cyclomedia.jpg", "lat": 40.857427, "lon": -73.847079}, {"id": "NYC_2023570045", "address": "700 Exterior St, New York, NY, 10451", "city": "New York", "state": "NY", "type": "Retail/Consumer Services", "vertical": "Commercial", "sqft": 446258.0, "opex": 359350.4824, "valuation": 7187009.647999999, "carbon": 264.3073377, "eui": 63.21725504, "image": "NYC_2023570045_RIPCORealEstate.jpg", "lat": 40.823467, "lon": -73.931}, {"id": "NYC_1000730010", "address": "95 South Street, New York, NY, 10038", "city": "New York", "state": "NY", "type": "Strip/Enclosed Mall", "vertical": "Commercial", "sqft": 242074.0, "opex": 353419.8726, "valuation": 4712264.968, "carbon": 342.118969, "eui": 153.0779675, "image": "NYC_1000730010_NewYorkYIMBY.jpg", "lat": 40.706299, "lon": -74.00303}, {"id": "NYC_4015000002", "address": "79-01 Broadway, New York, NY, 11373", "city": "New York", "state": "NY", "type": "Hospital/Clinic", "vertical": "Healthcare", "sqft": 961932.0, "opex": 346895.9428, "valuation": 0.0, "carbon": 655.8671745, "eui": 226.5559226, "image": "NYC_4015000002_NYCHealthHospitals.jpg", "lat": 40.744416, "lon": -73.886097}, {"id": "NYC_4022740002", "address": "120-55 Queens Blvd, New York, NY, 11415", "city": "New York", "state": "NY", "type": "Office", "vertical": "Commercial", "sqft": 261000.0, "opex": 340481.2456, "valuation": 4864017.794285715, "carbon": 859.3082732, "eui": 148.491077, "image": "NYC_4022740002_NYCgov.jpg", "lat": 40.713329, "lon": -73.828601}, {"id": "NYC_1000770008", "address": "110 William St, New York, NY 10038", "city": "New York", "state": "NY", "type": "Office", "vertical": "Commercial", "sqft": 788240.0, "opex": 337606.4552, "valuation": 4822949.36, "carbon": 497.8439862, "eui": 48.95148457, "image": "NYC_1000770008_AWS.jpg", "lat": 40.7087931, "lon": -74.0068363}, {"id": "NYC_3017230001", "address": "760 Broadway, New York, NY, 11206", "city": "New York", "state": "NY", "type": "Hospital/Clinic", "vertical": "Healthcare", "sqft": 1321320.0, "opex": 321460.1111, "valuation": 0.0, "carbon": 739.1590507, "eui": 201.8227617, "image": "NYC_3017230001_enwikipediaorg.jpg", "lat": 40.700528, "lon": -73.941604}, {"id": "NYC_1000940025", "address": "100 Gold St, New York, NY 10038", "city": "New York", "state": "NY", "type": "Office", "vertical": "Commercial", "sqft": 655775.0, "opex": 303290.4609, "valuation": 4332720.87, "carbon": 496.0824271, "eui": 64.57764523, "image": "NYC_1000940025_AWS.jpg", "lat": 40.7102278, "lon": -74.0032383}, {"id": "NYC_3002660020", "address": "65 Court Street, New York, NY, 11201", "city": "New York", "state": "NY", "type": "Office", "vertical": "Commercial", "sqft": 288200.0, "opex": 298474.5564, "valuation": 4263922.234285714, "carbon": 366.036056, "eui": 88.90866655, "image": "NYC_3002660020_Thenewyorktimes.jpg", "lat": 40.692012, "lon": -73.991227}, {"id": "NYC_5000760200", "address": "1000 Richmond Ter, New York, NY, 10310", "city": "New York", "state": "NY", "type": "Entertainment Venue", "vertical": "Commercial", "sqft": 323076.0, "opex": 298095.3718, "valuation": 3974604.957333334, "carbon": 423.1615525, "eui": 72.37453509, "image": "NYC_5000760200_cyclomedia.jpg", "lat": 40.645075, "lon": -74.104753}, {"id": "NYC_1001660027", "address": "38 Baxter St, New York, NY, 10013", "city": "New York", "state": "NY", "type": "Office", "vertical": "Commercial", "sqft": 640000.0, "opex": 295572.5683, "valuation": 4222465.26142857, "carbon": 449.1663966, "eui": 50.84967766, "image": "NYC_1001660027_AWS.jpg", "lat": 40.7151735, "lon": -74.0012564}, {"id": "NYC_4004170002", "address": "28-11 Queens Plaza North, New York, NY, 11101", "city": "New York", "state": "NY", "type": "Office", "vertical": "Commercial", "sqft": 219362.0, "opex": 290593.2956, "valuation": 4151332.794285714, "carbon": 253.931426, "eui": 94.7260428, "image": "NYC_4004170002_Dreamstimecom.jpg", "lat": 40.75008, "lon": -73.938208}, {"id": "NYC_1009320017", "address": "455 1St Ave, New York, NY, 10016", "city": "New York", "state": "NY", "type": "Medical Office/Lab", "vertical": "Healthcare", "sqft": 324505.0, "opex": 283402.0384, "valuation": 0.0, "carbon": 717.0685522, "eui": 320.3786509, "image": "NYC_1009320017_cyclomedia.jpg", "lat": 40.739162, "lon": -73.976894}, {"id": "NYC_1007770001", "address": "340 8Th Ave, New York, NY, 10001", "city": "New York", "state": "NY", "type": "Office", "vertical": "Commercial", "sqft": 223212.0, "opex": 277841.4018, "valuation": 3969162.8828571425, "carbon": 460.1049221, "eui": 82.62502643, "image": "NYC_1007770001_WikimediaCommons.jpg", "lat": 40.747912, "lon": -73.996571}, {"id": "NYC_1011340005", "address": "20 Lincoln Ctr, New York, NY, 10023", "city": "New York", "state": "NY", "type": "Entertainment Venue", "vertical": "Commercial", "sqft": 247480.0, "opex": 277094.9971, "valuation": 3463687.4637499996, "carbon": 167.0795692, "eui": 65.89377727, "image": "NYC_1011340005_streetview.jpg", "lat": 40.771414, "lon": -73.983201}, {"id": "NYC_2024430094", "address": "198 East 161St, New York, NY, 10451", "city": "New York", "state": "NY", "type": "Office", "vertical": "Commercial", "sqft": 233647.0, "opex": 276659.6689, "valuation": 3952280.9842857136, "carbon": 75.96468315, "eui": 56.61435713, "image": "NYC_2024430094_LehmanCollege.jpg", "lat": 40.8258652, "lon": -73.9210969}, {"id": "NYC_2032510201", "address": "75 West 205Th Street, New York, NY, 10468", "city": "New York", "state": "NY", "type": "PreK-12", "vertical": "Education", "sqft": 784650.0, "opex": 275708.8901, "valuation": 0.0, "carbon": 743.187045, "eui": 68.93884267, "image": "NYC_2032510201_Serpapi.jpg", "lat": 40.87759, "lon": -73.89104}, {"id": "NYC_1009620001", "address": "520 1st Ave, New York, NY, 10016", "city": "New York", "state": "NY", "type": "Office", "vertical": "Commercial", "sqft": 608383.0, "opex": 271240.6472, "valuation": 3874866.388571428, "carbon": 310.0751276, "eui": 38.9753361, "image": "NYC_1009620001_AWS.jpg", "lat": 40.74128, "lon": -73.974764}, {"id": "NYC_4014970001", "address": "79-01 Broadway, New York, NY, 11373", "city": "New York", "state": "NY", "type": "Hospital/Clinic", "vertical": "Healthcare", "sqft": 1162258.0, "opex": 271061.5122, "valuation": 0.0, "carbon": 457.6412862, "eui": 191.7462465, "image": "NYC_4014970001_cyclomedia.jpg", "lat": 40.744416, "lon": -73.886097}, {"id": "NYC_3001407503", "address": "345 Adams St., New York, NY, 11201", "city": "New York", "state": "NY", "type": "Office", "vertical": "Commercial", "sqft": 297845.0, "opex": 262441.985, "valuation": 3749171.2142857136, "carbon": 392.9511606, "eui": 78.13827024, "image": "NYC_3001407503_6sqft.jpg", "lat": 40.6934, "lon": -73.988915}, {"id": "NYC_1000730011", "address": "95 Marginal Street, New York, NY, 10038", "city": "New York", "state": "NY", "type": "Strip/Enclosed Mall", "vertical": "Commercial", "sqft": 59020.0, "opex": 221520.6186, "valuation": 2953608.248, "carbon": 333.0754142, "eui": 568.8333717, "image": "NYC_1000730011_Nyctourismconvention.jpg", "lat": 40.706299, "lon": -74.00303}, {"id": "NYC_1010120015", "address": "219 W 40th St, New York, NY, 10018", "city": "New York", "state": "NY", "type": "Office", "vertical": "Commercial", "sqft": 268420.0, "opex": 219684.0858, "valuation": 3138344.0828571427, "carbon": 376.8324097, "eui": 65.17235452, "image": "NYC_1010120015_AWS.jpg", "lat": 40.75569, "lon": -73.9889055}, {"id": "NYC_4023440030", "address": "Classified Nypd Location, New York, NY, 11377", "city": "New York", "state": "NY", "type": "Office", "vertical": "Commercial", "sqft": 101600.0, "opex": 205495.5571, "valuation": 2935650.8157142857, "carbon": 478.5093203, "eui": 228.1421722, "image": "NYC_4023440030_cyclomedia.jpg", "lat": 40.7363661, "lon": -73.9058245}, {"id": "NYC_1001680032", "address": "75 Centre St, New York, NY 10013", "city": "New York", "state": "NY", "type": "Office", "vertical": "Commercial", "sqft": 353000.0, "opex": 204975.6422, "valuation": 2928223.46, "carbon": 336.1258538, "eui": 67.18514391, "image": "NYC_1001680032_AWS.jpg", "lat": 40.7155736, "lon": -74.0021641}, {"id": "NYC_3072390001", "address": "2601 Ocean Pkwy, New York, NY, 11235", "city": "New York", "state": "NY", "type": "Hospital/Clinic", "vertical": "Healthcare", "sqft": 836000.0, "opex": 204898.0272, "valuation": 0.0, "carbon": 485.5936008, "eui": 207.8606388, "image": "NYC_3072390001_cyclomedia.jpg", "lat": 40.586552, "lon": -73.966168}, {"id": "NYC_1015870001", "address": "1750 York Ave, New York, NY, 10128", "city": "New York", "state": "NY", "type": "Gym", "vertical": "Commercial", "sqft": 97960.0, "opex": 198571.1693, "valuation": 2836730.99, "carbon": 343.1431459, "eui": 242.4561515, "image": "NYC_1015870001_AsphaltGreen.jpg", "lat": 40.779378, "lon": -73.944604}, {"id": "NYC_3020230001", "address": "1 Dock 72 Way, New York, NY, 11205", "city": "New York", "state": "NY", "type": "Office", "vertical": "Commercial", "sqft": 670000.0, "opex": 193618.7916, "valuation": 2765982.7371428567, "carbon": 176.9709972, "eui": 29.85163806, "image": "NYC_3020230001_BXP.jpg", "lat": 40.699809, "lon": -73.972176}, {"id": "NYC_2023350016", "address": "234 East 149Th St, New York, NY, 10451", "city": "New York", "state": "NY", "type": "Hospital/Clinic", "vertical": "Healthcare", "sqft": 1633485.0, "opex": 190902.2494, "valuation": 0.0, "carbon": 250.0345504, "eui": 102.8323586, "image": "NYC_2023350016_cyclomedia.jpg", "lat": 40.81774, "lon": -73.924156}, {"id": "NYC_4068580001", "address": "82-70 164Th St, New York, NY, 11432", "city": "New York", "state": "NY", "type": "Hospital/Clinic", "vertical": "Healthcare", "sqft": 795290.0, "opex": 187054.4576, "valuation": 0.0, "carbon": 425.617606, "eui": 242.3623759, "image": "NYC_4068580001_enwikipediaorg.jpg", "lat": 40.717209, "lon": -73.803419}, {"id": "NYC_1022150080", "address": "99 Terrace View Avenue, New York, NY, 10463", "city": "New York", "state": "NY", "type": "PreK-12", "vertical": "Education", "sqft": 575872.0, "opex": 177139.1813, "valuation": 0.0, "carbon": 206.278106, "eui": 48.71328177, "image": "NYC_1022150080_Serpapi.jpg", "lat": 40.877105, "lon": -73.912256}, {"id": "NYC_1014010001", "address": "643 Park Avenue, New York, NY, 10065", "city": "New York", "state": "NY", "type": "Entertainment Venue", "vertical": "Commercial", "sqft": 84337.0, "opex": 170220.6027, "valuation": 2431722.8957142853, "carbon": 212.8172073, "eui": 193.3224552, "image": "NYC_1014010001_Wikipediathefreeency.jpg", "lat": 40.767491, "lon": -73.966448}, {"id": "NYC_1005440016", "address": "425 Lafayette St, New York, NY, 10003", "city": "New York", "state": "NY", "type": "Entertainment Venue", "vertical": "Commercial", "sqft": 61420.0, "opex": 167182.8642, "valuation": 2089785.8025, "carbon": 153.0984465, "eui": 175.189181, "image": "NYC_1005440016_cyclomedia.jpg", "lat": 40.729052, "lon": -73.992116}, {"id": "NYC_1017230010", "address": "47 Dr Martin Luther King Jr Blvd, New York, NY, 10035", "city": "New York", "state": "NY", "type": "Office", "vertical": "Commercial", "sqft": 228017.0, "opex": 166860.9762, "valuation": 2383728.231428571, "carbon": 458.0644617, "eui": 107.1466369, "image": "NYC_1017230010_AWS.jpg", "lat": 40.8075352, "lon": -73.9441483}, {"id": "NYC_2053680001", "address": "3000 East Tremont Avenue, New York, NY, 10461", "city": "New York", "state": "NY", "type": "PreK-12", "vertical": "Education", "sqft": 418550.0, "opex": 156064.3837, "valuation": 0.0, "carbon": 475.6656214, "eui": 75.13783347, "image": "NYC_2053680001_streetview.jpg", "lat": 40.840733, "lon": -73.838685}, {"id": "NYC_1001550001", "address": "2 Lafayette St, New York, NY 10007", "city": "New York", "state": "NY", "type": "Office", "vertical": "Commercial", "sqft": 354169.0, "opex": 155438.9676, "valuation": 2220556.6799999997, "carbon": 267.092079, "eui": 61.69690233, "image": "NYC_1001550001_AWS.jpg", "lat": 40.7141052, "lon": -74.0038668}, {"id": "NYC_1017470070", "address": "1752 Park Ave, New York, NY, 10035", "city": "New York", "state": "NY", "type": "Hospital/Clinic", "vertical": "Healthcare", "sqft": 120304.0, "opex": 155313.2818, "valuation": 0.0, "carbon": 221.4130717, "eui": 148.6562783, "image": "NYC_1017470070_cyclomedia.jpg", "lat": 40.802937, "lon": -73.940586}, {"id": "NYC_2043330001", "address": "1900 Birchall Ave, New York, NY, 10462", "city": "New York", "state": "NY", "type": "Office", "vertical": "Commercial", "sqft": 83003.0, "opex": 153919.6592, "valuation": 2198852.274285714, "carbon": 300.8928455, "eui": 202.1636917, "image": "NYC_2043330001_CommercialObserver.jpg", "lat": 40.848239, "lon": -73.868805}, {"id": "NYC_1016690001", "address": "1901 1St Ave, New York, NY, 10029", "city": "New York", "state": "NY", "type": "Hospital/Clinic", "vertical": "Healthcare", "sqft": 1068030.0, "opex": 153720.8059, "valuation": 0.0, "carbon": 242.422918, "eui": 129.3511605, "image": "NYC_1016690001_BenchmarkSeniorLivin.jpg", "lat": 40.784557, "lon": -73.94378}, {"id": "NYC_5000020020", "address": "75 Richmond Terrace, New York, NY, 10301", "city": "New York", "state": "NY", "type": "Entertainment Venue", "vertical": "Commercial", "sqft": 492962.0, "opex": 151120.2275, "valuation": 2014936.366666667, "carbon": 62.89531452, "eui": 15.21930595, "image": "NYC_5000020020_iStock.jpg", "lat": 40.644675, "lon": -74.077002}, {"id": "NYC_1000220020", "address": "42 Broadway, New York, NY 10004", "city": "New York", "state": "NY", "type": "Office", "vertical": "Commercial", "sqft": 405244.0, "opex": 148912.6028, "valuation": 2127322.897142857, "carbon": 344.3461232, "eui": 58.06203324, "image": "NYC_1000220020_AWS.jpg", "lat": 40.705974, "lon": -74.0126146}, {"id": "NYC_3086980001", "address": "610 Surf Ave, New York, NY, 11224", "city": "New York", "state": "NY", "type": "Hospital/Clinic", "vertical": "Healthcare", "sqft": 196505.0, "opex": 147882.2001, "valuation": 0.0, "carbon": 136.1391733, "eui": 242.9638666, "image": "NYC_3086980001_cyclomedia.jpg", "lat": 40.575205, "lon": -73.97594}, {"id": "NYC_3051320018", "address": "1027 Flatbush Avenue, New York, NY, 11226", "city": "New York", "state": "NY", "type": "Office", "vertical": "Commercial", "sqft": 101970.0, "opex": 145113.5857, "valuation": 2073051.224285714, "carbon": 202.8207445, "eui": 116.9369932, "image": "NYC_3051320018_enwikipediaorg.jpg", "lat": 40.646005, "lon": -73.958066}, {"id": "NYC_3011830001", "address": "1000 Washington Ave, New York, NY, 11225", "city": "New York", "state": "NY", "type": "Library/Museum", "vertical": "Education", "sqft": 153794.0, "opex": 143865.3514, "valuation": 2055219.3057142857, "carbon": 390.4090004, "eui": 163.0182003, "image": "NYC_3011830001_cyclomedia.jpg", "lat": 40.667533, "lon": -73.96179}, {"id": "NYC_1005590016", "address": "124 E 14th St, New York, NY 10003", "city": "New York", "state": "NY", "type": "Office", "vertical": "Commercial", "sqft": 230591.0, "opex": 141717.5363, "valuation": 2024536.2328571428, "carbon": 229.8127517, "eui": 70.71715331, "image": "NYC_1005590016_AWS.jpg", "lat": 40.7338225, "lon": -73.9888421}, {"id": "NYC_3020390101", "address": "100 North Portland Ave, New York, NY, 11205", "city": "New York", "state": "NY", "type": "Medical Office/Lab", "vertical": "Healthcare", "sqft": 117900.0, "opex": 141622.0798, "valuation": 1888294.3973333335, "carbon": 50.16759831, "eui": 101.6691858, "image": "NYC_3020390101_cyclomedia.jpg", "lat": 40.695268, "lon": -73.976232}, {"id": "NYC_3012740001", "address": "1561 Bedford Ave., New York, NY, 11225", "city": "New York", "state": "NY", "type": "Entertainment Venue", "vertical": "Commercial", "sqft": 76862.0, "opex": 138263.1544, "valuation": 1843508.7253333337, "carbon": 1229.436832, "eui": 647.9425529, "image": "NYC_3012740001_6sqft.jpg", "lat": 40.668945, "lon": -73.955683}, {"id": "NYC_1009620097", "address": "Classified Dhs Location, New York, NY, 10016", "city": "New York", "state": "NY", "type": "Hotel", "vertical": "Commercial", "sqft": 480000.0, "opex": 134387.2719, "valuation": 1919818.1699999997, "carbon": 189.7381281, "eui": 71.36661729, "image": "NYC_1009620097_Yelp.jpg", "lat": 40.74727, "lon": -73.9800645}, {"id": "NYC_1010140039", "address": "214 WEST 43 STREET, New York, NY, 10036", "city": "New York", "state": "NY", "type": "Entertainment Venue", "vertical": "Commercial", "sqft": 85092.0, "opex": 134093.5365, "valuation": 1676169.2062499998, "carbon": 97.10131692, "eui": 95.56270037, "image": "NYC_1010140039_cyclomedia.jpg", "lat": 40.756988, "lon": -73.987136}, {"id": "NYC_2033270200", "address": "3424 Kossuth Ave, New York, NY, 10467", "city": "New York", "state": "NY", "type": "Hospital/Clinic", "vertical": "Healthcare", "sqft": 797600.0, "opex": 133857.7191, "valuation": 0.0, "carbon": 146.3646567, "eui": 127.8898883, "image": "NYC_2033270200_NYCHealthHospitals.jpg", "lat": 40.880676, "lon": -73.881571}, {"id": "NYC_1020600001", "address": "1721 Amsterdam Ave, New York, NY, 10031", "city": "New York", "state": "NY", "type": "Medical Office/Lab", "vertical": "Healthcare", "sqft": 59209.0, "opex": 128910.4644, "valuation": 1718806.192, "carbon": 323.3285273, "eui": 256.0574558, "image": "NYC_1020600001_NYCHealthHospitals.jpg", "lat": 40.825329, "lon": -73.947521}, {"id": "NYC_3021110015", "address": "30 Lafayette Ave, New York, NY, 11217", "city": "New York", "state": "NY", "type": "Entertainment Venue", "vertical": "Commercial", "sqft": 107229.0, "opex": 122855.8005, "valuation": 1535697.50625, "carbon": 162.8453673, "eui": 95.45871732, "image": "NYC_3021110015_H.jpg", "lat": 40.686866, "lon": -73.977738}, {"id": "NYC_2033300001", "address": "3050 Webster Avenue, New York, NY, 10467", "city": "New York", "state": "NY", "type": "PreK-12", "vertical": "Education", "sqft": 156125.0, "opex": 120226.9614, "valuation": 0.0, "carbon": 205.9702482, "eui": 92.8714229, "image": "NYC_2033300001_cyclomedia.jpg", "lat": 40.870002, "lon": -73.878875}, {"id": "NYC_2024890060", "address": "1225 Gerard Ave, New York, NY, 10452", "city": "New York", "state": "NY", "type": "Medical Office/Lab", "vertical": "Healthcare", "sqft": 83031.0, "opex": 114611.7259, "valuation": 1528156.3453333334, "carbon": 116.4246567, "eui": 96.83180981, "image": "NYC_2024890060_enwikipediaorg.jpg", "lat": 40.835957, "lon": -73.919986}, {"id": "NYC_4020180500", "address": "Flushing Meadows Corona Park, New York, NY, 11368", "city": "New York", "state": "NY", "type": "Office", "vertical": "Commercial", "sqft": 61000.0, "opex": 113228.9041, "valuation": 1617555.7728571426, "carbon": 146.5417742, "eui": 153.483882, "image": "NYC_4020180500_BKSKArchitects.jpg", "lat": 40.742377, "lon": -73.842157}, {"id": "NYC_5033550070", "address": "625 Father Capodanno Blvd, New York, NY, 10305", "city": "New York", "state": "NY", "type": "Gym", "vertical": "Commercial", "sqft": 134522.0, "opex": 110690.0629, "valuation": 1581286.6128571427, "carbon": 97.69725045, "eui": 83.1934494, "image": "NYC_5033550070_ArchDaily.jpg", "lat": 40.582243, "lon": -74.074594}, {"id": "NYC_3011020012", "address": "Classified Dhs Location, New York, NY, 11215", "city": "New York", "state": "NY", "type": "Hotel", "vertical": "Commercial", "sqft": 109556.0, "opex": 108195.1028, "valuation": 1545644.3257142855, "carbon": 78.2267206, "eui": 169.7865284, "image": "NYC_3011020012_cyclomedia.jpg", "lat": 40.6681669, "lon": -73.9800645}, {"id": "NYC_1000290073", "address": "44 Beaver St, New York, NY 10004", "city": "New York", "state": "NY", "type": "Office", "vertical": "Commercial", "sqft": 97596.0, "opex": 107813.4001, "valuation": 1540191.43, "carbon": 281.858541, "eui": 92.37158797, "image": "NYC_1000290073_AWS.jpg", "lat": 40.7050013, "lon": -74.0107588}, {"id": "NYC_1001347501", "address": "257 Broadway, New York, NY, 10007", "city": "New York", "state": "NY", "type": "Office", "vertical": "Commercial", "sqft": 267438.0, "opex": 106143.0547, "valuation": 1516329.3528571427, "carbon": 75.09214328, "eui": 59.68647313, "image": "NYC_1001347501_AWS.jpg", "lat": 40.713417, "lon": -74.007574}, {"id": "NYC_1001220001", "address": "52 Chambers St, New York, NY 10007", "city": "New York", "state": "NY", "type": "Office", "vertical": "Commercial", "sqft": 144016.0, "opex": 103715.7736, "valuation": 1481653.9085714284, "carbon": 831.2140577, "eui": 227.6416975, "image": "NYC_1001220001_AWS.jpg", "lat": 40.7134071, "lon": -74.0055257}, {"id": "NYC_1010810080", "address": "549 West 52Nd Street, New York, NY, 10019", "city": "New York", "state": "NY", "type": "Office", "vertical": "Commercial", "sqft": 58291.0, "opex": 102381.6982, "valuation": 1462595.6885714284, "carbon": 305.9444492, "eui": 261.3703951, "image": "NYC_1010810080_Serpapi.jpg", "lat": 40.766683, "lon": -73.992635}, {"id": "NYC_3037380015", "address": "2094 Pitkin Ave, New York, NY, 11207", "city": "New York", "state": "NY", "type": "Medical Office/Lab", "vertical": "Healthcare", "sqft": 72755.0, "opex": 101590.6735, "valuation": 1354542.3133333337, "carbon": 282.0305647, "eui": 178.4739867, "image": "NYC_3037380015_NYCHealthHospitals.jpg", "lat": 40.671977, "lon": -73.895248}, {"id": "NYC_2049052002", "address": "1250 East 229 St, New York, NY, 10466", "city": "New York", "state": "NY", "type": "Gym", "vertical": "Commercial", "sqft": 52106.0, "opex": 100972.454, "valuation": 1442463.6285714284, "carbon": 236.6791209, "eui": 271.3559225, "image": "NYC_2049052002_Gilbane.jpg", "lat": 40.88372, "lon": -73.842046}, {"id": "NYC_1001530001", "address": "280 Broadway, New York, NY 10007", "city": "New York", "state": "NY", "type": "Office", "vertical": "Commercial", "sqft": 242062.0, "opex": 98360.26605, "valuation": 1405146.6578571429, "carbon": 78.3179872, "eui": 45.76421082, "image": "NYC_1001530001_AWS.jpg", "lat": 40.7145277, "lon": -74.0058103}, {"id": "NYC_2022690021", "address": "545 East 142Nd St, New York, NY, 10454", "city": "New York", "state": "NY", "type": "Medical Office/Lab", "vertical": "Healthcare", "sqft": 62684.0, "opex": 97634.94378, "valuation": 1301799.2504, "carbon": 183.3803686, "eui": 145.8096994, "image": "NYC_2022690021_HealthWorkforceConne.jpg", "lat": 40.809973, "lon": -73.916434}, {"id": "NYC_2032470070", "address": "2756 Reservoir Avenue, New York, NY, 10468", "city": "New York", "state": "NY", "type": "PreK-12", "vertical": "Education", "sqft": 432650.0, "opex": 96770.13992, "valuation": 0.0, "carbon": 281.8975818, "eui": 54.05911753, "image": "NYC_2032470070_serpapi.jpg", "lat": 40.869835, "lon": -73.89874}, {"id": "NYC_1008690016", "address": "266 Madison Ave, New York, NY, 10016", "city": "New York", "state": "NY", "type": "Office", "vertical": "Commercial", "sqft": 217317.0, "opex": 95071.95989, "valuation": 1358170.8555714283, "carbon": 127.0610751, "eui": 67.28413608, "image": "NYC_1008690016_AWS.jpg", "lat": 40.7512726, "lon": -73.9808538}, {"id": "NYC_1010080015", "address": "130 West 56Th St, New York, NY, 10019", "city": "New York", "state": "NY", "type": "Office", "vertical": "Commercial", "sqft": 204000.0, "opex": 94269.04422, "valuation": 1346700.6317142856, "carbon": 123.6548113, "eui": 59.51019853, "image": "NYC_1010080015_streetview.jpg", "lat": 40.764151, "lon": -73.978889}, {"id": "NYC_1016090001", "address": "1220 5Th Ave, New York, NY, 10029", "city": "New York", "state": "NY", "type": "Library/Museum", "vertical": "Education", "sqft": 113915.0, "opex": 90230.35795, "valuation": 1289005.1135714285, "carbon": 136.0484251, "eui": 101.4211412, "image": "NYC_1016090001_MuseumoftheCityofNew.jpg", "lat": 40.792438, "lon": -73.952448}, {"id": "NYC_2023530057", "address": "Classified Dhs Location, New York, NY, 10451", "city": "New York", "state": "NY", "type": "Hotel", "vertical": "Commercial", "sqft": 76743.0, "opex": 87362.16039, "valuation": 1248030.8627142855, "carbon": 26.01201652, "eui": 111.917599, "image": "NYC_2023530057_SixtoCelebrate.jpg", "lat": 40.8187386, "lon": -73.9271644}, {"id": "NYC_2027800073", "address": "800 Food Center Drive, New York, NY, 10474", "city": "New York", "state": "NY", "type": "Hospital/Clinic", "vertical": "Healthcare", "sqft": 426172.0, "opex": 86088.44257, "valuation": 0.0, "carbon": 73.23515454, "eui": 80.62779535, "image": "NYC_2027800073_streetview.jpg", "lat": 40.805255, "lon": -73.876414}, {"id": "NYC_1021380079", "address": "Classified Dhs Location, New York, NY, 10032", "city": "New York", "state": "NY", "type": "Hotel", "vertical": "Commercial", "sqft": 249473.0, "opex": 85848.68381, "valuation": 1226409.7687142857, "carbon": 24.46765076, "eui": 50.1731498, "image": "NYC_1021380079_cyclomedia.jpg", "lat": 40.8409822, "lon": -73.9447994}, {"id": "NYC_1008880027", "address": "145 E 32nd St, Brooklyn, NY 11226", "city": "Brooklyn", "state": "NY", "type": "Office", "vertical": "Commercial", "sqft": 101283.0, "opex": 83151.47481, "valuation": 1187878.2115714285, "carbon": 82.53669985, "eui": 86.31993029, "image": "NYC_1008880027_AWS.jpg", "lat": 40.745065, "lon": -73.979974}, {"id": "NYC_1013730035", "address": "2 West Loop Road, New York, NY, 10044", "city": "New York", "state": "NY", "type": "Higher Ed", "vertical": "Education", "sqft": 154522.0, "opex": 80816.10809, "valuation": 0.0, "carbon": 35.26334551, "eui": 47.800774, "image": "NYC_1013730035_CornellTechCornellUn.jpg", "lat": 40.756552, "lon": -73.955881}, {"id": "NYC_1004620001", "address": "41 Cooper Square, New York, NY, 10003", "city": "New York", "state": "NY", "type": "Higher Ed", "vertical": "Education", "sqft": 180000.0, "opex": 78852.51556, "valuation": 0.0, "carbon": 223.357237, "eui": 142.3786117, "image": "NYC_1004620001_enwikipediaorg.jpg", "lat": 40.728396, "lon": -73.990731}, {"id": "NYC_2029470018", "address": "1932 Arthur Ave, New York, NY, 10457", "city": "New York", "state": "NY", "type": "Office", "vertical": "Commercial", "sqft": 141488.0, "opex": 76973.52288, "valuation": 1099621.7554285715, "carbon": 171.1167036, "eui": 73.90998883, "image": "NYC_2029470018_NYCgov.jpg", "lat": 40.845685, "lon": -73.893294}, {"id": "NYC_5000070001", "address": "10 Richmond Ter, New York, NY, 10301", "city": "New York", "state": "NY", "type": "Office", "vertical": "Commercial", "sqft": 144738.0, "opex": 76253.25681, "valuation": 1089332.2401428572, "carbon": 144.6695056, "eui": 63.49104174, "image": "NYC_5000070001_Alamy.jpg", "lat": 40.642367, "lon": -74.075274}, {"id": "NYC_1009947504", "address": "1460 Broadway, New York, NY, 10036", "city": "New York", "state": "NY", "type": "Office", "vertical": "Commercial", "sqft": 181503.0, "opex": 75785.16775, "valuation": 1082645.2535714284, "carbon": 23.2129826, "eui": 16.68124824, "image": "NYC_1009947504_AWS.jpg", "lat": 40.74128, "lon": -73.974764}, {"id": "NYC_1001530024", "address": "23 Chambers St, New York, NY 10007", "city": "New York", "state": "NY", "type": "Office", "vertical": "Commercial", "sqft": 229824.0, "opex": 73312.08683, "valuation": 1047315.526142857, "carbon": 113.6528523, "eui": 43.04089434, "image": "NYC_1001530024_AWS.jpg", "lat": 40.7155463, "lon": -74.0089709}, {"id": "NYC_1013407502", "address": "3 DAG HAMMARSKJOLD PLAZA, New York, NY, 10017", "city": "New York", "state": "NY", "type": "Office", "vertical": "Commercial", "sqft": 132057.0, "opex": 72999.06594, "valuation": 1042843.7991428572, "carbon": 139.6994542, "eui": 77.42066456, "image": "NYC_1013407502_AWS.jpg", "lat": 40.714237, "lon": -74.005715}, {"id": "NYC_2043550001", "address": "999 Pelham Parkway North, New York, NY, 10469", "city": "New York", "state": "NY", "type": "PreK-12", "vertical": "Education", "sqft": 246323.0, "opex": 72441.58103, "valuation": 0.0, "carbon": 384.7698169, "eui": 83.66212493, "image": "NYC_2043550001_Serpapi.jpg", "lat": 40.858057, "lon": -73.85931}, {"id": "NYC_2028170002", "address": "240 East 172Nd Street, New York, NY, 10457", "city": "New York", "state": "NY", "type": "PreK-12", "vertical": "Education", "sqft": 337450.0, "opex": 72400.5289, "valuation": 0.0, "carbon": 280.0733689, "eui": 63.54714861, "image": "NYC_2028170002_cyclomedia.jpg", "lat": 40.840422, "lon": -73.91091}, {"id": "NYC_4043700050", "address": "30-48 Linden Place, New York, NY, 11354", "city": "New York", "state": "NY", "type": "Office", "vertical": "Commercial", "sqft": 111725.0, "opex": 69404.00411, "valuation": 991485.7729999998, "carbon": 61.82009603, "eui": 52.35656478, "image": "NYC_4043700050_LoopNet.jpg", "lat": 40.770185, "lon": -73.832925}, {"id": "NYC_5003140070", "address": "614 Broadway, New York, NY, 10310", "city": "New York", "state": "NY", "type": "Office", "vertical": "Commercial", "sqft": 67025.0, "opex": 69049.20676, "valuation": 986417.2394285712, "carbon": 122.7466468, "eui": 133.0154077, "image": "NYC_5003140070_cyclomedia.jpg", "lat": 40.625592, "lon": -74.114611}, {"id": "NYC_1002820003", "address": "75 East Broadway, New York, NY, 10002", "city": "New York", "state": "NY", "type": "Strip/Enclosed Mall", "vertical": "Commercial", "sqft": 35358.0, "opex": 67816.65022, "valuation": 1004691.1143703704, "carbon": 48.67906314, "eui": 201.9320012, "image": "NYC_1002820003_GooglePlaces.jpg", "lat": 40.713707, "lon": -73.99434}, {"id": "NYC_2038640001", "address": "1300 Boynton Avenue, New York, NY, 10472", "city": "New York", "state": "NY", "type": "PreK-12", "vertical": "Education", "sqft": 304800.0, "opex": 67177.45857, "valuation": 0.0, "carbon": 229.5293206, "eui": 59.60111778, "image": "NYC_2038640001_Serpapi.jpg", "lat": 40.831601, "lon": -73.878912}, {"id": "NYC_3020950045", "address": "651 Fulton St, New York, NY, 11217", "city": "New York", "state": "NY", "type": "Entertainment Venue", "vertical": "Commercial", "sqft": 58963.0, "opex": 66266.88107, "valuation": 828336.013375, "carbon": 76.6306207, "eui": 92.9108831, "image": "NYC_3020950045_cyclomedia.jpg", "lat": 40.688192, "lon": -73.979108}, {"id": "NYC_3015480019", "address": "1001 Herkimer St, New York, NY, 11233", "city": "New York", "state": "NY", "type": "Office", "vertical": "Commercial", "sqft": 113668.0, "opex": 63549.65638, "valuation": 907852.234, "carbon": 182.9526472, "eui": 96.37163582, "image": "NYC_3015480019_cyclomedia.jpg", "lat": 40.678049, "lon": -73.92032}, {"id": "NYC_1013730050", "address": "900 Main St, New York, NY, 10044", "city": "New York", "state": "NY", "type": "Hospital/Clinic", "vertical": "Healthcare", "sqft": 766700.0, "opex": 61654.09766, "valuation": 0.0, "carbon": 127.9157874, "eui": 88.52344685, "image": "NYC_1013730050_TheNewYorkTimesWebAr.jpg", "lat": 40.7698, "lon": -73.941218}, {"id": "NYC_1008640025", "address": "41 E 34th St, New York, NY, 10016", "city": "New York", "state": "NY", "type": "Office", "vertical": "Commercial", "sqft": 79961.0, "opex": 60772.91056, "valuation": 868184.4365714284, "carbon": 68.88341383, "eui": 65.6805055, "image": "NYC_1008640025_AWS.jpg", "lat": 40.747821, "lon": -73.982529}, {"id": "NYC_1001540023", "address": "14 Reade St, New York, NY 10007", "city": "New York", "state": "NY", "type": "Office", "vertical": "Commercial", "sqft": 71732.0, "opex": 60212.16931, "valuation": 860173.8472857141, "carbon": 71.43398252, "eui": 78.22448698, "image": "NYC_1001540023_AWS.jpg", "lat": 40.7136259, "lon": -74.0038154}, {"id": "NYC_1012610036", "address": "550 5 Ave, New York, NY 10036", "city": "New York", "state": "NY", "type": "Office", "vertical": "Commercial", "sqft": 55779.0, "opex": 56082.55505, "valuation": 801179.3578571428, "carbon": 65.27474624, "eui": 93.76905466, "image": "NYC_1012610036_AWS.jpg", "lat": 40.7558253, "lon": -73.9796581}, {"id": "NYC_3016490001", "address": "Classified Dhs Location, New York, NY, 11221", "city": "New York", "state": "NY", "type": "Hotel", "vertical": "Commercial", "sqft": 235200.0, "opex": 55019.36632, "valuation": 785990.9474285714, "carbon": 82.48934959, "eui": 72.54615434, "image": "NYC_3016490001_cyclomedia.jpg", "lat": 40.6903213, "lon": -73.9271644}, {"id": "NYC_3027880033", "address": "151 Maujer St, New York, NY, 11206", "city": "New York", "state": "NY", "type": "Hospital/Clinic", "vertical": "Healthcare", "sqft": 27172.0, "opex": 54988.77683, "valuation": 0.0, "carbon": 101.1764385, "eui": 293.7632084, "image": "NYC_3027880033_streetview.jpg", "lat": 40.710831, "lon": -73.944607}, {"id": "NYC_1004580011", "address": "Classified Dhs Location, New York, NY, 10003", "city": "New York", "state": "NY", "type": "Hotel", "vertical": "Commercial", "sqft": 55000.0, "opex": 53658.53045, "valuation": 766550.4349999999, "carbon": 66.20042561, "eui": 200.5977364, "image": "NYC_1004580011_cyclomedia.jpg", "lat": 40.7322535, "lon": -73.9874105}, {"id": "NYC_3070730101", "address": "1902 West 19Th St, New York, NY, 11224", "city": "New York", "state": "NY", "type": "Entertainment Venue", "vertical": "Commercial", "sqft": 45679.0, "opex": 52992.95981, "valuation": 730937.3766896552, "carbon": 123.8277498, "eui": 156.7314214, "image": "NYC_3070730101_CommercialObserver.jpg", "lat": 40.573919, "lon": -73.9847303}, {"id": "NYC_3070710130", "address": "3052 W 21St St., New York, NY, 11224", "city": "New York", "state": "NY", "type": "Entertainment Venue", "vertical": "Commercial", "sqft": 56272.0, "opex": 52653.44959, "valuation": 658168.119875, "carbon": 12.79275086, "eui": 46.02168574, "image": "NYC_3070710130_seasideparkconeyisla.jpg", "lat": 40.5735, "lon": -73.987441}, {"id": "NYC_2049860081", "address": "4011 Monticello Avenue, New York, NY, 10466", "city": "New York", "state": "NY", "type": "PreK-12", "vertical": "Education", "sqft": 94860.0, "opex": 52496.66421, "valuation": 0.0, "carbon": 134.0358765, "eui": 86.00750158, "image": "NYC_2049860081_Serpapi.jpg", "lat": 40.891732, "lon": -73.838471}, {"id": "NYC_3012290001", "address": "145 Brooklyn Ave, New York, NY, 11213", "city": "New York", "state": "NY", "type": "Library/Museum", "vertical": "Education", "sqft": 105000.0, "opex": 51988.62905, "valuation": 742694.7007142857, "carbon": 95.65976445, "eui": 75.04012476, "image": "NYC_3012290001_streetview.jpg", "lat": 40.674773, "lon": -73.944464}, {"id": "NYC_2049160001", "address": "3740 Baychester Avenue, New York, NY, 10466", "city": "New York", "state": "NY", "type": "PreK-12", "vertical": "Education", "sqft": 105775.0, "opex": 50627.36952, "valuation": 0.0, "carbon": 128.6872885, "eui": 79.05304751, "image": "NYC_2049160001_streetview.jpg", "lat": 40.884343, "lon": -73.840254}, {"id": "NYC_2025720006", "address": "Classified Dhs Location, New York, NY, 10454", "city": "New York", "state": "NY", "type": "Office", "vertical": "Commercial", "sqft": 72000.0, "opex": 49542.61023, "valuation": 707751.5747142857, "carbon": 132.0699406, "eui": 96.05394444, "image": "NYC_2025720006_cyclomedia.jpg", "lat": 40.6954981, "lon": -73.9768193}, {"id": "NYC_2027930028", "address": "1691 Weeks Avenue, New York, NY, 10457", "city": "New York", "state": "NY", "type": "PreK-12", "vertical": "Education", "sqft": 173789.0, "opex": 49029.20557, "valuation": 0.0, "carbon": 114.8666143, "eui": 51.10782558, "image": "NYC_2027930028_GooglePlaces.jpg", "lat": 40.844253, "lon": -73.907616}, {"id": "NYC_1017470035", "address": "1879 Madison Ave, New York, NY, 10035", "city": "New York", "state": "NY", "type": "Hospital/Clinic", "vertical": "Healthcare", "sqft": 276285.0, "opex": 48832.54185, "valuation": 0.0, "carbon": 60.20523259, "eui": 144.7087507, "image": "NYC_1017470035_NYCHealthHospitals.jpg", "lat": 40.80361, "lon": -73.94225}, {"id": "NYC_1019510004", "address": "25 Hancock Pl, New York, NY, 10027", "city": "New York", "state": "NY", "type": "Medical Office/Lab", "vertical": "Healthcare", "sqft": 124576.0, "opex": 47397.08392, "valuation": 631961.1189333333, "carbon": 91.53684923, "eui": 58.48457086, "image": "NYC_1019510004_AWS.jpg", "lat": 40.8110047, "lon": -73.953746}, {"id": "NYC_1021060001", "address": "2275 Amsterdam Ave, New York, NY, 10032", "city": "New York", "state": "NY", "type": "Gym", "vertical": "Commercial", "sqft": 29857.0, "opex": 46639.91285, "valuation": 666284.4692857142, "carbon": 65.06479566, "eui": 169.8929196, "image": "NYC_1021060001_Wikipediathefreeency.jpg", "lat": 40.843344, "lon": -73.934369}, {"id": "NYC_3001540001", "address": "131 Livingston Street, New York, NY, 11201", "city": "New York", "state": "NY", "type": "Office", "vertical": "Commercial", "sqft": 147725.0, "opex": 46254.58316, "valuation": 660779.7594285714, "carbon": 86.01235285, "eui": 52.5049098, "image": "NYC_3001540001_MdeASArchitects.jpg", "lat": 40.690743, "lon": -73.988605}, {"id": "NYC_1007220057", "address": "430 West 25Th St, New York, NY, 10001", "city": "New York", "state": "NY", "type": "Gym", "vertical": "Commercial", "sqft": 54000.0, "opex": 45379.84364, "valuation": 648283.4805714285, "carbon": 74.79000339, "eui": 114.8060352, "image": "NYC_1007220057_Wikipediathefreeency.jpg", "lat": 40.748291, "lon": -74.001649}, {"id": "NYC_5000020001", "address": "1 Richmond Terrace, New York, NY, 10301", "city": "New York", "state": "NY", "type": "Mixed Use", "vertical": "Commercial", "sqft": 149000.0, "opex": 45097.01446, "valuation": 0.0, "carbon": 110.7305228, "eui": 208.9527154, "image": "NYC_5000020001_cyclomedia.jpg", "lat": 40.643876, "lon": -74.073319}, {"id": "NYC_2025040082", "address": "1020 Anderson Avenue, New York, NY, 10452", "city": "New York", "state": "NY", "type": "PreK-12", "vertical": "Education", "sqft": 99600.0, "opex": 44745.83452, "valuation": 0.0, "carbon": 137.9377238, "eui": 78.95959639, "image": "NYC_2025040082_cyclomedia.jpg", "lat": 40.832706, "lon": -73.926838}, {"id": "NYC_4124060180", "address": "117-05 Merrick Blvd, New York, NY, 11434", "city": "New York", "state": "NY", "type": "Gym", "vertical": "Commercial", "sqft": 63040.0, "opex": 44154.41672, "valuation": 630777.3817142857, "carbon": 103.6575212, "eui": 122.1569924, "image": "NYC_4124060180_cyclomedia.jpg", "lat": 40.687503, "lon": -73.775533}, {"id": "NYC_3020790021", "address": "295 Flatbush Ave Ext, New York, NY, 11201", "city": "New York", "state": "NY", "type": "Hospital/Clinic", "vertical": "Healthcare", "sqft": 41800.0, "opex": 43120.67366, "valuation": 0.0, "carbon": 94.1151736, "eui": 164.2579761, "image": "NYC_3020790021_streetview.jpg", "lat": 40.691986, "lon": -73.982496}, {"id": "NYC_2042880001", "address": "725 Brady Avenue, New York, NY, 10462", "city": "New York", "state": "NY", "type": "PreK-12", "vertical": "Education", "sqft": 112900.0, "opex": 39995.67773, "valuation": 0.0, "carbon": 110.3898446, "eui": 65.30408946, "image": "NYC_2042880001_streetview.jpg", "lat": 40.852398, "lon": -73.866617}, {"id": "NYC_1001480010", "address": "71 Thomas St, New York, NY 10013", "city": "New York", "state": "NY", "type": "Office", "vertical": "Commercial", "sqft": 100750.0, "opex": 39567.14332, "valuation": 565244.9045714285, "carbon": 26.77081847, "eui": 71.13833052, "image": "NYC_1001480010_AWS.jpg", "lat": 40.7170097, "lon": -74.0075393}, {"id": "NYC_3011990015", "address": "Classified Dhs Location, New York, NY, 11216", "city": "New York", "state": "NY", "type": "Hotel", "vertical": "Commercial", "sqft": 164320.0, "opex": 39069.21529, "valuation": 558131.647, "carbon": 42.61205667, "eui": 88.25816699, "image": "NYC_3011990015_streetview.jpg", "lat": 40.6788319, "lon": -73.9506774}, {"id": "NYC_2028430040", "address": "1425 Walton Avenue, New York, NY, 10452", "city": "New York", "state": "NY", "type": "PreK-12", "vertical": "Education", "sqft": 96700.0, "opex": 38855.19235, "valuation": 0.0, "carbon": 98.994596, "eui": 71.95401034, "image": "NYC_2028430040_Serpapi.jpg", "lat": 40.840096, "lon": -73.915569}, {"id": "NYC_2029250080", "address": "1309 Fulton Ave, New York, NY, 10456", "city": "New York", "state": "NY", "type": "Hospital/Clinic", "vertical": "Healthcare", "sqft": 51434.0, "opex": 38724.57342, "valuation": 0.0, "carbon": 80.81352342, "eui": 122.4047751, "image": "NYC_2029250080_cyclomedia.jpg", "lat": 40.832853, "lon": -73.903028}, {"id": "NYC_1013460032", "address": "348 East 54Th St, New York, NY, 10022", "city": "New York", "state": "NY", "type": "Gym", "vertical": "Commercial", "sqft": 25243.0, "opex": 37844.43669, "valuation": 540634.8098571429, "carbon": 38.47583232, "eui": 184.6923147, "image": "NYC_1013460032_MapQuest.jpg", "lat": 40.756882, "lon": -73.965536}, {"id": "NYC_2030690001", "address": "577 East 179Th Street, New York, NY, 10457", "city": "New York", "state": "NY", "type": "PreK-12", "vertical": "Education", "sqft": 114080.0, "opex": 35656.62454, "valuation": 0.0, "carbon": 199.6222291, "eui": 92.82164884, "image": "NYC_2030690001_Serpapi.jpg", "lat": 40.848339, "lon": -73.89308}, {"id": "NYC_4020770050", "address": "93-29 Queens Blvd, New York, NY, 11374", "city": "New York", "state": "NY", "type": "Gym", "vertical": "Commercial", "sqft": 65280.0, "opex": 35157.02534, "valuation": 502243.2191428571, "carbon": 9.272907369, "eui": 34.62516085, "image": "NYC_4020770050_cyclomedia.jpg", "lat": 40.73147, "lon": -73.866044}, {"id": "NYC_1008217501", "address": "40 W 20th St, New York, NY, 10011", "city": "New York", "state": "NY", "type": "Office", "vertical": "Commercial", "sqft": 95316.0, "opex": 35100.62612, "valuation": 501437.51599999995, "carbon": 70.3688433, "eui": 71.81047778, "image": "NYC_1008217501_AWS.jpg", "lat": 40.7404458, "lon": -73.993363}, {"id": "NYC_1016100001", "address": "1230 5Th Ave, New York, NY, 10029", "city": "New York", "state": "NY", "type": "Office", "vertical": "Commercial", "sqft": 32862.0, "opex": 33533.4285, "valuation": 479048.97857142857, "carbon": 22.56851523, "eui": 99.12420121, "image": "NYC_1016100001_ILoveNYcom.jpg", "lat": 40.793072, "lon": -73.951992}, {"id": "NYC_1019090012", "address": "136 Dr Martin Luther King Jr Blvd, New York, NY, 10027", "city": "New York", "state": "NY", "type": "Office", "vertical": "Commercial", "sqft": 121000.0, "opex": 32144.185, "valuation": 459202.6428571429, "carbon": 36.49368226, "eui": 39.35552893, "image": "NYC_1019090012_AWS.jpg", "lat": 40.808136, "lon": -73.947417}, {"id": "NYC_2028770393", "address": "1771 Popham Avenue, New York, NY, 10453", "city": "New York", "state": "NY", "type": "PreK-12", "vertical": "Education", "sqft": 99512.0, "opex": 31503.43938, "valuation": 0.0, "carbon": 87.69005332, "eui": 59.89070866, "image": "NYC_2028770393_cyclomedia.jpg", "lat": 40.851414, "lon": -73.918533}, {"id": "NYC_1021380024", "address": "600 West 168Th St, New York, NY, 10032", "city": "New York", "state": "NY", "type": "Hospital/Clinic", "vertical": "Healthcare", "sqft": 51050.0, "opex": 31317.55876, "valuation": 0.0, "carbon": 51.09735897, "eui": 87.90002351, "image": "NYC_1021380024_streetview.jpg", "lat": 40.841264, "lon": -73.940223}, {"id": "NYC_1021240043", "address": "3940 Broadway, New York, NY 10032", "city": "New York", "state": "NY", "type": "Medical Office/Lab", "vertical": "Healthcare", "sqft": 100858.0, "opex": 30658.80593, "valuation": 0.0, "carbon": 191.7771292, "eui": 610.609668, "image": "NYC_1021240043_AWS.jpg", "lat": 40.8394842, "lon": -73.9403485}, {"id": "NYC_4051070200", "address": "43-50 Main St, New York, NY, 11355", "city": "New York", "state": "NY", "type": "Office", "vertical": "Commercial", "sqft": 48677.0, "opex": 30131.46899, "valuation": 430449.557, "carbon": 33.14334538, "eui": 84.73672165, "image": "NYC_4051070200_enwikipediaorg.jpg", "lat": 40.751508, "lon": -73.826092}, {"id": "NYC_3013530001", "address": "1251 Prospect Pl, New York, NY, 11213", "city": "New York", "state": "NY", "type": "Gym", "vertical": "Commercial", "sqft": 42171.0, "opex": 29812.7269, "valuation": 425896.09857142856, "carbon": 38.79073023, "eui": 92.55545991, "image": "NYC_3013530001_Yelp.jpg", "lat": 40.673488, "lon": -73.9348}, {"id": "NYC_1017190001", "address": "122Nd St At Mt Morris Park West, New York, NY, 10035", "city": "New York", "state": "NY", "type": "Gym", "vertical": "Commercial", "sqft": 31331.0, "opex": 29319.57387, "valuation": 418851.0552857143, "carbon": 45.93598522, "eui": 122.8248604, "image": "NYC_1017190001_Wikipediathefreeency.jpg", "lat": 40.8044833, "lon": -73.9436727}, {"id": "NYC_4017290027", "address": "34-33 Junction Blvd, New York, NY, 11372", "city": "New York", "state": "NY", "type": "Hospital/Clinic", "vertical": "Healthcare", "sqft": 28600.0, "opex": 29299.25306, "valuation": 0.0, "carbon": 63.62067476, "eui": 162.5131818, "image": "NYC_4017290027_Nyc.jpg", "lat": 40.754179, "lon": -73.872231}, {"id": "NYC_4000750001", "address": "46-01 21St St, New York, NY, 11101", "city": "New York", "state": "NY", "type": "Library/Museum", "vertical": "Education", "sqft": 140000.0, "opex": 29279.25546, "valuation": 418275.078, "carbon": 42.38249714, "eui": 36.02495714, "image": "NYC_4000750001_streetview.jpg", "lat": 40.745872, "lon": -73.948093}, {"id": "NYC_1004540052", "address": "331 East 12Th St, New York, NY, 10003", "city": "New York", "state": "NY", "type": "Hotel", "vertical": "Commercial", "sqft": 63335.0, "opex": 28196.88456, "valuation": 402812.6365714285, "carbon": 32.80330461, "eui": 135.6376743, "image": "NYC_1004540052_EVGrieve.jpg", "lat": 40.730657, "lon": -73.985041}, {"id": "NYC_1007100011", "address": "528 West 39Th Street, New York, NY, 10018", "city": "New York", "state": "NY", "type": "Office", "vertical": "Commercial", "sqft": 51845.0, "opex": 27873.13581, "valuation": 398187.6544285714, "carbon": 52.8659631, "eui": 69.09540746, "image": "NYC_1007100011_NewYorkYIMBY.jpg", "lat": 40.758323, "lon": -73.998311}, {"id": "NYC_1008370056", "address": "16 W 36th St, New York, NY 10018", "city": "New York", "state": "NY", "type": "Office", "vertical": "Commercial", "sqft": 59367.0, "opex": 26875.80497, "valuation": 383940.071, "carbon": 52.98041804, "eui": 57.28225445, "image": "NYC_1008370056_AWS.jpg", "lat": 40.7501154, "lon": -73.9847704}, {"id": "NYC_1018520049", "address": "160 West 100Th St, New York, NY, 10025", "city": "New York", "state": "NY", "type": "Hospital/Clinic", "vertical": "Healthcare", "sqft": 64258.0, "opex": 26842.06695, "valuation": 0.0, "carbon": 47.25565001, "eui": 73.93894301, "image": "NYC_1018520049_cyclomedia.jpg", "lat": 40.796369, "lon": -73.967842}, {"id": "NYC_2028650049", "address": "Classified Dhs Location, New York, NY, 10452", "city": "New York", "state": "NY", "type": "Hotel", "vertical": "Commercial", "sqft": 68185.0, "opex": 26765.50273, "valuation": 382364.32471428567, "carbon": 20.08754212, "eui": 97.62593092, "image": "NYC_2028650049_cyclomedia.jpg", "lat": 40.8376318, "lon": -73.9212858}, {"id": "NYC_2029410001", "address": "East 173Rd St At Fulton Ave, New York, NY, 10457", "city": "New York", "state": "NY", "type": "Entertainment Venue", "vertical": "Commercial", "sqft": 25000.0, "opex": 26545.98283, "valuation": 353946.4377333334, "carbon": 52.22194003, "eui": 108.496196, "image": "NYC_2029410001_LivingNewDeal.jpg", "lat": 40.8401352, "lon": -73.8971044}, {"id": "NYC_2048230001", "address": "4125 Carpenter Avenue, New York, NY, 10466", "city": "New York", "state": "NY", "type": "PreK-12", "vertical": "Education", "sqft": 103280.0, "opex": 26479.06939, "valuation": 0.0, "carbon": 92.17847867, "eui": 62.70669055, "image": "NYC_2048230001_streetview.jpg", "lat": 40.892151, "lon": -73.861466}, {"id": "NYC_2024250020", "address": "Classified Dhs Location, New York, NY, 10456", "city": "New York", "state": "NY", "type": "Hotel", "vertical": "Commercial", "sqft": 174600.0, "opex": 26410.24421, "valuation": 377289.203, "carbon": 7.523243504, "eui": 13.6486449, "image": "NYC_2024250020_cyclomedia.jpg", "lat": 40.8310224, "lon": -73.9095279}, {"id": "NYC_1011510015", "address": "232 West 60Th St, New York, NY, 10019", "city": "New York", "state": "NY", "type": "Gym", "vertical": "Commercial", "sqft": 33720.0, "opex": 26050.65449, "valuation": 372152.207, "carbon": 69.60197387, "eui": 145.1831732, "image": "NYC_1011510015_ManhattanSideways.jpg", "lat": 40.771727, "lon": -73.988786}, {"id": "NYC_2031420048", "address": "2075 Webster Avenue, New York, NY, 10457", "city": "New York", "state": "NY", "type": "PreK-12", "vertical": "Education", "sqft": 44860.0, "opex": 25799.85052, "valuation": 0.0, "carbon": 15.04670688, "eui": 105.0971957, "image": "NYC_2031420048_Serpapi.jpg", "lat": 40.851741, "lon": -73.898493}, {"id": "NYC_4097560006", "address": "90-37 Parsons Blvd, New York, NY, 11432", "city": "New York", "state": "NY", "type": "Hospital/Clinic", "vertical": "Healthcare", "sqft": 51740.0, "opex": 25147.79925, "valuation": 0.0, "carbon": 54.42084631, "eui": 90.65078083, "image": "NYC_4097560006_streetview.jpg", "lat": 40.703826, "lon": -73.800483}, {"id": "NYC_1000020001", "address": "4 South St, New York, NY, 10004", "city": "New York", "state": "NY", "type": "Mixed Use", "vertical": "Commercial", "sqft": 280000.0, "opex": 24904.8778, "valuation": 0.0, "carbon": 68.8420579, "eui": 82.80693464, "image": "NYC_1000020001_Wikipediathefreeency.jpg", "lat": 40.701429, "lon": -74.011552}, {"id": "NYC_2024620001", "address": "1040 Grand Concourse, New York, NY, 10456", "city": "New York", "state": "NY", "type": "Library/Museum", "vertical": "Education", "sqft": 46600.0, "opex": 24441.45066, "valuation": 349163.5808571428, "carbon": 41.23656518, "eui": 86.13891845, "image": "NYC_2024620001_streetview.jpg", "lat": 40.831063, "lon": -73.920361}, {"id": "NYC_2032070040", "address": "2200 Aqueduct Avenue, New York, NY, 10453", "city": "New York", "state": "NY", "type": "PreK-12", "vertical": "Education", "sqft": 86656.0, "opex": 24399.45529, "valuation": 0.0, "carbon": 68.30175007, "eui": 59.3254339, "image": "NYC_2032070040_streetview.jpg", "lat": 40.858103, "lon": -73.907972}, {"id": "NYC_3024540001", "address": "17 South 6Th St, New York, NY, 11249", "city": "New York", "state": "NY", "type": "Office", "vertical": "Commercial", "sqft": 31273.0, "opex": 24178.30582, "valuation": 345404.36885714286, "carbon": 36.07429199, "eui": 79.42172481, "image": "NYC_3024540001_streetview.jpg", "lat": 40.711891, "lon": -73.967911}, {"id": "NYC_4000680002", "address": "Classified Dhs Location, New York, NY, 11101", "city": "New York", "state": "NY", "type": "Hotel", "vertical": "Commercial", "sqft": 55000.0, "opex": 23604.09568, "valuation": 337201.3668571428, "carbon": 6.239309114, "eui": 51.06281818, "image": "NYC_4000680002_cyclomedia.jpg", "lat": 40.7443091, "lon": -73.9418603}, {"id": "NYC_1017450005", "address": "Classified Dhs Location, New York, NY, 10035", "city": "New York", "state": "NY", "type": "Hotel", "vertical": "Commercial", "sqft": 65510.0, "opex": 23141.0283, "valuation": 330586.1185714286, "carbon": 17.59690718, "eui": 95.60687834, "image": "NYC_1017450005_enwikipediaorg.jpg", "lat": 40.794065, "lon": -73.9271644}, {"id": "NYC_1013730060", "address": "34 North Loop Road, New York, NY, 10044", "city": "New York", "state": "NY", "type": "Office", "vertical": "Commercial", "sqft": 40000.0, "opex": 23036.47392, "valuation": 329092.48457142856, "carbon": 30.12908886, "eui": 60.4623575, "image": "NYC_1013730060_cyclomedia.jpg", "lat": 40.756503, "lon": -73.955621}, {"id": "NYC_1018760020", "address": "2724 Broadway, New York, NY, 10025", "city": "New York", "state": "NY", "type": "Hotel", "vertical": "Commercial", "sqft": 102275.0, "opex": 22795.51744, "valuation": 325650.2491428571, "carbon": 25.15948853, "eui": 83.82500807, "image": "NYC_1018760020_VornadoRealtyTrust.jpg", "lat": 40.800041, "lon": -73.968107}, {"id": "NYC_1017300055", "address": "35 West 134Th St, New York, NY, 10037", "city": "New York", "state": "NY", "type": "Gym", "vertical": "Commercial", "sqft": 40560.0, "opex": 22743.63642, "valuation": 324909.09171428566, "carbon": 29.10398449, "eui": 105.1452835, "image": "NYC_1017300055_MapQuest.jpg", "lat": 40.81265, "lon": -73.93949}, {"id": "NYC_2026130001", "address": "Classified Dhs Location, New York, NY, 10456", "city": "New York", "state": "NY", "type": "Hotel", "vertical": "Commercial", "sqft": 97000.0, "opex": 22737.29044, "valuation": 324818.43485714286, "carbon": 7.014247289, "eui": 22.43473608, "image": "NYC_2026130001_cyclomedia.jpg", "lat": 40.8310224, "lon": -73.9095279}, {"id": "NYC_3005820001", "address": "155 Bay St, New York, NY, 11231", "city": "New York", "state": "NY", "type": "Gym", "vertical": "Commercial", "sqft": 27069.0, "opex": 22660.12873, "valuation": 323716.1247142857, "carbon": 63.22204766, "eui": 156.7179504, "image": "NYC_3005820001_Yelp.jpg", "lat": 40.671937, "lon": -74.003515}, {"id": "NYC_2025670013", "address": "Classified Dhs Location, New York, NY, 10454", "city": "New York", "state": "NY", "type": "Hotel", "vertical": "Commercial", "sqft": 72000.0, "opex": 22482.25801, "valuation": 321175.1144285714, "carbon": 18.17385398, "eui": 90.58791806, "image": "NYC_2025670013_cyclomedia.jpg", "lat": 40.6954981, "lon": -73.9768193}, {"id": "NYC_2029450018", "address": "1826 Arthur Ave, New York, NY, 10457", "city": "New York", "state": "NY", "type": "Hospital/Clinic", "vertical": "Healthcare", "sqft": 50216.0, "opex": 22362.03386, "valuation": 0.0, "carbon": 44.32230458, "eui": 78.24099092, "image": "NYC_2029450018_streetview.jpg", "lat": 40.844083, "lon": -73.894482}, {"id": "NYC_3014720001", "address": "Classified Dhs Location, New York, NY, 11212", "city": "New York", "state": "NY", "type": "Hotel", "vertical": "Commercial", "sqft": 60000.0, "opex": 22182.64668, "valuation": 316894.95257142856, "carbon": 17.7307128, "eui": 98.82241167, "image": "NYC_3014720001_cyclomedia.jpg", "lat": 40.6639181, "lon": -73.9154069}, {"id": "NYC_2025870001", "address": "Classified Dhs Location, New York, NY, 10454", "city": "New York", "state": "NY", "type": "Hotel", "vertical": "Commercial", "sqft": 36000.0, "opex": 22073.09829, "valuation": 315329.97557142854, "carbon": 6.809350048, "eui": 53.35039444, "image": "NYC_2025870001_NYEngineers.jpg", "lat": 40.6954981, "lon": -73.9768193}, {"id": "NYC_1007240082", "address": "303 9Th Ave, New York, NY, 10001", "city": "New York", "state": "NY", "type": "Hospital/Clinic", "vertical": "Healthcare", "sqft": 27985.0, "opex": 21925.87934, "valuation": 0.0, "carbon": 41.08048436, "eui": 123.1457709, "image": "NYC_1007240082_cyclomedia.jpg", "lat": 40.749356, "lon": -73.999257}, {"id": "NYC_3034440022", "address": "1420 Bushwick Ave, New York, NY, 11207", "city": "New York", "state": "NY", "type": "Office", "vertical": "Commercial", "sqft": 52000.0, "opex": 21917.31378, "valuation": 313104.4825714285, "carbon": 94.13757305, "eui": 98.350025, "image": "NYC_3034440022_Flickr.jpg", "lat": 40.684318, "lon": -73.909056}, {"id": "NYC_3036990001", "address": "Classified Dhs Location, New York, NY, 11207", "city": "New York", "state": "NY", "type": "Hotel", "vertical": "Commercial", "sqft": 55976.0, "opex": 21360.56127, "valuation": 305150.8752857142, "carbon": 26.17444681, "eui": 123.272699, "image": "NYC_3036990001_cyclomedia.jpg", "lat": 40.6655101, "lon": -73.8918897}, {"id": "NYC_4017220012", "address": "33-16 108Th St, New York, NY, 11368", "city": "New York", "state": "NY", "type": "Gym", "vertical": "Commercial", "sqft": 25650.0, "opex": 20852.50577, "valuation": 297892.9395714285, "carbon": 42.53993158, "eui": 125.5646472, "image": "NYC_4017220012_6sqft.jpg", "lat": 40.757429, "lon": -73.860938}, {"id": "NYC_3038710101", "address": "Classified Dhs Location, New York, NY, 11236", "city": "New York", "state": "NY", "type": "Hotel", "vertical": "Commercial", "sqft": 28545.0, "opex": 20739.06486, "valuation": 296272.3551428571, "carbon": 20.41383488, "eui": 198.0169697, "image": "NYC_3038710101_cyclomedia.jpg", "lat": 40.6487819, "lon": -73.900217}, {"id": "NYC_1016340003", "address": "105 E 106th St, New York, NY, 10029", "city": "New York", "state": "NY", "type": "PreK-12", "vertical": "Education", "sqft": 78600.0, "opex": 19646.5638, "valuation": 0.0, "carbon": 5.912151623, "eui": 171.9599059, "image": "NYC_1016340003_AWS.jpg", "lat": 40.792934, "lon": -73.947166}, {"id": "NYC_4023510023", "address": "58-65 52Nd Rd, New York, NY, 11377", "city": "New York", "state": "NY", "type": "Hospital/Clinic", "vertical": "Healthcare", "sqft": 25578.0, "opex": 19637.97869, "valuation": 0.0, "carbon": 32.18313268, "eui": 114.3168074, "image": "NYC_4023510023_cyclomedia.jpg", "lat": 40.73442, "lon": -73.907602}, {"id": "NYC_2025570001", "address": "450 St Anns Ave, New York, NY, 10455", "city": "New York", "state": "NY", "type": "Gym", "vertical": "Commercial", "sqft": 57611.0, "opex": 18900.0457, "valuation": 270000.6528571428, "carbon": 84.10785637, "eui": 102.0093489, "image": "NYC_2025570001_preserveorg.jpg", "lat": 40.811687, "lon": -73.914441}, {"id": "NYC_3018260001", "address": "485 Throop Ave, New York, NY, 11221", "city": "New York", "state": "NY", "type": "Hospital/Clinic", "vertical": "Healthcare", "sqft": 37766.0, "opex": 18276.0308, "valuation": 0.0, "carbon": 37.78832697, "eui": 91.05547582, "image": "NYC_3018260001_streetview.jpg", "lat": 40.685654, "lon": -73.941462}, {"id": "NYC_3035590011", "address": "259 Bristol St, New York, NY, 11212", "city": "New York", "state": "NY", "type": "Hospital/Clinic", "vertical": "Healthcare", "sqft": 32472.0, "opex": 17938.6033, "valuation": 0.0, "carbon": 73.16046645, "eui": 145.9935729, "image": "NYC_3035590011_streetview.jpg", "lat": 40.664827, "lon": -73.911415}, {"id": "NYC_2026430001", "address": "630 Jackson Ave, New York, NY, 10455", "city": "New York", "state": "NY", "type": "Office", "vertical": "Commercial", "sqft": 36716.0, "opex": 17399.94836, "valuation": 248570.6908571428, "carbon": 4.594818821, "eui": 35.48123162, "image": "NYC_2026430001_NYCNewswire.jpg", "lat": 40.815426, "lon": -73.908281}, {"id": "NYC_2037520013", "address": "Classified Dhs Location, New York, NY, 10472", "city": "New York", "state": "NY", "type": "Hotel", "vertical": "Commercial", "sqft": 60000.0, "opex": 17309.15529, "valuation": 247273.64699999997, "carbon": 7.481544825, "eui": 61.939835, "image": "NYC_2037520013_cyclomedia.jpg", "lat": 40.8300731, "lon": -73.8683697}, {"id": "NYC_4049600001", "address": "137-35 Northern Blvd, New York, NY, 11354", "city": "New York", "state": "NY", "type": "Entertainment Venue", "vertical": "Commercial", "sqft": 25200.0, "opex": 16759.43583, "valuation": 223459.1444, "carbon": 9.022526499, "eui": 44.24051984, "image": "NYC_4049600001_cyclomedia.jpg", "lat": 40.763478, "lon": -73.829992}, {"id": "NYC_1017340001", "address": "46 West 137Th St, New York, NY, 10037", "city": "New York", "state": "NY", "type": "Hospital/Clinic", "vertical": "Healthcare", "sqft": 127800.0, "opex": 16687.19492, "valuation": 0.0, "carbon": 10.23759102, "eui": 84.12786463, "image": "NYC_1017340001_HOK.jpg", "lat": 40.814661, "lon": -73.938176}, {"id": "NYC_1019110043", "address": "Classified Hra Location, New York, NY, 10027", "city": "New York", "state": "NY", "type": "Hotel", "vertical": "Commercial", "sqft": 63750.0, "opex": 16684.73415, "valuation": 238353.34499999997, "carbon": 20.20159184, "eui": 98.30001255, "image": "NYC_1019110043_TheGuardian.jpg", "lat": 40.8093644, "lon": -73.9458252}, {"id": "NYC_4098330004", "address": "Classified Dhs Location, New York, NY, 11432", "city": "New York", "state": "NY", "type": "Hotel", "vertical": "Commercial", "sqft": 80332.0, "opex": 15735.24545, "valuation": 224789.2207142857, "carbon": 16.98564416, "eui": 67.80170044, "image": "NYC_4098330004_cyclomedia.jpg", "lat": 40.7154518, "lon": -73.7919103}, {"id": "NYC_2027610043", "address": "Classified Dhs Location, New York, NY, 10474", "city": "New York", "state": "NY", "type": "Hotel", "vertical": "Commercial", "sqft": 64315.0, "opex": 15429.05937, "valuation": 220415.13385714285, "carbon": 17.38323251, "eui": 94.1604478, "image": "NYC_2027610043_cyclomedia.jpg", "lat": 40.8179698, "lon": -73.8870286}, {"id": "NYC_4101010011", "address": "161-04 Jamaica Ave, New York, NY, 11432", "city": "New York", "state": "NY", "type": "Office", "vertical": "Commercial", "sqft": 33352.0, "opex": 15297.04589, "valuation": 218529.227, "carbon": 33.8150112, "eui": 90.05310326, "image": "NYC_4101010011_streetview.jpg", "lat": 40.704025, "lon": -73.798437}, {"id": "NYC_4006400024", "address": "36-12 35Th Avenue, New York, NY, 11106", "city": "New York", "state": "NY", "type": "PreK-12", "vertical": "Education", "sqft": 45300.0, "opex": 14943.56437, "valuation": 0.0, "carbon": 24.07352063, "eui": 48.51456512, "image": "NYC_4006400024_Owncs.jpg", "lat": 40.75616, "lon": -73.92432}, {"id": "NYC_4096620020", "address": "Classified Dhs Location, New York, NY, 11435", "city": "New York", "state": "NY", "type": "Hotel", "vertical": "Commercial", "sqft": 142000.0, "opex": 14840.68177, "valuation": 212009.73957142857, "carbon": 6.246411176, "eui": 32.84523732, "image": "NYC_4096620020_cyclomedia.jpg", "lat": 40.7031635, "lon": -73.8095574}, {"id": "NYC_1003870049", "address": "Classified Dhs Location, New York, NY, 10009", "city": "New York", "state": "NY", "type": "Hotel", "vertical": "Commercial", "sqft": 50478.0, "opex": 14834.93633, "valuation": 211927.66185714284, "carbon": 12.35249938, "eui": 82.04575657, "image": "NYC_1003870049_cyclomedia.jpg", "lat": 40.7275043, "lon": -73.9800645}, {"id": "NYC_1011070012", "address": "35 Hudson River Greenway, New York, NY, 10036", "city": "New York", "state": "NY", "type": "Mixed Use", "vertical": "Commercial", "sqft": 202432.0, "opex": 14510.12213, "valuation": 0.0, "carbon": 49.10286404, "eui": 74.29326095, "image": "NYC_1011070012_Brooklyncruisetermin.jpg", "lat": 40.76637, "lon": -73.9997112}, {"id": "NYC_4004360021", "address": "23-10 43Rd Ave, New York, NY, 11101", "city": "New York", "state": "NY", "type": "Office", "vertical": "Commercial", "sqft": 97650.0, "opex": 13831.49787, "valuation": 197592.82671428568, "carbon": 6.35807666, "eui": 14.67612698, "image": "NYC_4004360021_CommercialObserver.jpg", "lat": 40.749586, "lon": -73.943546}, {"id": "NYC_2043600001", "address": "985 Astor Ave, New York, NY, 10469", "city": "New York", "state": "NY", "type": "PreK-12", "vertical": "Education", "sqft": 67000.0, "opex": 13661.7241, "valuation": 0.0, "carbon": 49.90007952, "eui": 54.52246269, "image": "NYC_2043600001_cyclomedia.jpg", "lat": 40.85969, "lon": -73.859256}, {"id": "NYC_2025270014", "address": "Classified Dhs Location, New York, NY, 10452", "city": "New York", "state": "NY", "type": "Hotel", "vertical": "Commercial", "sqft": 99975.0, "opex": 13543.27526, "valuation": 193475.36085714283, "carbon": 20.12521476, "eui": 75.53877569, "image": "NYC_2025270014_cyclomedia.jpg", "lat": 40.8376318, "lon": -73.9212858}, {"id": "NYC_2042750001", "address": "1166 Neil Avenue, New York, NY, 10461", "city": "New York", "state": "NY", "type": "PreK-12", "vertical": "Education", "sqft": 42060.0, "opex": 13310.05814, "valuation": 0.0, "carbon": 59.31000688, "eui": 89.754068, "image": "NYC_2042750001_cyclomedia.jpg", "lat": 40.854258, "lon": -73.8527395}, {"id": "NYC_3081560100", "address": "567 East 105Th Street, New York, NY, 11236", "city": "New York", "state": "NY", "type": "Medical Office/Lab", "vertical": "Healthcare", "sqft": 57400.0, "opex": 12945.87519, "valuation": 172611.6692, "carbon": 10.51880453, "eui": 25.16040418, "image": "NYC_3081560100_Wikipediathefreeency.jpg", "lat": 40.650919, "lon": -73.898459}, {"id": "NYC_1000740001", "address": "89 South St., New York, NY, 10038", "city": "New York", "state": "NY", "type": "Library/Museum", "vertical": "Education", "sqft": 96560.0, "opex": 12928.59905, "valuation": 0.0, "carbon": 20.47162086, "eui": 77.56255592, "image": "NYC_1000740001_Tripadvisor.jpg", "lat": 40.706463, "lon": -74.002738}, {"id": "NYC_3033240001", "address": "335 Central Ave, New York, NY, 11221", "city": "New York", "state": "NY", "type": "Hospital/Clinic", "vertical": "Healthcare", "sqft": 35640.0, "opex": 11175.78771, "valuation": 0.0, "carbon": 27.37923926, "eui": 71.86815095, "image": "NYC_3033240001_cyclomedia.jpg", "lat": 40.694674, "lon": -73.919153}, {"id": "NYC_1016400147", "address": "158 East 115Th St, New York, NY, 10029", "city": "New York", "state": "NY", "type": "Hospital/Clinic", "vertical": "Healthcare", "sqft": 47349.0, "opex": 11129.21974, "valuation": 0.0, "carbon": 55.40260427, "eui": 87.67445775, "image": "NYC_1016400147_cyclomedia.jpg", "lat": 40.797755, "lon": -73.941699}, {"id": "NYC_2059370440", "address": "675 West 252Nd St, New York, NY, 10471", "city": "New York", "state": "NY", "type": "Office", "vertical": "Commercial", "sqft": 81411.0, "opex": 10881.65002, "valuation": 155452.14314285712, "carbon": 25.11530007, "eui": 32.4004987, "image": "NYC_2059370440_streetview.jpg", "lat": 40.900127, "lon": -73.911202}, {"id": "NYC_3032430044", "address": "Classified Dhs Location, New York, NY, 11221", "city": "New York", "state": "NY", "type": "Hotel", "vertical": "Commercial", "sqft": 34800.0, "opex": 10383.85332, "valuation": 148340.7617142857, "carbon": 15.32124789, "eui": 134.9481322, "image": "NYC_3032430044_cyclomedia.jpg", "lat": 40.6903213, "lon": -73.9271644}, {"id": "NYC_1017340034", "address": "2238 5Th Ave, New York, NY, 10037", "city": "New York", "state": "NY", "type": "Hospital/Clinic", "vertical": "Healthcare", "sqft": 31180.0, "opex": 9977.643253, "valuation": 0.0, "carbon": 29.22756024, "eui": 79.00856639, "image": "NYC_1017340034_cyclomedia.jpg", "lat": 40.813645, "lon": -73.936992}, {"id": "NYC_3040770024", "address": "Classified Dhs Location, New York, NY, 11207", "city": "New York", "state": "NY", "type": "Hotel", "vertical": "Commercial", "sqft": 39600.0, "opex": 9520.680753, "valuation": 136009.72504285714, "carbon": 12.19109164, "eui": 98.51519192, "image": "NYC_3040770024_cyclomedia.jpg", "lat": 40.6655101, "lon": -73.8918897}, {"id": "NYC_1016280024", "address": "Classified Dhs Location, New York, NY, 10029", "city": "New York", "state": "NY", "type": "Hotel", "vertical": "Commercial", "sqft": 71115.0, "opex": 9433.923003, "valuation": 134770.3286142857, "carbon": 8.194513605, "eui": 57.34527456, "image": "NYC_1016280024_cyclomedia.jpg", "lat": 40.7916407, "lon": -73.9447994}, {"id": "NYC_3038680002", "address": "1555 Linden Blvd, New York, NY, 11212", "city": "New York", "state": "NY", "type": "Gym", "vertical": "Commercial", "sqft": 72000.0, "opex": 9305.603109, "valuation": 132937.18727142856, "carbon": 12.04372014, "eui": 19.72618472, "image": "NYC_3038680002_NewYorkYIMBY.jpg", "lat": 40.655471, "lon": -73.902853}, {"id": "NYC_3040060037", "address": "2505 Pitkin Ave, New York, NY, 11208", "city": "New York", "state": "NY", "type": "PreK-12", "vertical": "Education", "sqft": 27857.0, "opex": 8673.422614, "valuation": 0.0, "carbon": 4.138925735, "eui": 34.72987759, "image": "NYC_3040060037_fochnycorg.jpg", "lat": 40.674284, "lon": -73.879746}, {"id": "NYC_3034960004", "address": "444 Thomas Boyland St, New York, NY, 11212", "city": "New York", "state": "NY", "type": "Office", "vertical": "Commercial", "sqft": 43726.0, "opex": 8437.945095, "valuation": 120542.07278571426, "carbon": 32.58631222, "eui": 59.4081256, "image": "NYC_3034960004_streetview.jpg", "lat": 40.670104, "lon": -73.913812}, {"id": "NYC_3017690072", "address": "217 Hart Street, New York, NY, 11206", "city": "New York", "state": "NY", "type": "Hotel", "vertical": "Commercial", "sqft": 35100.0, "opex": 8329.859073, "valuation": 118997.98675714283, "carbon": 2.722284514, "eui": 22.38607692, "image": "NYC_3017690072_cyclomedia.jpg", "lat": 40.69393, "lon": -73.942259}, {"id": "NYC_3061030042", "address": "369 93Rd Street, New York, NY, 11209", "city": "New York", "state": "NY", "type": "PreK-12", "vertical": "Education", "sqft": 29182.0, "opex": 8154.510099, "valuation": 0.0, "carbon": 18.41107469, "eui": 59.73085121, "image": "NYC_3061030042_Alamy.jpg", "lat": 40.618041, "lon": -74.031381}, {"id": "NYC_2049050002", "address": "1250 East 229 St, New York, NY, 10466", "city": "New York", "state": "NY", "type": "Hospital/Clinic", "vertical": "Healthcare", "sqft": 35325.0, "opex": 8091.47819, "valuation": 0.0, "carbon": 16.48791261, "eui": 133.3468535, "image": "NYC_2049050002_NewYorkYIMBY.jpg", "lat": 40.88372, "lon": -73.842046}, {"id": "NYC_1005820050", "address": "3 Clarkson St, New York, NY, 10014", "city": "New York", "state": "NY", "type": "Gym", "vertical": "Commercial", "sqft": 35429.0, "opex": 8023.552083, "valuation": 114622.1726142857, "carbon": 26.35638868, "eui": 67.92308279, "image": "NYC_1005820050_GreenwichVillageSoci.jpg", "lat": 40.729379, "lon": -74.005737}, {"id": "NYC_4005180030", "address": "12-26 31St Ave, New York, NY, 11106", "city": "New York", "state": "NY", "type": "Hospital/Clinic", "vertical": "Healthcare", "sqft": 28372.0, "opex": 7794.446342, "valuation": 0.0, "carbon": 30.72265301, "eui": 84.75733822, "image": "NYC_4005180030_streetview.jpg", "lat": 40.768437, "lon": -73.932504}, {"id": "NYC_2027580036", "address": "Classified Hra Location, New York, NY, 10459", "city": "New York", "state": "NY", "type": "Hotel", "vertical": "Commercial", "sqft": 57630.0, "opex": 7730.566244, "valuation": 110436.6606285714, "carbon": 9.719662713, "eui": 67.95391636, "image": "NYC_2027580036_NewYorkYIMBY.jpg", "lat": 40.8625902, "lon": -73.8934046}, {"id": "NYC_4122000052", "address": "114-02 Guy R. Brewer Blvd, New York, NY, 11434", "city": "New York", "state": "NY", "type": "Office", "vertical": "Commercial", "sqft": 37098.0, "opex": 7571.487153, "valuation": 108164.10218571428, "carbon": 9.555530624, "eui": 35.81470969, "image": "NYC_4122000052_wwwdnainfocom.jpg", "lat": 40.688615, "lon": -73.785593}, {"id": "NYC_2025390002", "address": "1 East 150Th St, New York, NY, 10451", "city": "New York", "state": "NY", "type": "Office", "vertical": "Commercial", "sqft": 26978.0, "opex": 7290.684785, "valuation": 104152.63978571427, "carbon": 13.70411023, "eui": 42.71958633, "image": "NYC_2025390002_Inhabitat.jpg", "lat": 40.82069, "lon": -73.931288}, {"id": "NYC_3079180114", "address": "420 East 83Rd St, New York, NY, 11236", "city": "New York", "state": "NY", "type": "Hospital/Clinic", "vertical": "Healthcare", "sqft": 25000.0, "opex": 6728.131489, "valuation": 0.0, "carbon": 28.20809754, "eui": 87.597424, "image": "NYC_3079180114_NewYorkYIMBY.jpg", "lat": 40.642727, "lon": -73.91748}, {"id": "NYC_1001110150", "address": "Classified Dhs Location, New York, NY, 10038", "city": "New York", "state": "NY", "type": "Hotel", "vertical": "Commercial", "sqft": 115659.0, "opex": 5657.120767, "valuation": 80816.01095714285, "carbon": 1.695751117, "eui": 7.818207835, "image": "NYC_1001110150_cyclomedia.jpg", "lat": 40.7071498, "lon": -74.0021019}, {"id": "NYC_3070740190", "address": "1501 Boardwalk West, New York, NY, 11224", "city": "New York", "state": "NY", "type": "Mixed Use", "vertical": "Commercial", "sqft": 38400.0, "opex": 4650.502427, "valuation": 66435.74895714286, "carbon": 1.187960956, "eui": 10.41478646, "image": "NYC_3070740190_cyclomedia.jpg", "lat": 40.572934, "lon": -73.981865}, {"id": "NYC_2028610129", "address": "1810 Davidson Ave, New York, NY, 10453", "city": "New York", "state": "NY", "type": "PreK-12", "vertical": "Education", "sqft": 25760.0, "opex": 4516.782002, "valuation": 0.0, "carbon": 1.987297431, "eui": 21.68699534, "image": "NYC_2028610129_BeAbove.jpg", "lat": 40.849425, "lon": -73.912268}, {"id": "NYC_3086960145", "address": "3054 W 12Th St., New York, NY, 11224", "city": "New York", "state": "NY", "type": "Retail/Consumer Services", "vertical": "Commercial", "sqft": 25762.0, "opex": 4147.755785, "valuation": 82955.1157, "carbon": 2.120028846, "eui": 18.64356416, "image": "NYC_3086960145_cyclomedia.jpg", "lat": 40.573897, "lon": -73.979687}, {"id": "NYC_5004870100", "address": "455 Front St, New York, NY, 10304", "city": "New York", "state": "NY", "type": "Office", "vertical": "Commercial", "sqft": 59552.0, "opex": 3864.367969, "valuation": 0.0, "carbon": 1.315053546, "eui": 35.10910969, "image": "NYC_5004870100_CommercialObserver.jpg", "lat": 40.626715, "lon": -74.074096}, {"id": "NYC_3005520005", "address": "595 Clinton Ave, New York, NY, 11231", "city": "New York", "state": "NY", "type": "PreK-12", "vertical": "Education", "sqft": 27000.0, "opex": 3853.303225, "valuation": 0.0, "carbon": 1.767080893, "eui": 17.48472963, "image": "NYC_3005520005_MapQuest.jpg", "lat": 40.6748158, "lon": -74.0013916}, {"id": "NYC_1000160001", "address": "22 Battery Place, New York, NY, 10004", "city": "New York", "state": "NY", "type": "Retail/Consumer Services", "vertical": "Commercial", "sqft": 28732.0, "opex": 3803.237724, "valuation": 54331.96748571428, "carbon": 0.793331482, "eui": 40.52552207, "image": "NYC_1000160001_Batteryparkcityautho.jpg", "lat": 40.705136, "lon": -74.01772}, {"id": "NYC_3034330005", "address": "1375 Bushwick Ave, New York, NY, 11207", "city": "New York", "state": "NY", "type": "PreK-12", "vertical": "Education", "sqft": 27100.0, "opex": 3487.020892, "valuation": 0.0, "carbon": 3.846679427, "eui": 25.8377786, "image": "NYC_3034330005_TheWallStreetJournal.jpg", "lat": 40.685173, "lon": -73.910526}, {"id": "NYC_1004230022", "address": "115 Chrystie St, New York, NY, 10002", "city": "New York", "state": "NY", "type": "PreK-12", "vertical": "Education", "sqft": 42500.0, "opex": 3287.542949, "valuation": 0.0, "carbon": 3.685286332, "eui": 31.70918824, "image": "NYC_1004230022_cyclomedia.jpg", "lat": 40.718647, "lon": -73.993586}, {"id": "NYC_3085910980", "address": "2777 Flatbush Ave., New York, NY, 11234", "city": "New York", "state": "NY", "type": "Retail/Consumer Services", "vertical": "Commercial", "sqft": 183000.0, "opex": 2473.371509, "valuation": 35333.8787, "carbon": 1.528489395, "eui": 12.9866082, "image": "NYC_3085910980_serpapi.jpg", "lat": 40.603146, "lon": -73.915242}, {"id": "NYC_3003120024", "address": "250 Baltic Street, New York, NY, 11201", "city": "New York", "state": "NY", "type": "Office", "vertical": "Commercial", "sqft": 33750.0, "opex": 2434.707506, "valuation": 34781.5358, "carbon": 1.097218181, "eui": 9.217324444, "image": "NYC_3003120024_NewYorkYIMBY.jpg", "lat": 40.686295, "lon": -73.994671}, {"id": "NYC_3035830006", "address": "Classified Dhs Location, New York, NY, 11212", "city": "New York", "state": "NY", "type": "Hotel", "vertical": "Commercial", "sqft": 42000.0, "opex": 2103.445673, "valuation": 30049.2239, "carbon": 5.981931105, "eui": 61.09958095, "image": "NYC_3035830006_cyclomedia.jpg", "lat": 40.6639181, "lon": -73.9154069}, {"id": "NYC_3044570001", "address": "668 Logan St, New York, NY, 11208", "city": "New York", "state": "NY", "type": "PreK-12", "vertical": "Education", "sqft": 26070.0, "opex": 1838.597396, "valuation": 0.0, "carbon": 12.76338619, "eui": 39.42838895, "image": "NYC_3044570001_MapQuest.jpg", "lat": 40.669503, "lon": -73.874884}, {"id": "NYC_2027580006", "address": "Classified Hra Location, New York, NY, 10459", "city": "New York", "state": "NY", "type": "Hotel", "vertical": "Commercial", "sqft": 27720.0, "opex": 1626.788713, "valuation": 23239.838757142858, "carbon": 0.739934476, "eui": 13.47589827, "image": "NYC_2027580006_GilsanzMurrayStefice.jpg", "lat": 40.8625902, "lon": -73.8934046}, {"id": "NYC_2038440016", "address": "2400 Halsey Street, New York, NY, 10461", "city": "New York", "state": "NY", "type": "Office", "vertical": "Commercial", "sqft": 34000.0, "opex": 1538.097801, "valuation": 21972.825728571424, "carbon": 9.027256209, "eui": 23.28175882, "image": "NYC_2038440016_Serpapi.jpg", "lat": 40.83582, "lon": -73.84517}, {"id": "NYC_2032470002", "address": "10 W 195Th St, New York, NY, 10468", "city": "New York", "state": "NY", "type": "Hospital/Clinic", "vertical": "Healthcare", "sqft": 26237.0, "opex": 1198.412277, "valuation": 0.0, "carbon": 6.193843231, "eui": 70.47143347, "image": "NYC_2032470002_cyclomedia.jpg", "lat": 40.868815, "lon": -73.897121}]