[{"id": "CA_6331441", "address": "72-840 California 111, Palm Desert, CA, 92260", "city": "Palm Desert", "state": "CA", "type": "Strip/Enclosed Mall", "vertical": "Commercial", "sqft": 980041.0, "opex": 396510.2299, "valuation": 5286803.065333333, "carbon": 130.1060296, "eui": 35.53180814, "image": "CA_6331441_streetview.jpg", "lat": 33.7235999, "lon": -116.3946746}, {"id": "CA_21378230", "address": "5604 Bay Street, Emeryville, CA, 94608", "city": "Emeryville", "state": "CA", "type": "Strip/Enclosed Mall", "vertical": "Commercial", "sqft": 327789.0, "opex": 268436.4044, "valuation": 3976835.620740741, "carbon": 151.748843, "eui": 66.60843494, "image": "CA_21378230_Serpapi.jpg", "lat": 37.8332766, "lon": -122.2925911}, {"id": "CHI_101562", "address": "1 East Jackson Blvd., Chicago, IL, 60604", "city": "Chicago", "state": "IL", "type": "Higher Ed", "vertical": "Education", "sqft": 701699.0, "opex": 253093.6785, "valuation": 0.0, "carbon": 664.597863, "eui": 57.28049507, "image": "CHI_101562_Chicagorealestateres.jpg", "lat": 41.888943, "lon": -87.641736}, {"id": "CHI_103748", "address": "710 N Fairbanks Ct, Chicago, IL, 60611", "city": "Chicago", "state": "IL", "type": "Medical Office/Lab", "vertical": "Healthcare", "sqft": 362800.0, "opex": 243052.7329, "valuation": 0.0, "carbon": 693.5195555, "eui": 306.6936058, "image": "CHI_103748_streetview.jpg", "lat": 41.90088, "lon": -87.626859}, {"id": "NYC_1015160032", "address": "1550 1556 Third Avenue, New York, NY, 10128", "city": "New York", "state": "NY", "type": "Office", "vertical": "Commercial", "sqft": 67500.0, "opex": 31366.39203, "valuation": 448091.31471428566, "carbon": 15.81505335, "eui": 37.05137185, "image": "NYC_1015160032_streetview.jpg", "lat": 40.7798346, "lon": -73.953699}, {"id": "SEA_1142000075", "address": "4326 University Way NE, Seattle, WA, 98105", "city": "Seattle", "state": "WA", "type": "Retail/Consumer Services", "vertical": "Commercial", "sqft": 89200.0, "opex": 29558.46809, "valuation": 492641.1348333333, "carbon": 21.52435473, "eui": 56.14403587, "image": "SEA_1142000075_En.jpg", "lat": 47.66024, "lon": -122.31278}, {"id": "CA_13121282", "address": "6000 El Cerrito Plaza, El Cerrito, CA, 94530", "city": "El Cerrito", "state": "CA", "type": "Strip/Enclosed Mall", "vertical": "Commercial", "sqft": 255828.0, "opex": 24103.83037, "valuation": 357093.78325925925, "carbon": 8.878136537, "eui": 8.094036345, "image": "CA_13121282_Flickr.jpg", "lat": 37.8998488, "lon": -122.3006688}, {"id": "CA_13124733", "address": "2221 West Malvern Avenue, Fullerton, CA, 92833", "city": "Fullerton", "state": "CA", "type": "Grocery/Supercenter", "vertical": "Commercial", "sqft": 96942.0, "opex": 23509.68783, "valuation": 391828.1305, "carbon": 3.650790386, "eui": 89.16167202, "image": "CA_13124733_Serpapi.jpg", "lat": 33.8788786, "lon": -117.9651144}, {"id": "ATL_592", "address": "2952 Cobb Pkwy SE, Atlanta, GA, 30339", "city": "Atlanta", "state": "GA", "type": "Office", "vertical": "Commercial", "sqft": 30000.0, "opex": 12322.23675, "valuation": 154027.959375, "carbon": 11.14223968, "eui": 73.0, "image": "ATL_592_Barnesnoblestoreloca.jpg", "lat": 33.8799873, "lon": -84.4636292}, {"id": "LA_427926817599", "address": "13400 Maxella Ave, Los Angeles, CA, 90292", "city": "Los Angeles", "state": "CA", "type": "Strip/Enclosed Mall", "vertical": "Commercial", "sqft": 44716.0, "opex": 3300.843345, "valuation": 48901.38288888889, "carbon": 0.858823373, "eui": 11.4, "image": "LA_427926817599_streetview.jpg", "lat": 33.986858, "lon": -118.44036}]